{
"type": "FeatureCollection",
"name": "geo_デイサービス",
"crs": { "type": "name", "properties": { "name": "urn:ogc:def:crs:OGC:1.3:CRS84" } },
"features": [
{ "type": "Feature", "properties": { "URL": "https://www.kaigokensaku.mhlw.go.jp/23/index.php?action_kouhyou_detail_023_kani=true&JigyosyoCd=2372601001-00&ServiceCd=150&Type=search", "名称": "庵いきいきデイサービス", "内容2": null, "郵便番号": null, "所在地": "〒442-0016愛知県豊川市美幸町1－51", "区分": "デイサービス", "緯度": 34.8349733, "経度": 137.3907624, "サービス提供地域": "豊川市内" }, "geometry": { "type": "Point", "coordinates": [ 137.3907624, 34.8349733 ] } },
{ "type": "Feature", "properties": { "URL": "https://www.kaigokensaku.mhlw.go.jp/23/index.php?action_kouhyou_detail_023_kani=true&JigyosyoCd=2372004784-00&ServiceCd=150&Type=search", "名称": "デイサービス栗の木", "内容2": null, "郵便番号": null, "所在地": "〒440-0838愛知県豊橋市三ノ輪町５丁目６７番地", "区分": "デイサービス", "緯度": 34.750901, "経度": 137.4102589, "サービス提供地域": "市内全域" }, "geometry": { "type": "Point", "coordinates": [ 137.4102589, 34.750901 ] } },
{ "type": "Feature", "properties": { "URL": "https://www.kaigokensaku.mhlw.go.jp/23/index.php?action_kouhyou_detail_023_kani=true&JigyosyoCd=2373900758-00&ServiceCd=150&Type=search", "名称": "稲沢ケアセンターそよ風", "内容2": null, "郵便番号": null, "所在地": "〒492-8108稲沢市子生和子安賀町５４－１", "区分": "デイサービス", "緯度": 35.2723096, "経度": 136.8064811, "サービス提供地域": "稲沢市・一宮市" }, "geometry": { "type": "Point", "coordinates": [ 136.806481100000013, 35.2723096 ] } },
{ "type": "Feature", "properties": { "URL": "https://www.kaigokensaku.mhlw.go.jp/23/index.php?action_kouhyou_detail_023_kani=true&JigyosyoCd=2374700330-00&ServiceCd=150&Type=search", "名称": "岩倉ケアセンターそよ風", "内容2": null, "郵便番号": null, "所在地": "〒482-0031愛知県岩倉市八剱大門出先　２９－１", "区分": "デイサービス", "緯度": 35.2909279, "経度": 136.8806019, "サービス提供地域": "岩倉市・江南市・一宮市・稲沢市・北名古屋・小牧市・大口町" }, "geometry": { "type": "Point", "coordinates": [ 136.880601899999988, 35.2909279 ] } },
{ "type": "Feature", "properties": { "URL": "https://www.kaigokensaku.mhlw.go.jp/23/index.php?action_kouhyou_detail_023_kani=true&JigyosyoCd=2370403814-00&ServiceCd=150&Type=search", "名称": "デイサービス　リタ", "内容2": null, "郵便番号": null, "所在地": "〒451-0084愛知県名古屋市西区上堀越町3-37", "区分": "デイサービス", "緯度": 35.2045869, "経度": 136.8795835, "サービス提供地域": "名古屋市北区・西区・中区一部（三の丸・丸の内）・清須市一部（西枇杷島）" }, "geometry": { "type": "Point", "coordinates": [ 136.8795835, 35.2045869 ] } },
{ "type": "Feature", "properties": { "URL": "https://www.kaigokensaku.mhlw.go.jp/23/index.php?action_kouhyou_detail_023_kani=true&JigyosyoCd=2372101846-00&ServiceCd=150&Type=search", "名称": "ニチイケアセンター上里", "内容2": null, "郵便番号": null, "所在地": "〒444-2136愛知県岡崎市上里二丁目13番地3", "区分": "デイサービス", "緯度": 34.9901245, "経度": 137.1621112, "サービス提供地域": "岡崎市" }, "geometry": { "type": "Point", "coordinates": [ 137.1621112, 34.9901245 ] } },
{ "type": "Feature", "properties": { "URL": "https://www.kaigokensaku.mhlw.go.jp/23/index.php?action_kouhyou_detail_023_kani=true&JigyosyoCd=2377200825-00&ServiceCd=150&Type=search", "名称": "サニー!!デイサービスMeihansou", "内容2": null, "郵便番号": null, "所在地": "〒496-8013愛知県愛西市見越町高畑227番1 サニー!!デイサービスMeihansou", "区分": "デイサービス", "緯度": 35.1872183, "経度": 136.732734, "サービス提供地域": "愛西市、津島市、稲沢市（祖父江町・平和町）" }, "geometry": { "type": "Point", "coordinates": [ 136.732734, 35.1872183 ] } },
{ "type": "Feature", "properties": { "URL": "https://www.kaigokensaku.mhlw.go.jp/23/index.php?action_kouhyou_detail_023_kani=true&JigyosyoCd=2375300155-00&ServiceCd=150&Type=search", "名称": "デイサービスセンター　扶桑苑", "内容2": null, "郵便番号": null, "所在地": "〒480-0101愛知県丹羽郡扶桑町大字山那字番所下８３－５", "区分": "デイサービス", "緯度": 35.3736558, "経度": 136.9179857, "サービス提供地域": "扶桑町全域、犬山市の一部（犬山、上野、上野新町、木津、東古券、西古券、南古券、北古券）、江南市の一部地域（山尻、盤若町、高屋町、江森）大口町一部地域" }, "geometry": { "type": "Point", "coordinates": [ 136.9179857, 35.3736558 ] } },
{ "type": "Feature", "properties": { "URL": "https://www.kaigokensaku.mhlw.go.jp/23/index.php?action_kouhyou_detail_023_kani=true&JigyosyoCd=2374600225-00&ServiceCd=150&Type=search", "名称": "ウエルカム ケア", "内容2": null, "郵便番号": null, "所在地": "〒444-1336愛知県高浜市呉竹町三丁目7番地12", "区分": "デイサービス", "緯度": 34.9400635, "経度": 136.9902005, "サービス提供地域": "高浜市 碧南市 刈谷市小垣江・高須・半城土・野田・松栄 安城市高棚 半田市亀崎・乙川 東浦町石浜" }, "geometry": { "type": "Point", "coordinates": [ 136.990200499999986, 34.9400635 ] } },
{ "type": "Feature", "properties": { "URL": "https://www.kaigokensaku.mhlw.go.jp/23/index.php?action_kouhyou_detail_023_kani=true&JigyosyoCd=2372001400-00&ServiceCd=150&Type=search", "名称": "デイサービスあい", "内容2": null, "郵便番号": null, "所在地": "〒440-0021愛知県豊橋市多米町字北脇２番地の３", "区分": "デイサービス", "緯度": 34.7621095, "経度": 137.4533489, "サービス提供地域": "豊橋市・湖西市・浜松市三ケ日町" }, "geometry": { "type": "Point", "coordinates": [ 137.4533489, 34.7621095 ] } },
{ "type": "Feature", "properties": { "URL": "https://www.kaigokensaku.mhlw.go.jp/23/index.php?action_kouhyou_detail_023_kani=true&JigyosyoCd=2373802186-00&ServiceCd=150&Type=search", "名称": "デイサービス　さんき", "内容2": null, "郵便番号": null, "所在地": "〒485-0803愛知県小牧市高根一丁目310番地2", "区分": "デイサービス", "緯度": 35.2918123, "経度": 136.9722152, "サービス提供地域": "愛知県小牧市、愛知県春日井市、愛知県犬山市" }, "geometry": { "type": "Point", "coordinates": [ 136.9722152, 35.2918123 ] } },
{ "type": "Feature", "properties": { "URL": "https://www.kaigokensaku.mhlw.go.jp/23/index.php?action_kouhyou_detail_023_kani=true&JigyosyoCd=2373004403-00&ServiceCd=150&Type=search", "名称": "ツクイ豊田土橋", "内容2": null, "郵便番号": null, "所在地": "〒471-0835愛知県豊田市曙町2丁目57番", "区分": "デイサービス", "緯度": 35.0571784, "経度": 137.1311081, "サービス提供地域": "豊田市" }, "geometry": { "type": "Point", "coordinates": [ 137.1311081, 35.0571784 ] } },
{ "type": "Feature", "properties": { "URL": "https://www.kaigokensaku.mhlw.go.jp/23/index.php?action_kouhyou_detail_023_kani=true&JigyosyoCd=2372105565-00&ServiceCd=150&Type=search", "名称": "ツクイ岡崎大樹寺", "内容2": null, "郵便番号": null, "所在地": "〒444-2134愛知県岡崎市大樹寺3-4-9", "区分": "デイサービス", "緯度": 34.9853885, "経度": 137.1608141, "サービス提供地域": "愛知県岡崎市" }, "geometry": { "type": "Point", "coordinates": [ 137.16081410000001, 34.9853885 ] } },
{ "type": "Feature", "properties": { "URL": "https://www.kaigokensaku.mhlw.go.jp/23/index.php?action_kouhyou_detail_023_kani=true&JigyosyoCd=2373600333-00&ServiceCd=150&Type=search", "名称": "医療法人　来光会　エブリデイ江森", "内容2": null, "郵便番号": null, "所在地": "〒483-8042愛知県江南市江森町東210-2", "区分": "デイサービス", "緯度": 35.3467672, "経度": 136.8944269, "サービス提供地域": "江南市、犬山市、扶桑町、大口町" }, "geometry": { "type": "Point", "coordinates": [ 136.894426900000013, 35.3467672 ] } },
{ "type": "Feature", "properties": { "URL": "https://www.kaigokensaku.mhlw.go.jp/23/index.php?action_kouhyou_detail_023_kani=true&JigyosyoCd=2372200929-00&ServiceCd=150&Type=search", "名称": "医療法人　来光会　エブリデイ戸塚", "内容2": null, "郵便番号": null, "所在地": "〒494-0927愛知県一宮市大和町戸塚字宮崎西17-1", "区分": "デイサービス", "緯度": 35.2780895, "経度": 136.7893052, "サービス提供地域": "一宮市、稲沢市" }, "geometry": { "type": "Point", "coordinates": [ 136.7893052, 35.2780895 ] } },
{ "type": "Feature", "properties": { "URL": "https://www.kaigokensaku.mhlw.go.jp/23/index.php?action_kouhyou_detail_023_kani=true&JigyosyoCd=2373700265-00&ServiceCd=150&Type=search", "名称": "医療法人　来光会　エブリデイ開明", "内容2": null, "郵便番号": null, "所在地": "〒494-0001愛知県一宮市開明字北屋敷8-1", "区分": "デイサービス", "緯度": 35.3161689, "経度": 136.7685199, "サービス提供地域": "一宮市、羽島市" }, "geometry": { "type": "Point", "coordinates": [ 136.7685199, 35.3161689 ] } },
{ "type": "Feature", "properties": { "URL": "https://www.kaigokensaku.mhlw.go.jp/23/index.php?action_kouhyou_detail_023_kani=true&JigyosyoCd=2372602926-00&ServiceCd=150&Type=search", "名称": "デイサービスセンター　フラミンゴ", "内容2": null, "郵便番号": null, "所在地": "〒442-0812愛知県豊川市三上町雨谷口３０番地", "区分": "デイサービス", "緯度": 34.8209081, "経度": 137.421163, "サービス提供地域": "豊川市、豊橋市の一部（賀茂町、石巻中山町、石巻萩平町、石巻町、牛川町、下条西町、下条東町）" }, "geometry": { "type": "Point", "coordinates": [ 137.421163, 34.8209081 ] } },
{ "type": "Feature", "properties": { "URL": "https://www.kaigokensaku.mhlw.go.jp/23/index.php?action_kouhyou_detail_023_kani=true&JigyosyoCd=2372004412-00&ServiceCd=150&Type=search", "名称": "デイサービスこむぎ", "内容2": null, "郵便番号": null, "所在地": "〒441-8151愛知県豊橋市曙町字測点12番地1 デイサービスこむぎ", "区分": "デイサービス", "緯度": 34.7228425, "経度": 137.4009637, "サービス提供地域": "豊橋市" }, "geometry": { "type": "Point", "coordinates": [ 137.4009637, 34.722842500000013 ] } },
{ "type": "Feature", "properties": { "URL": "https://www.kaigokensaku.mhlw.go.jp/23/index.php?action_kouhyou_detail_023_kani=true&JigyosyoCd=2372001996-00&ServiceCd=150&Type=search", "名称": "デイサービス　フラワーサーチ", "内容2": null, "郵便番号": null, "所在地": "〒441-8115愛知県豊橋市東高田町670番地", "区分": "デイサービス", "緯度": 34.7144407, "経度": 137.4330406, "サービス提供地域": "愛知県豊橋市　愛知県田原市（旧田原町区域）　静岡県湖西市" }, "geometry": { "type": "Point", "coordinates": [ 137.4330406, 34.7144407 ] } },
{ "type": "Feature", "properties": { "URL": "https://www.kaigokensaku.mhlw.go.jp/23/index.php?action_kouhyou_detail_023_kani=true&JigyosyoCd=2374500698-00&ServiceCd=150&Type=search", "名称": "通所介護 あおい", "内容2": null, "郵便番号": null, "所在地": "〒488-0827愛知県尾張旭市吉岡町二丁目８番地９", "区分": "デイサービス", "緯度": 35.2039953, "経度": 137.0261488, "サービス提供地域": "尾張旭市、名古屋市守山区、名東区、長久手市、瀬戸市" }, "geometry": { "type": "Point", "coordinates": [ 137.026148799999987, 35.2039953 ] } },
{ "type": "Feature", "properties": { "URL": "https://www.kaigokensaku.mhlw.go.jp/23/index.php?action_kouhyou_detail_023_kani=true&JigyosyoCd=2373001664-00&ServiceCd=150&Type=search", "名称": "百年草デイサービスセンター", "内容2": null, "郵便番号": null, "所在地": "〒444-2424愛知県豊田市足助町東貝戸１０番地", "区分": "デイサービス", "緯度": 35.1391093, "経度": 137.3324917, "サービス提供地域": "平成１７年の合併以前の旧足助地域及び加塩町、榊野町、惣田町、万根町となります。" }, "geometry": { "type": "Point", "coordinates": [ 137.3324917, 35.1391093 ] } },
{ "type": "Feature", "properties": { "URL": "https://www.kaigokensaku.mhlw.go.jp/23/index.php?action_kouhyou_detail_023_kani=true&JigyosyoCd=2372505517-00&ServiceCd=150&Type=search", "名称": "デイサービスリゾートアロハ春日井", "内容2": null, "郵便番号": null, "所在地": "〒486-0912愛知県春日井市高山町1-13-12", "区分": "デイサービス", "緯度": 35.2512533, "経度": 136.9529992, "サービス提供地域": "春日井市・名古屋市・小牧市・豊山町" }, "geometry": { "type": "Point", "coordinates": [ 136.9529992, 35.2512533 ] } },
{ "type": "Feature", "properties": { "URL": "https://www.kaigokensaku.mhlw.go.jp/23/index.php?action_kouhyou_detail_023_kani=true&JigyosyoCd=2373001755-00&ServiceCd=150&Type=search", "名称": "いなぶデイサービスセンター", "内容2": null, "郵便番号": null, "所在地": "〒441-2521豊田市桑原町中村５番地", "区分": "デイサービス", "緯度": 35.2142839, "経度": 137.5020772, "サービス提供地域": "稲武町　中当町　夏焼町　野入町　大野瀬町　押山町　武節町　桑原町　御所貝津町　川手町　黒田町　小田木町　富永町　明川町　連谷町　大多賀町　平沢町　田津原町（以上　豊田市内）　　　　　北設楽郡設楽町大字西納庫字清水・川口地内　　　　岐阜県恵那市上矢作町小田子地内　　　　長野県下伊那郡根羽村月瀬地内" }, "geometry": { "type": "Point", "coordinates": [ 137.5020772, 35.2142839 ] } },
{ "type": "Feature", "properties": { "URL": "https://www.kaigokensaku.mhlw.go.jp/23/index.php?action_kouhyou_detail_023_kani=true&JigyosyoCd=2375701170-00&ServiceCd=150&Type=search", "名称": "デイサービスセンター　ヒラソル", "内容2": null, "郵便番号": null, "所在地": "〒470-3412愛知県知多郡南知多町大字豊浜字太田面12-1", "区分": "デイサービス", "緯度": 34.70904, "経度": 136.9341522, "サービス提供地域": "送迎できる範囲" }, "geometry": { "type": "Point", "coordinates": [ 136.9341522, 34.70904 ] } },
{ "type": "Feature", "properties": { "URL": "https://www.kaigokensaku.mhlw.go.jp/23/index.php?action_kouhyou_detail_023_kani=true&JigyosyoCd=2372502100-00&ServiceCd=150&Type=search", "名称": "デイサービス 望", "内容2": null, "郵便番号": null, "所在地": "〒486-0913愛知県春日井市柏原町２丁目１８３番地１", "区分": "デイサービス", "緯度": 35.2442315, "経度": 136.9599048, "サービス提供地域": "春日井" }, "geometry": { "type": "Point", "coordinates": [ 136.9599048, 35.2442315 ] } },
{ "type": "Feature", "properties": { "URL": "https://www.kaigokensaku.mhlw.go.jp/23/index.php?action_kouhyou_detail_023_kani=true&JigyosyoCd=2372100350-00&ServiceCd=150&Type=search", "名称": "デイサービスほっとハウス愛", "内容2": null, "郵便番号": null, "所在地": "〒444-0823愛知県岡崎市上地１丁目４４番地１７", "区分": "デイサービス", "緯度": 34.9066451, "経度": 137.1610073, "サービス提供地域": "岡崎市・額田郡幸田町" }, "geometry": { "type": "Point", "coordinates": [ 137.1610073, 34.9066451 ] } },
{ "type": "Feature", "properties": { "URL": "https://www.kaigokensaku.mhlw.go.jp/23/index.php?action_kouhyou_detail_023_kani=true&JigyosyoCd=2373600309-00&ServiceCd=150&Type=search", "名称": "医療法人　来光会　エブリデイ鹿子島", "内容2": null, "郵便番号": null, "所在地": "〒483-8008愛知県江南市鹿子島町尾崎173番地", "区分": "デイサービス", "緯度": 35.3660736, "経度": 136.8636879, "サービス提供地域": "江南市、一宮市、扶桑町、各務原市" }, "geometry": { "type": "Point", "coordinates": [ 136.8636879, 35.3660736 ] } },
{ "type": "Feature", "properties": { "URL": "https://www.kaigokensaku.mhlw.go.jp/23/index.php?action_kouhyou_detail_023_kani=true&JigyosyoCd=2371202769-00&ServiceCd=150&Type=search", "名称": "ミライプロジェクト新瑞橋", "内容2": null, "郵便番号": null, "所在地": "〒457-0001愛知県名古屋市南区平子1-2-3", "区分": "デイサービス", "緯度": 35.1166496, "経度": 136.9407634, "サービス提供地域": "名古屋市南区、瑞穂区、昭和区、天白区、熱田区、緑区、千種区" }, "geometry": { "type": "Point", "coordinates": [ 136.9407634, 35.1166496 ] } },
{ "type": "Feature", "properties": { "URL": "https://www.kaigokensaku.mhlw.go.jp/23/index.php?action_kouhyou_detail_023_kani=true&JigyosyoCd=2372602330-00&ServiceCd=150&Type=search", "名称": "デイサービスれんげそう", "内容2": null, "郵便番号": null, "所在地": "〒441-0104平井町神明10番地1", "区分": "デイサービス", "緯度": 34.7925242, "経度": 137.3600339, "サービス提供地域": "愛知県豊川市全域、豊橋市全域" }, "geometry": { "type": "Point", "coordinates": [ 137.3600339, 34.7925242 ] } },
{ "type": "Feature", "properties": { "URL": "https://www.kaigokensaku.mhlw.go.jp/23/index.php?action_kouhyou_detail_023_kani=true&JigyosyoCd=2372003836-00&ServiceCd=150&Type=search", "名称": "ケアステーションあさひ豊橋", "内容2": null, "郵便番号": null, "所在地": "〒441-8106愛知県豊橋市弥生町字中原3番1", "区分": "デイサービス", "緯度": 34.7316039, "経度": 137.3988733, "サービス提供地域": "豊橋市" }, "geometry": { "type": "Point", "coordinates": [ 137.3988733, 34.7316039 ] } },
{ "type": "Feature", "properties": { "URL": "https://www.kaigokensaku.mhlw.go.jp/23/index.php?action_kouhyou_detail_023_kani=true&JigyosyoCd=2373301346-00&ServiceCd=150&Type=search", "名称": "竹谷すみれデイサービスセンター", "内容2": null, "郵便番号": null, "所在地": "〒443-0046愛知県蒲郡市竹谷町犬飼港3番地3", "区分": "デイサービス", "緯度": 34.8235724, "経度": 137.2127165, "サービス提供地域": "蒲郡市" }, "geometry": { "type": "Point", "coordinates": [ 137.2127165, 34.8235724 ] } },
{ "type": "Feature", "properties": { "URL": "https://www.kaigokensaku.mhlw.go.jp/23/index.php?action_kouhyou_detail_023_kani=true&JigyosyoCd=2372105748-00&ServiceCd=150&Type=search", "名称": "岡崎整形外科リハプライド", "内容2": null, "郵便番号": null, "所在地": "〒444-3174愛知県岡崎市真伝町字魂場62-1", "区分": "デイサービス", "緯度": 34.9809, "経度": 137.1806453, "サービス提供地域": "岡崎市内全域" }, "geometry": { "type": "Point", "coordinates": [ 137.1806453, 34.9809 ] } },
{ "type": "Feature", "properties": { "URL": "https://www.kaigokensaku.mhlw.go.jp/23/index.php?action_kouhyou_detail_023_kani=true&JigyosyoCd=2377300575-00&ServiceCd=150&Type=search", "名称": "緑の家　リハビリデイサービス 清須", "内容2": null, "郵便番号": null, "所在地": "〒452-0002愛知県清須市西枇杷島町花咲7番地 ラ・フォーレ花咲1階", "区分": "デイサービス", "緯度": 35.203619, "経度": 136.867846, "サービス提供地域": "清須市" }, "geometry": { "type": "Point", "coordinates": [ 136.867846, 35.203619 ] } },
{ "type": "Feature", "properties": { "URL": "https://www.kaigokensaku.mhlw.go.jp/23/index.php?action_kouhyou_detail_023_kani=true&JigyosyoCd=2371604386-00&ServiceCd=150&Type=search", "名称": "Nest DAY Service center", "内容2": null, "郵便番号": null, "所在地": "〒468-0074八幡山１０３番地八事裏山ハイツ１階", "区分": "デイサービス", "緯度": 35.1344947, "経度": 136.9694393, "サービス提供地域": "名古屋市全域" }, "geometry": { "type": "Point", "coordinates": [ 136.9694393, 35.1344947 ] } },
{ "type": "Feature", "properties": { "URL": "https://www.kaigokensaku.mhlw.go.jp/23/index.php?action_kouhyou_detail_023_kani=true&JigyosyoCd=2372003018-00&ServiceCd=150&Type=search", "名称": "デイサービスなゆた", "内容2": null, "郵便番号": null, "所在地": "〒440-0858愛知県豊橋市つつじが丘3丁目31-13", "区分": "デイサービス", "緯度": 34.7446378, "経度": 137.401289, "サービス提供地域": "豊橋市全域" }, "geometry": { "type": "Point", "coordinates": [ 137.401289, 34.7446378 ] } },
{ "type": "Feature", "properties": { "URL": "https://www.kaigokensaku.mhlw.go.jp/23/index.php?action_kouhyou_detail_023_kani=true&JigyosyoCd=2372101341-00&ServiceCd=150&Type=search", "名称": "岡崎ケアセンターそよ風", "内容2": null, "郵便番号": null, "所在地": "〒444-0915岡崎市日名南町５－２５", "区分": "デイサービス", "緯度": 34.9661878, "経度": 137.154528, "サービス提供地域": "岡崎市" }, "geometry": { "type": "Point", "coordinates": [ 137.154528, 34.9661878 ] } },
{ "type": "Feature", "properties": { "URL": "https://www.kaigokensaku.mhlw.go.jp/23/index.php?action_kouhyou_detail_023_kani=true&JigyosyoCd=2373300884-00&ServiceCd=150&Type=search", "名称": "JAデイサービスセンター蒲郡", "内容2": null, "郵便番号": null, "所在地": "〒443-0058愛知県蒲郡市上本町２番２５号", "区分": "デイサービス", "緯度": 34.8317102, "経度": 137.2282806, "サービス提供地域": "蒲郡市" }, "geometry": { "type": "Point", "coordinates": [ 137.2282806, 34.8317102 ] } },
{ "type": "Feature", "properties": { "URL": "https://www.kaigokensaku.mhlw.go.jp/23/index.php?action_kouhyou_detail_023_kani=true&JigyosyoCd=2374300545-00&ServiceCd=150&Type=search", "名称": "デイサービス　昭和の郷", "内容2": null, "郵便番号": null, "所在地": "〒478-0023愛知県知多市南粕谷東坂一丁目３０番地", "区分": "デイサービス", "緯度": 34.9393594, "経度": 136.8567567, "サービス提供地域": "知多市・東海市・常滑市・東浦町・阿久比町・半田市" }, "geometry": { "type": "Point", "coordinates": [ 136.8567567, 34.9393594 ] } },
{ "type": "Feature", "properties": { "URL": "https://www.kaigokensaku.mhlw.go.jp/23/index.php?action_kouhyou_detail_023_kani=true&JigyosyoCd=2371301058-00&ServiceCd=150&Type=search", "名称": "守山ケアコミュニティそよ風", "内容2": null, "郵便番号": null, "所在地": "〒463-0084愛知県名古屋市守山区西城２丁目１３番地２６号", "区分": "デイサービス", "緯度": 35.2053988, "経度": 136.9676458, "サービス提供地域": "名古屋市（守山区・千種区・東区・北区・名東区）　尾張旭市" }, "geometry": { "type": "Point", "coordinates": [ 136.967645800000014, 35.2053988 ] } },
{ "type": "Feature", "properties": { "URL": "https://www.kaigokensaku.mhlw.go.jp/23/index.php?action_kouhyou_detail_023_kani=true&JigyosyoCd=2373902010-00&ServiceCd=150&Type=search", "名称": "有限会社アイケイグリーン", "内容2": null, "郵便番号": null, "所在地": "〒492-8466愛知県稲沢市井堀江西町21番の4", "区分": "デイサービス", "緯度": 35.2294444, "経度": 136.7564705, "サービス提供地域": "稲沢市・愛西市・あま市・一宮市・津島市" }, "geometry": { "type": "Point", "coordinates": [ 136.7564705, 35.2294444 ] } },
{ "type": "Feature", "properties": { "URL": "https://www.kaigokensaku.mhlw.go.jp/23/index.php?action_kouhyou_detail_023_kani=true&JigyosyoCd=2372900155-00&ServiceCd=150&Type=search", "名称": "デイサービスセンター洲原ほーむ", "内容2": null, "郵便番号": null, "所在地": "〒448-0001愛知県刈谷市井ヶ谷町西石根1番地10", "区分": "デイサービス", "緯度": 35.0581752, "経度": 137.0591719, "サービス提供地域": "刈谷富士松包括地区(井ヶ谷町、東境町、西境町、今川町、今岡町、一里山町) 刈谷雁が音包括地区(泉田町、築地町、一ツ木町、恩田町、青山町、新田町)" }, "geometry": { "type": "Point", "coordinates": [ 137.0591719, 35.0581752 ] } },
{ "type": "Feature", "properties": { "URL": "https://www.kaigokensaku.mhlw.go.jp/23/index.php?action_kouhyou_detail_023_kani=true&JigyosyoCd=2373301221-00&ServiceCd=150&Type=search", "名称": "はあとデイサービス", "内容2": null, "郵便番号": null, "所在地": "〒443-0046愛知県蒲郡市竹谷町犬飼港1番地9 リハビリ型有料老人ホームはあと", "区分": "デイサービス", "緯度": 34.82377, "経度": 137.213423, "サービス提供地域": "蒲郡市内" }, "geometry": { "type": "Point", "coordinates": [ 137.213423, 34.82377 ] } },
{ "type": "Feature", "properties": { "URL": "https://www.kaigokensaku.mhlw.go.jp/23/index.php?action_kouhyou_detail_023_kani=true&JigyosyoCd=2374101406-00&ServiceCd=150&Type=search", "名称": "デイサービスおいでん！3丁目", "内容2": null, "郵便番号": null, "所在地": "〒476-0012愛知県東海市富木島町伏見4丁目5番地9", "区分": "デイサービス", "緯度": 35.013793, "経度": 136.9102131, "サービス提供地域": "東海市　大府市　知多市　東浦町　阿久比町　常滑市" }, "geometry": { "type": "Point", "coordinates": [ 136.9102131, 35.013793 ] } },
{ "type": "Feature", "properties": { "URL": "https://www.kaigokensaku.mhlw.go.jp/23/index.php?action_kouhyou_detail_023_kani=true&JigyosyoCd=2375600604-00&ServiceCd=150&Type=search", "名称": "デイサービスセンター佐織寿敬園", "内容2": null, "郵便番号": null, "所在地": "〒496-8019愛知県愛西市西川端町南須原4番1", "区分": "デイサービス", "緯度": 35.21722, "経度": 136.7132918, "サービス提供地域": "愛西市　稲沢市　津島市　あま市" }, "geometry": { "type": "Point", "coordinates": [ 136.7132918, 35.21722 ] } },
{ "type": "Feature", "properties": { "URL": "https://www.kaigokensaku.mhlw.go.jp/23/index.php?action_kouhyou_detail_023_kani=true&JigyosyoCd=2372505871-00&ServiceCd=150&Type=search", "名称": "デイサービスラスベガス春日井", "内容2": null, "郵便番号": null, "所在地": "〒486-0855愛知県春日井市関田町1丁目８９番地１", "区分": "デイサービス", "緯度": 35.2486571, "経度": 136.9847259, "サービス提供地域": "春日井市" }, "geometry": { "type": "Point", "coordinates": [ 136.9847259, 35.2486571 ] } },
{ "type": "Feature", "properties": { "URL": "https://www.kaigokensaku.mhlw.go.jp/23/index.php?action_kouhyou_detail_023_kani=true&JigyosyoCd=2375601925-00&ServiceCd=150&Type=search", "名称": "デイサービス 心愛", "内容2": null, "郵便番号": null, "所在地": "〒490-1107愛知県あま市森二丁目6-5", "区分": "デイサービス", "緯度": 35.2083305, "経度": 136.813182, "サービス提供地域": "あま市、清須市、海部郡大治町、稲沢市" }, "geometry": { "type": "Point", "coordinates": [ 136.813182, 35.2083305 ] } },
{ "type": "Feature", "properties": { "URL": "https://www.kaigokensaku.mhlw.go.jp/23/index.php?action_kouhyou_detail_023_kani=true&JigyosyoCd=2373101589-00&ServiceCd=150&Type=search", "名称": "デイサービスゆうゆう三河安城", "内容2": null, "郵便番号": null, "所在地": "〒446-0054安城市二本木町二本木１０１番地２２", "区分": "デイサービス", "緯度": 34.9688829, "経度": 137.0490226, "サービス提供地域": "安城市、刈谷市、知立市" }, "geometry": { "type": "Point", "coordinates": [ 137.0490226, 34.9688829 ] } },
{ "type": "Feature", "properties": { "URL": "https://www.kaigokensaku.mhlw.go.jp/23/index.php?action_kouhyou_detail_023_kani=true&JigyosyoCd=2372700357-00&ServiceCd=150&Type=search", "名称": "デイサービス　まごのて", "内容2": null, "郵便番号": null, "所在地": "〒496-0023愛知県津島市鹿伏兎町東清水146番地", "区分": "デイサービス", "緯度": 35.1380882, "経度": 136.7680161, "サービス提供地域": "津島市・愛西市・蟹江町・弥富市・あま市（旧七宝町）" }, "geometry": { "type": "Point", "coordinates": [ 136.768016100000011, 35.1380882 ] } },
{ "type": "Feature", "properties": { "URL": "https://www.kaigokensaku.mhlw.go.jp/23/index.php?action_kouhyou_detail_023_kani=true&JigyosyoCd=2374600084-00&ServiceCd=150&Type=search", "名称": "高浜安立荘デイサービスセンター", "内容2": null, "郵便番号": null, "所在地": "〒444-1335愛知県高浜市芳川町一丁目２番地７３", "区分": "デイサービス", "緯度": 34.9411011, "経度": 136.9817837, "サービス提供地域": "高浜市全域、刈谷市（小垣江町、荒井町）、安城市（高棚町、東端町）" }, "geometry": { "type": "Point", "coordinates": [ 136.9817837, 34.9411011 ] } },
{ "type": "Feature", "properties": { "URL": "https://www.kaigokensaku.mhlw.go.jp/23/index.php?action_kouhyou_detail_023_kani=true&JigyosyoCd=2374100622-00&ServiceCd=150&Type=search", "名称": "いこいの郷　聚楽園", "内容2": null, "郵便番号": null, "所在地": "〒476-0015東海市東海町6丁目3番11", "区分": "デイサービス", "緯度": 35.0406336, "経度": 136.8990862, "サービス提供地域": "東海市、知多市、大府市,名古屋市南区、緑区" }, "geometry": { "type": "Point", "coordinates": [ 136.8990862, 35.0406336 ] } },
{ "type": "Feature", "properties": { "URL": "https://www.kaigokensaku.mhlw.go.jp/23/index.php?action_kouhyou_detail_023_kani=true&JigyosyoCd=2374800817-00&ServiceCd=150&Type=search", "名称": "和みます", "内容2": null, "郵便番号": null, "所在地": "〒470-1101愛知県豊明市沓掛町荒畑２６番５７", "区分": "デイサービス", "緯度": 35.0715097, "経度": 137.0147676, "サービス提供地域": "豊明市、東郷町、名古屋市緑区、刈谷市" }, "geometry": { "type": "Point", "coordinates": [ 137.0147676, 35.0715097 ] } },
{ "type": "Feature", "properties": { "URL": "https://www.kaigokensaku.mhlw.go.jp/23/index.php?action_kouhyou_detail_023_kani=true&JigyosyoCd=2372602462-00&ServiceCd=150&Type=search", "名称": "デイサービスまごころ", "内容2": null, "郵便番号": null, "所在地": "〒442-0016愛知県豊川市美幸町2丁目83番地の1", "区分": "デイサービス", "緯度": 34.8333458, "経度": 137.3883279, "サービス提供地域": "豊川市全域（8時20分から送迎がスタートして、サービス提供時間の9時25分に入ることができる範囲。）" }, "geometry": { "type": "Point", "coordinates": [ 137.3883279, 34.8333458 ] } },
{ "type": "Feature", "properties": { "URL": "https://www.kaigokensaku.mhlw.go.jp/23/index.php?action_kouhyou_detail_023_kani=true&JigyosyoCd=2373200456-00&ServiceCd=150&Type=search", "名称": "まごころデイセンター", "内容2": null, "郵便番号": null, "所在地": "〒445-0802愛知県西尾市米津町家下1番地４ まごころデイセンター", "区分": "デイサービス", "緯度": 34.89541, "経度": 137.056216, "サービス提供地域": "西尾市（一色、吉良、鳥羽、寺部、西幡豆、東幡豆、佐久島除く）、安城市、碧南市の全域 岡崎市中島西町、中島町、正名町、福桶町、安藤町" }, "geometry": { "type": "Point", "coordinates": [ 137.056216, 34.89541 ] } },
{ "type": "Feature", "properties": { "URL": "https://www.kaigokensaku.mhlw.go.jp/23/index.php?action_kouhyou_detail_023_kani=true&JigyosyoCd=2373101811-00&ServiceCd=150&Type=search", "名称": "アクティブケア咲の樹デイサービス", "内容2": null, "郵便番号": null, "所在地": "〒446-0046愛知県安城市赤松町堀切３５番地 咲の樹", "区分": "デイサービス", "緯度": 34.9374109, "経度": 137.0595262, "サービス提供地域": "１日コース：安城市 短時間コース：安城市桜町、御幸本町、朝日町、相生町、末広町、花ノ木町、小堤町、錦町、日の出町、南町、百石町、城南町、大山町、安城町、堀内町、横山町、赤松町、石井町、三河安城東町、福釜町、箕輪町、榎前町、和泉町" }, "geometry": { "type": "Point", "coordinates": [ 137.0595262, 34.9374109 ] } },
{ "type": "Feature", "properties": { "URL": "https://www.kaigokensaku.mhlw.go.jp/23/index.php?action_kouhyou_detail_023_kani=true&JigyosyoCd=2370403228-00&ServiceCd=150&Type=search", "名称": "パナソニックエイジフリーケアセンター名古屋上小田井・デイサービス", "内容2": null, "郵便番号": null, "所在地": "〒452-0822愛知県名古屋市西区中小田井四丁目４０８－１", "区分": "デイサービス", "緯度": 35.2213746, "経度": 136.872691, "サービス提供地域": "名古屋市西区、名古屋市北区" }, "geometry": { "type": "Point", "coordinates": [ 136.872691, 35.2213746 ] } },
{ "type": "Feature", "properties": { "URL": "https://www.kaigokensaku.mhlw.go.jp/23/index.php?action_kouhyou_detail_023_kani=true&JigyosyoCd=2375700677-00&ServiceCd=150&Type=search", "名称": "デイサービス　榊原", "内容2": null, "郵便番号": null, "所在地": "〒470-2382愛知県知多郡武豊町大字東大高字鎮守４１－１", "区分": "デイサービス", "緯度": 34.8338265, "経度": 136.907597, "サービス提供地域": "半田市・常滑市・武豊町・美浜町・南知多町" }, "geometry": { "type": "Point", "coordinates": [ 136.907597, 34.8338265 ] } },
{ "type": "Feature", "properties": { "URL": "https://www.kaigokensaku.mhlw.go.jp/23/index.php?action_kouhyou_detail_023_kani=true&JigyosyoCd=2370400562-00&ServiceCd=150&Type=search", "名称": "デイサービス　花いちもんめ", "内容2": null, "郵便番号": null, "所在地": "〒452-0842愛知県名古屋市西区城町48番地", "区分": "デイサービス", "緯度": 35.2294804, "経度": 136.8677513, "サービス提供地域": "名古屋市西区、清須市、北名古屋市" }, "geometry": { "type": "Point", "coordinates": [ 136.8677513, 35.2294804 ] } },
{ "type": "Feature", "properties": { "URL": "https://www.kaigokensaku.mhlw.go.jp/23/index.php?action_kouhyou_detail_023_kani=true&JigyosyoCd=2372900411-00&ServiceCd=150&Type=search", "名称": "ケアパートナー刈谷", "内容2": null, "郵便番号": null, "所在地": "〒448-0008刈谷市今岡町荒神32番地", "区分": "デイサービス", "緯度": 35.0291652, "経度": 137.0245487, "サービス提供地域": "刈谷市・豊明市・知立市・安城市・みよし市" }, "geometry": { "type": "Point", "coordinates": [ 137.0245487, 35.0291652 ] } },
{ "type": "Feature", "properties": { "URL": "https://www.kaigokensaku.mhlw.go.jp/23/index.php?action_kouhyou_detail_023_kani=true&JigyosyoCd=2373801154-00&ServiceCd=150&Type=search", "名称": "ケアパートナー小牧", "内容2": null, "郵便番号": null, "所在地": "〒485-0832愛知県小牧市応時２丁目９４番地 ガーデンスクエア１Ｆ", "区分": "デイサービス", "緯度": 35.282197, "経度": 136.9349595, "サービス提供地域": "小牧市・春日井市・岩倉市・豊山町、北名古屋市" }, "geometry": { "type": "Point", "coordinates": [ 136.9349595, 35.282197 ] } },
{ "type": "Feature", "properties": { "URL": "https://www.kaigokensaku.mhlw.go.jp/23/index.php?action_kouhyou_detail_023_kani=true&JigyosyoCd=2372700258-00&ServiceCd=150&Type=search", "名称": "デイサービスセンター長寿の里・津島", "内容2": null, "郵便番号": null, "所在地": "〒496-0874愛知県津島市江西町一丁目3番1", "区分": "デイサービス", "緯度": 35.1786108, "経度": 136.7135183, "サービス提供地域": "津島市　愛西市　稲沢市" }, "geometry": { "type": "Point", "coordinates": [ 136.7135183, 35.1786108 ] } },
{ "type": "Feature", "properties": { "URL": "https://www.kaigokensaku.mhlw.go.jp/23/index.php?action_kouhyou_detail_023_kani=true&JigyosyoCd=2372700894-00&ServiceCd=150&Type=search", "名称": "医療法人　三善会　デイサービスセンター　サンテラス", "内容2": null, "郵便番号": null, "所在地": "〒496-0009愛知県津島市葉苅町字綿掛５８番地", "区分": "デイサービス", "緯度": 35.1911171, "経度": 136.7603823, "サービス提供地域": "津島市、愛西市旧佐織町、稲沢市平和町、あま市旧美和町" }, "geometry": { "type": "Point", "coordinates": [ 136.7603823, 35.1911171 ] } },
{ "type": "Feature", "properties": { "URL": "https://www.kaigokensaku.mhlw.go.jp/23/index.php?action_kouhyou_detail_023_kani=true&JigyosyoCd=2375001241-00&ServiceCd=150&Type=search", "名称": "デイサービスセンターきたぐま", "内容2": null, "郵便番号": null, "所在地": "〒480-1168愛知県長久手市坊の後1121番地", "区分": "デイサービス", "緯度": 35.179439, "経度": 137.0385505, "サービス提供地域": "長久手市" }, "geometry": { "type": "Point", "coordinates": [ 137.038550500000014, 35.179439 ] } },
{ "type": "Feature", "properties": { "URL": "https://www.kaigokensaku.mhlw.go.jp/23/index.php?action_kouhyou_detail_023_kani=true&JigyosyoCd=2372206181-00&ServiceCd=150&Type=search", "名称": "松原クリニック　デイサービスまつの実", "内容2": null, "郵便番号": null, "所在地": "〒493-0005愛知県一宮市里小牧字西蒲原200番地", "区分": "デイサービス", "緯度": 35.3449208, "経度": 136.7632662, "サービス提供地域": "一宮市内" }, "geometry": { "type": "Point", "coordinates": [ 136.7632662, 35.3449208 ] } },
{ "type": "Feature", "properties": { "URL": "https://www.kaigokensaku.mhlw.go.jp/23/index.php?action_kouhyou_detail_023_kani=true&JigyosyoCd=2372002929-00&ServiceCd=150&Type=search", "名称": "花水木デイサービス", "内容2": null, "郵便番号": null, "所在地": "〒441-3125愛知県豊橋市豊栄町字東409－1", "区分": "デイサービス", "緯度": 34.705643, "経度": 137.4315563, "サービス提供地域": "豊橋市全域" }, "geometry": { "type": "Point", "coordinates": [ 137.431556300000011, 34.705643 ] } },
{ "type": "Feature", "properties": { "URL": "https://www.kaigokensaku.mhlw.go.jp/23/index.php?action_kouhyou_detail_023_kani=true&JigyosyoCd=2373200936-00&ServiceCd=150&Type=search", "名称": "デイサービスゴールドエイジ西尾", "内容2": null, "郵便番号": null, "所在地": "〒445-0062丁田町流２４番地 ゴールドエイジ西尾", "区分": "デイサービス", "緯度": 34.8592088, "経度": 137.0650148, "サービス提供地域": "西尾市内" }, "geometry": { "type": "Point", "coordinates": [ 137.0650148, 34.8592088 ] } },
{ "type": "Feature", "properties": { "URL": "https://www.kaigokensaku.mhlw.go.jp/23/index.php?action_kouhyou_detail_023_kani=true&JigyosyoCd=2375900293-00&ServiceCd=150&Type=search", "名称": "デイサービス吉良の家", "内容2": null, "郵便番号": null, "所在地": "〒444-0516愛知県西尾市吉良町吉田八ツ田24", "区分": "デイサービス", "緯度": 34.7947194, "経度": 137.0683704, "サービス提供地域": "西尾市" }, "geometry": { "type": "Point", "coordinates": [ 137.0683704, 34.7947194 ] } },
{ "type": "Feature", "properties": { "URL": "https://www.kaigokensaku.mhlw.go.jp/23/index.php?action_kouhyou_detail_023_kani=true&JigyosyoCd=2374100911-00&ServiceCd=150&Type=search", "名称": "デイサービスセンター元気", "内容2": null, "郵便番号": null, "所在地": "〒477-0032愛知県東海市加木屋町石塚１７７番地", "区分": "デイサービス", "緯度": 34.9781093, "経度": 136.9117321, "サービス提供地域": "東海市・知多市・東浦町・大府市及び阿久比町" }, "geometry": { "type": "Point", "coordinates": [ 136.9117321, 34.9781093 ] } },
{ "type": "Feature", "properties": { "URL": "https://www.kaigokensaku.mhlw.go.jp/23/index.php?action_kouhyou_detail_023_kani=true&JigyosyoCd=2374300388-00&ServiceCd=150&Type=search", "名称": "知多東部デイサービスセンター梅の里", "内容2": null, "郵便番号": null, "所在地": "〒478-0014愛知県知多市西巽が丘2-18-7", "区分": "デイサービス", "緯度": 34.9604972, "経度": 136.9061489, "サービス提供地域": "東海市・知多市・大府市及び東浦町・阿久比町" }, "geometry": { "type": "Point", "coordinates": [ 136.9061489, 34.960497200000013 ] } },
{ "type": "Feature", "properties": { "URL": "https://www.kaigokensaku.mhlw.go.jp/23/index.php?action_kouhyou_detail_023_kani=true&JigyosyoCd=2372401642-00&ServiceCd=150&Type=search", "名称": "みずほリハビリデイサービス", "内容2": null, "郵便番号": null, "所在地": "〒475-0828瑞穂町９－３－６", "区分": "デイサービス", "緯度": 34.8902812, "経度": 136.94293, "サービス提供地域": "半田市・武豊町" }, "geometry": { "type": "Point", "coordinates": [ 136.94293, 34.8902812 ] } },
{ "type": "Feature", "properties": { "URL": "https://www.kaigokensaku.mhlw.go.jp/23/index.php?action_kouhyou_detail_023_kani=true&JigyosyoCd=2375001217-00&ServiceCd=150&Type=search", "名称": "中部介護アウト・オン・ア・リム", "内容2": null, "郵便番号": null, "所在地": "〒470-0153愛知郡東郷町和合牛廻間1-107", "区分": "デイサービス", "緯度": 35.1071734, "経度": 137.0455077, "サービス提供地域": "東郷町,　日進市,　みよし市,　名古屋市 天白区・緑区,　豊明市,　長久手市" }, "geometry": { "type": "Point", "coordinates": [ 137.0455077, 35.1071734 ] } },
{ "type": "Feature", "properties": { "URL": "https://www.kaigokensaku.mhlw.go.jp/23/index.php?action_kouhyou_detail_023_kani=true&JigyosyoCd=2371200649-00&ServiceCd=150&Type=search", "名称": "名古屋南ケアセンターそよ風", "内容2": null, "郵便番号": null, "所在地": "〒457-0025愛知県名古屋市南区白雲町6番地", "区分": "デイサービス", "緯度": 35.0996475, "経度": 136.9380222, "サービス提供地域": "名古屋市南区、瑞穂区（一部）、天白区（一部）" }, "geometry": { "type": "Point", "coordinates": [ 136.9380222, 35.0996475 ] } },
{ "type": "Feature", "properties": { "URL": "https://www.kaigokensaku.mhlw.go.jp/23/index.php?action_kouhyou_detail_023_kani=true&JigyosyoCd=2374200331-00&ServiceCd=150&Type=search", "名称": "特定非営利活動法人ネットワーク大府　追分デイサービス", "内容2": null, "郵便番号": null, "所在地": "〒474-0027愛知県大府市追分町二丁目67番地", "区分": "デイサービス", "緯度": 35.0283643, "経度": 136.9592865, "サービス提供地域": "大府市内" }, "geometry": { "type": "Point", "coordinates": [ 136.9592865, 35.0283643 ] } },
{ "type": "Feature", "properties": { "URL": "https://www.kaigokensaku.mhlw.go.jp/23/index.php?action_kouhyou_detail_023_kani=true&JigyosyoCd=2372502324-00&ServiceCd=150&Type=search", "名称": "わかばリハビリセンター", "内容2": null, "郵便番号": null, "所在地": "〒486-0946春日井市勝川町西２丁目２２番地", "区分": "デイサービス", "緯度": 35.2225369, "経度": 136.9453261, "サービス提供地域": "春日井市内" }, "geometry": { "type": "Point", "coordinates": [ 136.945326099999988, 35.2225369 ] } },
{ "type": "Feature", "properties": { "URL": "https://www.kaigokensaku.mhlw.go.jp/23/index.php?action_kouhyou_detail_023_kani=true&JigyosyoCd=2373801279-00&ServiceCd=150&Type=search", "名称": "デイサービスセンターくれいん小牧", "内容2": null, "郵便番号": null, "所在地": "〒485-0023愛知県小牧市大字北外山字神宮１５２５番 ストーンフィールド神宮１Ｆ", "区分": "デイサービス", "緯度": 35.2722232, "経度": 136.9307652, "サービス提供地域": "小牧市、岩倉市、北名古屋市、豊山町、春日井市" }, "geometry": { "type": "Point", "coordinates": [ 136.9307652, 35.2722232 ] } },
{ "type": "Feature", "properties": { "URL": "https://www.kaigokensaku.mhlw.go.jp/23/index.php?action_kouhyou_detail_023_kani=true&JigyosyoCd=2372501789-00&ServiceCd=150&Type=search", "名称": "おはようデイサービス", "内容2": null, "郵便番号": null, "所在地": "〒486-0947春日井市知多町２－１１２", "区分": "デイサービス", "緯度": 35.2318552, "経度": 136.9449858, "サービス提供地域": "春日井市" }, "geometry": { "type": "Point", "coordinates": [ 136.944985800000012, 35.2318552 ] } },
{ "type": "Feature", "properties": { "URL": "https://www.kaigokensaku.mhlw.go.jp/23/index.php?action_kouhyou_detail_023_kani=true&JigyosyoCd=2372501581-00&ServiceCd=150&Type=search", "名称": "デイサービスさくらんぼ", "内容2": null, "郵便番号": null, "所在地": "〒486-0812愛知県春日井市大泉寺町443番地158", "区分": "デイサービス", "緯度": 35.2755681, "経度": 137.0085428, "サービス提供地域": "春日井市、小牧市（大草、篠岡、城山、光ヶ丘）" }, "geometry": { "type": "Point", "coordinates": [ 137.008542799999987, 35.2755681 ] } },
{ "type": "Feature", "properties": { "URL": "https://www.kaigokensaku.mhlw.go.jp/23/index.php?action_kouhyou_detail_023_kani=true&JigyosyoCd=2371303955-00&ServiceCd=150&Type=search", "名称": "よつはデイサービス", "内容2": null, "郵便番号": null, "所在地": "〒463-0034愛知県名古屋市四軒家一丁目1576番地 レーベン豊1F　102号室", "区分": "デイサービス", "緯度": 35.1931555, "経度": 137.0180921, "サービス提供地域": "名古屋市守山区、名東区、長久手市、尾張旭市" }, "geometry": { "type": "Point", "coordinates": [ 137.0180921, 35.1931555 ] } },
{ "type": "Feature", "properties": { "URL": "https://www.kaigokensaku.mhlw.go.jp/23/index.php?action_kouhyou_detail_023_kani=true&JigyosyoCd=2371303344-00&ServiceCd=150&Type=search", "名称": "リハプライド名古屋東", "内容2": null, "郵便番号": null, "所在地": "〒463-0034愛知県名古屋市守山区四軒家２－４０１", "区分": "デイサービス", "緯度": 35.1925071, "経度": 137.0132458, "サービス提供地域": "名古屋市守山区、名東区、千種区、尾張旭市、長久手市、瀬戸市、 上記市区全域をカバーしている訳ではありませんので、詳しくはお問い合わせ下さい。" }, "geometry": { "type": "Point", "coordinates": [ 137.0132458, 35.1925071 ] } },
{ "type": "Feature", "properties": { "URL": "https://www.kaigokensaku.mhlw.go.jp/23/index.php?action_kouhyou_detail_023_kani=true&JigyosyoCd=2372103362-00&ServiceCd=150&Type=search", "名称": "わくわくデイサービス", "内容2": null, "郵便番号": null, "所在地": "〒444-0076愛知県岡崎市稲熊町八丁目15番地１", "区分": "デイサービス", "緯度": 34.9675463, "経度": 137.183488, "サービス提供地域": "岡崎市内、豊田市、安城市" }, "geometry": { "type": "Point", "coordinates": [ 137.183488, 34.9675463 ] } },
{ "type": "Feature", "properties": { "URL": "https://www.kaigokensaku.mhlw.go.jp/23/index.php?action_kouhyou_detail_023_kani=true&JigyosyoCd=2373500749-00&ServiceCd=150&Type=search", "名称": "アルト介護センター飛香台", "内容2": null, "郵便番号": null, "所在地": "〒479-0868愛知県常滑市飛香台６丁目５番の３", "区分": "デイサービス", "緯度": 34.896567, "経度": 136.8547851, "サービス提供地域": "常滑市・半田市・知多市・武豊町・美浜町" }, "geometry": { "type": "Point", "coordinates": [ 136.854785099999987, 34.896567 ] } },
{ "type": "Feature", "properties": { "URL": "https://www.kaigokensaku.mhlw.go.jp/23/index.php?action_kouhyou_detail_023_kani=true&JigyosyoCd=2371402146-00&ServiceCd=150&Type=search", "名称": "リハビリデイステーション元気村緑花台", "内容2": null, "郵便番号": null, "所在地": "〒459-8005名古屋市緑区緑花台1945", "区分": "デイサービス", "緯度": 35.0588498, "経度": 136.9613814, "サービス提供地域": "名古屋市緑区、豊明市、大府市" }, "geometry": { "type": "Point", "coordinates": [ 136.9613814, 35.0588498 ] } },
{ "type": "Feature", "properties": { "URL": "https://www.kaigokensaku.mhlw.go.jp/23/index.php?action_kouhyou_detail_023_kani=true&JigyosyoCd=2370300333-00&ServiceCd=150&Type=search", "名称": "ニチイケアセンター黒川", "内容2": null, "郵便番号": null, "所在地": "〒462-0841愛知県名古屋市北区黒川本通2-36", "区分": "デイサービス", "緯度": 35.1984445, "経度": 136.9114683, "サービス提供地域": "名古屋市北区、西区" }, "geometry": { "type": "Point", "coordinates": [ 136.9114683, 35.1984445 ] } },
{ "type": "Feature", "properties": { "URL": "https://www.kaigokensaku.mhlw.go.jp/23/index.php?action_kouhyou_detail_023_kani=true&JigyosyoCd=2373005038-00&ServiceCd=150&Type=search", "名称": "SPA FURUSATO 四郷", "内容2": null, "郵便番号": null, "所在地": "〒470-0373愛知県豊田市四郷町東畑２１７−１", "区分": "デイサービス", "緯度": 35.1219696, "経度": 137.1690005, "サービス提供地域": "主に豊田市" }, "geometry": { "type": "Point", "coordinates": [ 137.16900050000001, 35.1219696 ] } },
{ "type": "Feature", "properties": { "URL": "https://www.kaigokensaku.mhlw.go.jp/23/index.php?action_kouhyou_detail_023_kani=true&JigyosyoCd=2371603032-00&ServiceCd=150&Type=search", "名称": "ケアステーションあさひ名古屋天白", "内容2": null, "郵便番号": null, "所在地": "〒468-0004愛知県名古屋市天白区梅が丘五丁目1702番地", "区分": "デイサービス", "緯度": 35.1323391, "経度": 137.0023308, "サービス提供地域": "名古屋市天白区" }, "geometry": { "type": "Point", "coordinates": [ 137.00233080000001, 35.1323391 ] } },
{ "type": "Feature", "properties": { "URL": "https://www.kaigokensaku.mhlw.go.jp/23/index.php?action_kouhyou_detail_023_kani=true&JigyosyoCd=2371000387-00&ServiceCd=150&Type=search", "名称": "社会福祉法人　富田福祉会　デイサービスセンター法華", "内容2": null, "郵便番号": null, "所在地": "〒454-0933名古屋市中川区法華2丁目104番地", "区分": "デイサービス", "緯度": 35.1243621, "経度": 136.8477272, "サービス提供地域": "中川区　港区　中村区 熱田区" }, "geometry": { "type": "Point", "coordinates": [ 136.8477272, 35.1243621 ] } },
{ "type": "Feature", "properties": { "URL": "https://www.kaigokensaku.mhlw.go.jp/23/index.php?action_kouhyou_detail_023_kani=true&JigyosyoCd=2372004297-00&ServiceCd=150&Type=search", "名称": "デイサービス　植田の杜", "内容2": null, "郵便番号": null, "所在地": "〒441-8134愛知県豊橋市植田町字西ヶ谷66-1", "区分": "デイサービス", "緯度": 34.7030704, "経度": 137.3643289, "サービス提供地域": "豊橋市内" }, "geometry": { "type": "Point", "coordinates": [ 137.3643289, 34.7030704 ] } },
{ "type": "Feature", "properties": { "URL": "https://www.kaigokensaku.mhlw.go.jp/23/index.php?action_kouhyou_detail_023_kani=true&JigyosyoCd=2371402872-00&ServiceCd=150&Type=search", "名称": "リハビリ専門デイサービス Yell", "内容2": null, "郵便番号": null, "所在地": "〒459-8001愛知県名古屋市緑区大高町字神戸33番地", "区分": "デイサービス", "緯度": 35.0664203, "経度": 136.9264193, "サービス提供地域": "名古屋市緑区、南区、東海市(名和町、新宝町、南柴田町、浅山、荒尾町、東海町、富貴ノ台）、大府市共和町" }, "geometry": { "type": "Point", "coordinates": [ 136.9264193, 35.0664203 ] } },
{ "type": "Feature", "properties": { "URL": "https://www.kaigokensaku.mhlw.go.jp/23/index.php?action_kouhyou_detail_023_kani=true&JigyosyoCd=2373102421-00&ServiceCd=150&Type=search", "名称": "コンパスウォーク安城", "内容2": null, "郵便番号": null, "所在地": "〒446-0026愛知県安城市安城町西広畔74-9", "区分": "デイサービス", "緯度": 34.9450364, "経度": 137.0753168, "サービス提供地域": "安城市" }, "geometry": { "type": "Point", "coordinates": [ 137.0753168, 34.9450364 ] } },
{ "type": "Feature", "properties": { "URL": "https://www.kaigokensaku.mhlw.go.jp/23/index.php?action_kouhyou_detail_023_kani=true&JigyosyoCd=2370402915-00&ServiceCd=150&Type=search", "名称": "花の木　デイサロン　さつき", "内容2": null, "郵便番号": null, "所在地": "〒451-0025愛知県名古屋市西区上名古屋3-13-3 はなのき万福ビル1F", "区分": "デイサービス", "緯度": 35.1958977, "経度": 136.8955553, "サービス提供地域": "名古屋市西区・東区全域　　北区・中区・中村区は一部を除く" }, "geometry": { "type": "Point", "coordinates": [ 136.895555300000012, 35.1958977 ] } },
{ "type": "Feature", "properties": { "URL": "https://www.kaigokensaku.mhlw.go.jp/23/index.php?action_kouhyou_detail_023_kani=true&JigyosyoCd=2371501780-00&ServiceCd=150&Type=search", "名称": "デイサービスセンター藤森", "内容2": null, "郵便番号": null, "所在地": "〒465-0022名古屋市名東区藤森西町1510", "区分": "デイサービス", "緯度": 35.1875597, "経度": 137.0105464, "サービス提供地域": "名古屋市内,尾張旭市,長久手町" }, "geometry": { "type": "Point", "coordinates": [ 137.01054640000001, 35.1875597 ] } },
{ "type": "Feature", "properties": { "URL": "https://www.kaigokensaku.mhlw.go.jp/23/index.php?action_kouhyou_detail_023_kani=true&JigyosyoCd=2370502219-00&ServiceCd=150&Type=search", "名称": "デイサービス　ソラスト中村公園", "内容2": null, "郵便番号": null, "所在地": "〒453-0837愛知県名古屋市中村区二瀬町89番地 名星ビル", "区分": "デイサービス", "緯度": 35.1596576, "経度": 136.8498509, "サービス提供地域": "中村区・中川区" }, "geometry": { "type": "Point", "coordinates": [ 136.8498509, 35.1596576 ] } },
{ "type": "Feature", "properties": { "URL": "https://www.kaigokensaku.mhlw.go.jp/23/index.php?action_kouhyou_detail_023_kani=true&JigyosyoCd=2372102331-00&ServiceCd=150&Type=search", "名称": "よっこらしょっ青い鳥デイサービス", "内容2": null, "郵便番号": null, "所在地": "〒444-0938愛知県岡崎市昭和町字天神１８ よっこらしょっ青い鳥", "区分": "デイサービス", "緯度": 34.9459786, "経度": 137.1197922, "サービス提供地域": "岡崎市　安城市" }, "geometry": { "type": "Point", "coordinates": [ 137.1197922, 34.9459786 ] } },
{ "type": "Feature", "properties": { "URL": "https://www.kaigokensaku.mhlw.go.jp/23/index.php?action_kouhyou_detail_023_kani=true&JigyosyoCd=2370200277-00&ServiceCd=150&Type=search", "名称": "デイサービスセンター筒井", "内容2": null, "郵便番号": null, "所在地": "〒461-0003名古屋市東区筒井一丁目2番1－1号", "区分": "デイサービス", "緯度": 35.1807767, "経度": 136.9282798, "サービス提供地域": "名古屋市東区、北区、千種区、中区" }, "geometry": { "type": "Point", "coordinates": [ 136.928279800000013, 35.1807767 ] } },
{ "type": "Feature", "properties": { "URL": "https://www.kaigokensaku.mhlw.go.jp/23/index.php?action_kouhyou_detail_023_kani=true&JigyosyoCd=2370402394-00&ServiceCd=150&Type=search", "名称": "花の木　デイサロン　ひまわり", "内容2": null, "郵便番号": null, "所在地": "〒451-0053愛知県名古屋市西区枇杷島3-1-8", "区分": "デイサービス", "緯度": 35.1901667, "経度": 136.8753542, "サービス提供地域": "西区、東区　全域 一部を除く　北区・中区・中村区" }, "geometry": { "type": "Point", "coordinates": [ 136.8753542, 35.1901667 ] } },
{ "type": "Feature", "properties": { "URL": "https://www.kaigokensaku.mhlw.go.jp/23/index.php?action_kouhyou_detail_023_kani=true&JigyosyoCd=2373201751-00&ServiceCd=150&Type=search", "名称": "デイサービスいこいの里「本館」", "内容2": null, "郵便番号": null, "所在地": "〒445-0062愛知県西尾市丁田町杢左51-1", "区分": "デイサービス", "緯度": 34.8602503, "経度": 137.0632682, "サービス提供地域": "西尾市全域及び送迎時間が30分圏内の地域" }, "geometry": { "type": "Point", "coordinates": [ 137.06326820000001, 34.8602503 ] } },
{ "type": "Feature", "properties": { "URL": "https://www.kaigokensaku.mhlw.go.jp/23/index.php?action_kouhyou_detail_023_kani=true&JigyosyoCd=2371002300-00&ServiceCd=150&Type=search", "名称": "リハビリデイサービス　げんき倶楽部・中川", "内容2": null, "郵便番号": null, "所在地": "〒454-0984名古屋市中川区供米田２丁目９０９番地", "区分": "デイサービス", "緯度": 35.1367758, "経度": 136.8132726, "サービス提供地域": "名古屋市中川区、名古屋市中村区、名古屋市港区、海部郡蟹江町、海部郡大治町" }, "geometry": { "type": "Point", "coordinates": [ 136.8132726, 35.1367758 ] } },
{ "type": "Feature", "properties": { "URL": "https://www.kaigokensaku.mhlw.go.jp/23/index.php?action_kouhyou_detail_023_kani=true&JigyosyoCd=2372302691-00&ServiceCd=150&Type=search", "名称": "もみじの里　かまど炊きご飯のデイサービス", "内容2": null, "郵便番号": null, "所在地": "〒489-0007愛知県瀬戸市鹿乗町306番地", "区分": "デイサービス", "緯度": 35.264046, "経度": 137.0552783, "サービス提供地域": "瀬戸市・春日井市・尾張旭市・名古屋市（守山区）の一部" }, "geometry": { "type": "Point", "coordinates": [ 137.0552783, 35.264046 ] } },
{ "type": "Feature", "properties": { "URL": "https://www.kaigokensaku.mhlw.go.jp/23/index.php?action_kouhyou_detail_023_kani=true&JigyosyoCd=2371401916-00&ServiceCd=150&Type=search", "名称": "デイサービス喜楽", "内容2": null, "郵便番号": null, "所在地": "〒458-0004愛知県名古屋市緑区乗鞍１－２０２", "区分": "デイサービス", "緯度": 35.0969591, "経度": 136.9922948, "サービス提供地域": "緑区、天白区" }, "geometry": { "type": "Point", "coordinates": [ 136.9922948, 35.0969591 ] } },
{ "type": "Feature", "properties": { "URL": "https://www.kaigokensaku.mhlw.go.jp/23/index.php?action_kouhyou_detail_023_kani=true&JigyosyoCd=2372001574-00&ServiceCd=150&Type=search", "名称": "ハートケアセンター　デイサービス", "内容2": null, "郵便番号": null, "所在地": "〒440-0826愛知県豊橋市大井町18-3", "区分": "デイサービス", "緯度": 34.7594461, "経度": 137.4127522, "サービス提供地域": "豊橋市" }, "geometry": { "type": "Point", "coordinates": [ 137.4127522, 34.7594461 ] } },
{ "type": "Feature", "properties": { "URL": "https://www.kaigokensaku.mhlw.go.jp/23/index.php?action_kouhyou_detail_023_kani=true&JigyosyoCd=2372002960-00&ServiceCd=150&Type=search", "名称": "ヒューマンライフケア豊橋の湯", "内容2": null, "郵便番号": null, "所在地": "〒440-0004愛知県豊橋市忠興１－１－６ コーポ白鳥1階", "区分": "デイサービス", "緯度": 34.7763868, "経度": 137.4295552, "サービス提供地域": "豊橋市(忠興・多米町・飯村町・石巻町・嵩山町・賀茂町・岩田町・向山町・新川町・松葉町・八町通・旭町・東田町・牛川町・西小鷹野町・東小鷹野町・ 松山・つつじか丘・佐藤町)上記以外は応相談" }, "geometry": { "type": "Point", "coordinates": [ 137.42955520000001, 34.7763868 ] } },
{ "type": "Feature", "properties": { "URL": "https://www.kaigokensaku.mhlw.go.jp/23/index.php?action_kouhyou_detail_023_kani=true&JigyosyoCd=2371004306-00&ServiceCd=150&Type=search", "名称": "プレミアムデイサロン ローズラウンジ 癒しの空間こうらくの湯", "内容2": null, "郵便番号": null, "所在地": "〒454-0867愛知県名古屋市中川区広田町二丁目１０－１", "区分": "デイサービス", "緯度": 35.1300979, "経度": 136.8575951, "サービス提供地域": "中川区、港区、中村区、熱田区" }, "geometry": { "type": "Point", "coordinates": [ 136.8575951, 35.1300979 ] } },
{ "type": "Feature", "properties": { "URL": "https://www.kaigokensaku.mhlw.go.jp/23/index.php?action_kouhyou_detail_023_kani=true&JigyosyoCd=2372004792-00&ServiceCd=150&Type=search", "名称": "デイサービスセンター　綺羅", "内容2": null, "郵便番号": null, "所在地": "〒440-0843愛知県豊橋市東幸町字大山157-2", "区分": "デイサービス", "緯度": 34.7354433, "経度": 137.4150387, "サービス提供地域": "豊橋市全域" }, "geometry": { "type": "Point", "coordinates": [ 137.4150387, 34.7354433 ] } },
{ "type": "Feature", "properties": { "URL": "https://www.kaigokensaku.mhlw.go.jp/23/index.php?action_kouhyou_detail_023_kani=true&JigyosyoCd=2372001830-00&ServiceCd=150&Type=search", "名称": "デイサービスセンタ-和", "内容2": null, "郵便番号": null, "所在地": "〒441-8071愛知県豊橋市大山町字西大山41番地の2", "区分": "デイサービス", "緯度": 34.724668, "経度": 137.3566789, "サービス提供地域": "豊橋市全域(往復時間30分内）" }, "geometry": { "type": "Point", "coordinates": [ 137.3566789, 34.724668 ] } },
{ "type": "Feature", "properties": { "URL": "https://www.kaigokensaku.mhlw.go.jp/23/index.php?action_kouhyou_detail_023_kani=true&JigyosyoCd=2370304608-00&ServiceCd=150&Type=search", "名称": "デイサービス　ソラスト楠", "内容2": null, "郵便番号": null, "所在地": "〒462-0004愛知県名古屋市北区三軒町237番地", "区分": "デイサービス", "緯度": 35.2320626, "経度": 136.922327, "サービス提供地域": "名古屋市（北区・西区）・北名古屋市（熊之庄・高田寺・六ツ師）・豊山町・春日井市（旭町・中野町・中新町・二子町・味美白山町・南花長町・西本町・上ノ町・味美上ノ町・花長町・惣中町・知多町・天神町・神明町・勝川新町・八幡町・妙慶町・味美町・美嚢町） 総合事業については、名古屋市（北区・西区）とします。" }, "geometry": { "type": "Point", "coordinates": [ 136.922327, 35.2320626 ] } },
{ "type": "Feature", "properties": { "URL": "https://www.kaigokensaku.mhlw.go.jp/23/index.php?action_kouhyou_detail_023_kani=true&JigyosyoCd=2371303021-00&ServiceCd=150&Type=search", "名称": "デイサービスアリエス", "内容2": null, "郵便番号": null, "所在地": "〒463-0068瀬古１丁目610番地", "区分": "デイサービス", "緯度": 35.2121458, "経度": 136.9356201, "サービス提供地域": "名古屋市守山区・北区・名東区・千種区・東区・尾張旭市" }, "geometry": { "type": "Point", "coordinates": [ 136.9356201, 35.2121458 ] } },
{ "type": "Feature", "properties": { "URL": "https://www.kaigokensaku.mhlw.go.jp/23/index.php?action_kouhyou_detail_023_kani=true&JigyosyoCd=2375500150-00&ServiceCd=150&Type=search", "名称": "デイサービスセンター寿敬園", "内容2": null, "郵便番号": null, "所在地": "〒490-1302愛知県稲沢市平和町観音堂東海塚26番地", "区分": "デイサービス", "緯度": 35.2261315, "経度": 136.755406, "サービス提供地域": "稲沢市　愛西市　津島市　あま市（送迎対応エリア指定あり）" }, "geometry": { "type": "Point", "coordinates": [ 136.755406, 35.2261315 ] } },
{ "type": "Feature", "properties": { "URL": "https://www.kaigokensaku.mhlw.go.jp/23/index.php?action_kouhyou_detail_023_kani=true&JigyosyoCd=2372105656-00&ServiceCd=150&Type=search", "名称": "デイサービスセンターからふる美合", "内容2": null, "郵便番号": null, "所在地": "〒444-0802愛知県岡崎市美合町島廻り43-1", "区分": "デイサービス", "緯度": 34.9254093, "経度": 137.2013241, "サービス提供地域": "岡崎市、幸田町" }, "geometry": { "type": "Point", "coordinates": [ 137.2013241, 34.9254093 ] } },
{ "type": "Feature", "properties": { "URL": "https://www.kaigokensaku.mhlw.go.jp/23/index.php?action_kouhyou_detail_023_kani=true&JigyosyoCd=2372001384-00&ServiceCd=150&Type=search", "名称": "しんさかえケアセンターそよ風", "内容2": null, "郵便番号": null, "所在地": "〒441-8016愛知県豊橋市新栄町字鳥畷111番地", "区分": "デイサービス", "緯度": 34.7646362, "経度": 137.3698565, "サービス提供地域": "豊橋市内全域" }, "geometry": { "type": "Point", "coordinates": [ 137.3698565, 34.7646362 ] } },
{ "type": "Feature", "properties": { "URL": "https://www.kaigokensaku.mhlw.go.jp/23/index.php?action_kouhyou_detail_023_kani=true&JigyosyoCd=2373004296-00&ServiceCd=150&Type=search", "名称": "デイサービスセンター　からふる豊田", "内容2": null, "郵便番号": null, "所在地": "〒471-0016愛知県豊田市千石町2-3", "区分": "デイサービス", "緯度": 35.091298, "経度": 137.1706841, "サービス提供地域": "豊田市・みよし市の一部" }, "geometry": { "type": "Point", "coordinates": [ 137.170684099999988, 35.091298 ] } },
{ "type": "Feature", "properties": { "URL": "https://www.kaigokensaku.mhlw.go.jp/23/index.php?action_kouhyou_detail_023_kani=true&JigyosyoCd=2374101430-00&ServiceCd=150&Type=search", "名称": "デイサービス フィットネスかえで", "内容2": null, "郵便番号": null, "所在地": "〒476-0015愛知県東海市東海町二丁目6番地5 東海かえでビル１階", "区分": "デイサービス", "緯度": 35.0345349, "経度": 136.8989343, "サービス提供地域": "東海市内" }, "geometry": { "type": "Point", "coordinates": [ 136.8989343, 35.0345349 ] } },
{ "type": "Feature", "properties": { "URL": "https://www.kaigokensaku.mhlw.go.jp/23/index.php?action_kouhyou_detail_023_kani=true&JigyosyoCd=2372205696-00&ServiceCd=150&Type=search", "名称": "幸せの和ふれあいデイサービス", "内容2": null, "郵便番号": null, "所在地": "〒491-0859愛知県一宮市本町4丁目19番24号 田中クリニック３階", "区分": "デイサービス", "緯度": 35.2991358, "経度": 136.8021143, "サービス提供地域": "一宮市、稲沢市、江南市" }, "geometry": { "type": "Point", "coordinates": [ 136.8021143, 35.2991358 ] } },
{ "type": "Feature", "properties": { "URL": "https://www.kaigokensaku.mhlw.go.jp/23/index.php?action_kouhyou_detail_023_kani=true&JigyosyoCd=2372003125-00&ServiceCd=150&Type=search", "名称": "汐田デイサービスセンター", "内容2": null, "郵便番号": null, "所在地": "〒441-8087牟呂町字南汐田26-1", "区分": "デイサービス", "緯度": 34.7453736, "経度": 137.3642029, "サービス提供地域": "豊橋市全域、豊川市の一部" }, "geometry": { "type": "Point", "coordinates": [ 137.3642029, 34.7453736 ] } },
{ "type": "Feature", "properties": { "URL": "https://www.kaigokensaku.mhlw.go.jp/23/index.php?action_kouhyou_detail_023_kani=true&JigyosyoCd=2370504140-00&ServiceCd=150&Type=search", "名称": "デイサービス松岡三代目", "内容2": null, "郵便番号": null, "所在地": "〒453-0823愛知県名古屋市中村区日ノ宮町３－６８", "区分": "デイサービス", "緯度": 35.1607937, "経度": 136.8643134, "サービス提供地域": "名古屋市中村区、西区、中川区" }, "geometry": { "type": "Point", "coordinates": [ 136.864313399999986, 35.1607937 ] } },
{ "type": "Feature", "properties": { "URL": "https://www.kaigokensaku.mhlw.go.jp/23/index.php?action_kouhyou_detail_023_kani=true&JigyosyoCd=2373900980-00&ServiceCd=150&Type=search", "名称": "わらく倶楽部", "内容2": null, "郵便番号": null, "所在地": "〒492-8266愛知県稲沢市横地三丁目80番地", "区分": "デイサービス", "緯度": 35.2435384, "経度": 136.7828464, "サービス提供地域": "稲沢市・一宮市・清須市・あま市・愛西市の一部" }, "geometry": { "type": "Point", "coordinates": [ 136.782846400000011, 35.2435384 ] } },
{ "type": "Feature", "properties": { "URL": "https://www.kaigokensaku.mhlw.go.jp/23/index.php?action_kouhyou_detail_023_kani=true&JigyosyoCd=2370702389-00&ServiceCd=150&Type=search", "名称": "ヒューマンライフケア株式会社　川名の湯", "内容2": null, "郵便番号": null, "所在地": "〒466-0821前山町１丁目１９番地", "区分": "デイサービス", "緯度": 35.1535097, "経度": 136.9555907, "サービス提供地域": "名古屋市（昭和区、瑞穂区、千種区、天白区、中区、東区、名東区）" }, "geometry": { "type": "Point", "coordinates": [ 136.955590699999988, 35.1535097 ] } },
{ "type": "Feature", "properties": { "URL": "https://www.kaigokensaku.mhlw.go.jp/23/index.php?action_kouhyou_detail_023_kani=true&JigyosyoCd=2372600953-00&ServiceCd=150&Type=search", "名称": "デイサービスセンターあいゆう", "内容2": null, "郵便番号": null, "所在地": "〒442-0826愛知県豊川市牛久保町岸下41番地", "区分": "デイサービス", "緯度": 34.8097285, "経度": 137.3849938, "サービス提供地域": "豊川市内" }, "geometry": { "type": "Point", "coordinates": [ 137.3849938, 34.8097285 ] } },
{ "type": "Feature", "properties": { "URL": "https://www.kaigokensaku.mhlw.go.jp/23/index.php?action_kouhyou_detail_023_kani=true&JigyosyoCd=2373000609-00&ServiceCd=150&Type=search", "名称": "ニチイケアセンター豊田", "内容2": null, "郵便番号": null, "所在地": "〒471-0064愛知県豊田市梅坪町６－１２－６", "区分": "デイサービス", "緯度": 35.1001289, "経度": 137.1599392, "サービス提供地域": "豊田市　みよし市三好丘緑・三好丘桜・三好丘旭" }, "geometry": { "type": "Point", "coordinates": [ 137.1599392, 35.1001289 ] } },
{ "type": "Feature", "properties": { "URL": "https://www.kaigokensaku.mhlw.go.jp/23/index.php?action_kouhyou_detail_023_kani=true&JigyosyoCd=2370702751-00&ServiceCd=150&Type=search", "名称": "ヒューマンライフケア滝子乃湯", "内容2": null, "郵便番号": null, "所在地": "〒466-0055愛知県名古屋市昭和区滝子通3-28-1", "区分": "デイサービス", "緯度": 35.1401558, "経度": 136.9249168, "サービス提供地域": "昭和区・瑞穂区・熱田区" }, "geometry": { "type": "Point", "coordinates": [ 136.9249168, 35.1401558 ] } },
{ "type": "Feature", "properties": { "URL": "https://www.kaigokensaku.mhlw.go.jp/23/index.php?action_kouhyou_detail_023_kani=true&JigyosyoCd=2370402196-00&ServiceCd=150&Type=search", "名称": "ヒューマンライフケア堀越", "内容2": null, "郵便番号": null, "所在地": "〒451-0055堀越3丁目6番 アグレ堀越　1階", "区分": "デイサービス", "緯度": 35.2014593, "経度": 136.8771314, "サービス提供地域": "西区・北区・中村区・清須市" }, "geometry": { "type": "Point", "coordinates": [ 136.8771314, 35.2014593 ] } },
{ "type": "Feature", "properties": { "URL": "https://www.kaigokensaku.mhlw.go.jp/23/index.php?action_kouhyou_detail_023_kani=true&JigyosyoCd=2375702319-00&ServiceCd=150&Type=search", "名称": "デイサービス　メロディSea", "内容2": null, "郵便番号": null, "所在地": "〒470-2401愛知県知多郡美浜町布土中平井198番地", "区分": "デイサービス", "緯度": 34.7963228, "経度": 136.9192117, "サービス提供地域": "知多郡武豊町、美浜町、南知多町、常滑市南部" }, "geometry": { "type": "Point", "coordinates": [ 136.9192117, 34.7963228 ] } },
{ "type": "Feature", "properties": { "URL": "https://www.kaigokensaku.mhlw.go.jp/23/index.php?action_kouhyou_detail_023_kani=true&JigyosyoCd=2372203337-00&ServiceCd=150&Type=search", "名称": "デイサービスセンター　やわらぎ", "内容2": null, "郵便番号": null, "所在地": "〒494-0007一宮市小信中島字西五反田３５番地２", "区分": "デイサービス", "緯度": 35.3145808, "経度": 136.7507585, "サービス提供地域": "一宮市、稲沢市、羽島市、岐阜県羽島郡" }, "geometry": { "type": "Point", "coordinates": [ 136.750758499999989, 35.3145808 ] } },
{ "type": "Feature", "properties": { "URL": "https://www.kaigokensaku.mhlw.go.jp/23/index.php?action_kouhyou_detail_023_kani=true&JigyosyoCd=2376500423-00&ServiceCd=150&Type=search", "名称": "デイサービスセンターみその", "内容2": null, "郵便番号": null, "所在地": "〒441-1212愛知県豊川市金沢町稲場７番地", "区分": "デイサービス", "緯度": 34.8546758, "経度": 137.4504459, "サービス提供地域": "豊川市の一部、新城市の一部、豊橋市の一部、" }, "geometry": { "type": "Point", "coordinates": [ 137.4504459, 34.8546758 ] } },
{ "type": "Feature", "properties": { "URL": "https://www.kaigokensaku.mhlw.go.jp/23/index.php?action_kouhyou_detail_023_kani=true&JigyosyoCd=2375702079-00&ServiceCd=150&Type=search", "名称": "和のでいさーびす　花よりだんご", "内容2": null, "郵便番号": null, "所在地": "〒470-3235愛知県知多郡美浜町大字野間字須賀30番・31番合併地、62番地", "区分": "デイサービス", "緯度": 34.7679639, "経度": 136.8474244, "サービス提供地域": "知多市、常滑市、阿久比町、美浜町、南知多町、武豊町、半田市" }, "geometry": { "type": "Point", "coordinates": [ 136.8474244, 34.7679639 ] } },
{ "type": "Feature", "properties": { "URL": "https://www.kaigokensaku.mhlw.go.jp/23/index.php?action_kouhyou_detail_023_kani=true&JigyosyoCd=2373500574-00&ServiceCd=150&Type=search", "名称": "デイサービスセンターきらく", "内容2": null, "郵便番号": null, "所在地": "〒479-0868愛知県常滑市飛香台5丁目2 サービス付き高齢者向け住宅きらく", "区分": "デイサービス", "緯度": 34.89905, "経度": 136.857826, "サービス提供地域": "常滑市、半田市、知多市、知多郡武豊町" }, "geometry": { "type": "Point", "coordinates": [ 136.857826, 34.89905 ] } },
{ "type": "Feature", "properties": { "URL": "https://www.kaigokensaku.mhlw.go.jp/23/index.php?action_kouhyou_detail_023_kani=true&JigyosyoCd=2370900496-00&ServiceCd=150&Type=search", "名称": "ケイズファミリーデイサービス", "内容2": null, "郵便番号": null, "所在地": "〒456-0034名古屋市熱田区伝馬一丁目２番２５号シティコーポ宮１階", "区分": "デイサービス", "緯度": 35.1211615, "経度": 136.9081048, "サービス提供地域": "熱田区、南区、中川区、瑞穂区、港区、" }, "geometry": { "type": "Point", "coordinates": [ 136.9081048, 35.1211615 ] } },
{ "type": "Feature", "properties": { "URL": "https://www.kaigokensaku.mhlw.go.jp/23/index.php?action_kouhyou_detail_023_kani=true&JigyosyoCd=2372206223-00&ServiceCd=150&Type=search", "名称": "デイサービスあさひの杜牛野通店", "内容2": null, "郵便番号": null, "所在地": "〒491-0845下川田町5-24-1", "区分": "デイサービス", "緯度": 35.2841977, "経度": 136.8089835, "サービス提供地域": "一宮市、稲沢市" }, "geometry": { "type": "Point", "coordinates": [ 136.808983500000011, 35.2841977 ] } },
{ "type": "Feature", "properties": { "URL": "https://www.kaigokensaku.mhlw.go.jp/23/index.php?action_kouhyou_detail_023_kani=true&JigyosyoCd=2372205894-00&ServiceCd=150&Type=search", "名称": "Replus木曽川", "内容2": null, "郵便番号": null, "所在地": "〒493-0001愛知県一宮市木曽川黒田八ノ通り112番地", "区分": "デイサービス", "緯度": 35.3425882, "経度": 136.7894178, "サービス提供地域": "愛知県一宮市内全域" }, "geometry": { "type": "Point", "coordinates": [ 136.7894178, 35.3425882 ] } },
{ "type": "Feature", "properties": { "URL": "https://www.kaigokensaku.mhlw.go.jp/23/index.php?action_kouhyou_detail_023_kani=true&JigyosyoCd=2370101731-00&ServiceCd=150&Type=search", "名称": "ケイズファミリーデイサービス竹越", "内容2": null, "郵便番号": null, "所在地": "〒464-0007愛知県名古屋市千種区竹越二丁目１－２７ 高須マンション１階", "区分": "デイサービス", "緯度": 35.1871837, "経度": 136.9761537, "サービス提供地域": "名古屋市　千種区、守山区、名東区、北区、東区、昭和区、その他周辺の区域" }, "geometry": { "type": "Point", "coordinates": [ 136.9761537, 35.1871837 ] } },
{ "type": "Feature", "properties": { "URL": "https://www.kaigokensaku.mhlw.go.jp/23/index.php?action_kouhyou_detail_023_kani=true&JigyosyoCd=2372800918-00&ServiceCd=150&Type=search", "名称": "デイサービス　アルクオーレ碧南", "内容2": null, "郵便番号": null, "所在地": "〒447-0034愛知県碧南市鴻島町4丁目50番地", "区分": "デイサービス", "緯度": 34.8851992, "経度": 137.0047884, "サービス提供地域": "碧南市、西尾市、安城市、高浜市" }, "geometry": { "type": "Point", "coordinates": [ 137.0047884, 34.8851992 ] } },
{ "type": "Feature", "properties": { "URL": "https://www.kaigokensaku.mhlw.go.jp/23/index.php?action_kouhyou_detail_023_kani=true&JigyosyoCd=2372002119-00&ServiceCd=150&Type=search", "名称": "デイサービス　なの花", "内容2": null, "郵便番号": null, "所在地": "〒441-8077愛知県豊橋市神野新田町字宮前１００番地", "区分": "デイサービス", "緯度": 34.739604, "経度": 137.362158, "サービス提供地域": "豊橋全域" }, "geometry": { "type": "Point", "coordinates": [ 137.362158, 34.739604 ] } },
{ "type": "Feature", "properties": { "URL": "https://www.kaigokensaku.mhlw.go.jp/23/index.php?action_kouhyou_detail_023_kani=true&JigyosyoCd=2377100363-00&ServiceCd=150&Type=search", "名称": "さかえの郷　デイサービスセンター田原", "内容2": null, "郵便番号": null, "所在地": "〒441-3421田原市田原町五軒丁144", "区分": "デイサービス", "緯度": 34.6769414, "経度": 137.2694788, "サービス提供地域": "田原市、豊橋市" }, "geometry": { "type": "Point", "coordinates": [ 137.2694788, 34.6769414 ] } },
{ "type": "Feature", "properties": { "URL": "https://www.kaigokensaku.mhlw.go.jp/23/index.php?action_kouhyou_detail_023_kani=true&JigyosyoCd=2372103313-00&ServiceCd=150&Type=search", "名称": "デイサービスあゆみ　保母町ケアセンター", "内容2": null, "郵便番号": null, "所在地": "〒444-0004愛知県岡崎市保母町字神星46番地", "区分": "デイサービス", "緯度": 34.9306846, "経度": 137.217189, "サービス提供地域": "岡崎市全域" }, "geometry": { "type": "Point", "coordinates": [ 137.217189, 34.9306846 ] } },
{ "type": "Feature", "properties": { "URL": "https://www.kaigokensaku.mhlw.go.jp/23/index.php?action_kouhyou_detail_023_kani=true&JigyosyoCd=2372005278-00&ServiceCd=150&Type=search", "名称": "ラクラス豊橋三ノ輪デイサービス", "内容2": null, "郵便番号": null, "所在地": "〒440-0838愛知県豊橋市三ノ輪町3丁目45-1", "区分": "デイサービス", "緯度": 34.7534095, "経度": 137.4142584, "サービス提供地域": "豊橋市" }, "geometry": { "type": "Point", "coordinates": [ 137.4142584, 34.7534095 ] } },
{ "type": "Feature", "properties": { "URL": "https://www.kaigokensaku.mhlw.go.jp/23/index.php?action_kouhyou_detail_023_kani=true&JigyosyoCd=2372004255-00&ServiceCd=150&Type=search", "名称": "ラクラス豊橋西幸デイサービス", "内容2": null, "郵便番号": null, "所在地": "〒441-8156愛知県豊橋市高師町字小野2-13", "区分": "デイサービス", "緯度": 34.73397, "経度": 137.41194, "サービス提供地域": "豊橋市内" }, "geometry": { "type": "Point", "coordinates": [ 137.41194, 34.73397 ] } },
{ "type": "Feature", "properties": { "URL": "https://www.kaigokensaku.mhlw.go.jp/23/index.php?action_kouhyou_detail_023_kani=true&JigyosyoCd=2372003489-00&ServiceCd=150&Type=search", "名称": "デイサービス　ラ・メール", "内容2": null, "郵便番号": null, "所在地": "〒441-8124野依町字諏訪90番地", "区分": "デイサービス", "緯度": 34.6992186, "経度": 137.3892154, "サービス提供地域": "豊橋市全域" }, "geometry": { "type": "Point", "coordinates": [ 137.389215400000012, 34.6992186 ] } },
{ "type": "Feature", "properties": { "URL": "https://www.kaigokensaku.mhlw.go.jp/23/index.php?action_kouhyou_detail_023_kani=true&JigyosyoCd=2377200577-00&ServiceCd=150&Type=search", "名称": "デイサービス愛西ガーデン", "内容2": null, "郵便番号": null, "所在地": "〒496-0942愛知県愛西市山路町野方149番地130 愛西ガーデン", "区分": "デイサービス", "緯度": 35.1535806, "経度": 136.7082084, "サービス提供地域": "愛西市、津島市、弥富市" }, "geometry": { "type": "Point", "coordinates": [ 136.7082084, 35.1535806 ] } },
{ "type": "Feature", "properties": { "URL": "https://www.kaigokensaku.mhlw.go.jp/23/index.php?action_kouhyou_detail_023_kani=true&JigyosyoCd=2373201637-00&ServiceCd=150&Type=search", "名称": "西尾すみれデイサービスセンター", "内容2": null, "郵便番号": null, "所在地": "〒445-0063愛知県西尾市今川町御堂東62", "区分": "デイサービス", "緯度": 34.8550171, "経度": 137.0611973, "サービス提供地域": "西尾市内" }, "geometry": { "type": "Point", "coordinates": [ 137.0611973, 34.8550171 ] } },
{ "type": "Feature", "properties": { "URL": "https://www.kaigokensaku.mhlw.go.jp/23/index.php?action_kouhyou_detail_023_kani=true&JigyosyoCd=2372400719-00&ServiceCd=150&Type=search", "名称": "デイサービスセンター 第二瑞光の里", "内容2": null, "郵便番号": null, "所在地": "〒475-0914愛知県半田市土井山町二丁目105番地", "区分": "デイサービス", "緯度": 34.8984505, "経度": 136.905351, "サービス提供地域": "半田市　常滑市　武豊町" }, "geometry": { "type": "Point", "coordinates": [ 136.905351, 34.8984505 ] } },
{ "type": "Feature", "properties": { "URL": "https://www.kaigokensaku.mhlw.go.jp/23/index.php?action_kouhyou_detail_023_kani=true&JigyosyoCd=2372504932-00&ServiceCd=150&Type=search", "名称": "あずみ苑春日井", "内容2": null, "郵便番号": null, "所在地": "〒486-0918愛知県春日井市如意申町4丁目13番地5", "区分": "デイサービス", "緯度": 35.2489766, "経度": 136.9475521, "サービス提供地域": "春日井市　北名古屋市　小牧市　名古屋市守山区" }, "geometry": { "type": "Point", "coordinates": [ 136.9475521, 35.2489766 ] } },
{ "type": "Feature", "properties": { "URL": "https://www.kaigokensaku.mhlw.go.jp/23/index.php?action_kouhyou_detail_023_kani=true&JigyosyoCd=2373901624-00&ServiceCd=150&Type=search", "名称": "デイサービスセンター　長楽", "内容2": null, "郵便番号": null, "所在地": "〒492-8349愛知県稲沢市儀長二丁目68・69番地", "区分": "デイサービス", "緯度": 35.2374583, "経度": 136.7624377, "サービス提供地域": "稲沢市、一宮市、愛西市、あま市、津島市、清須市" }, "geometry": { "type": "Point", "coordinates": [ 136.7624377, 35.2374583 ] } },
{ "type": "Feature", "properties": { "URL": "https://www.kaigokensaku.mhlw.go.jp/23/index.php?action_kouhyou_detail_023_kani=true&JigyosyoCd=2373500822-00&ServiceCd=150&Type=search", "名称": "アルト介護センターえみふる", "内容2": null, "郵便番号": null, "所在地": "〒479-0854愛知県常滑市榎戸町4丁目371番地", "区分": "デイサービス", "緯度": 34.9083346, "経度": 136.8302728, "サービス提供地域": "常滑市・知多市・半田市・武豊町" }, "geometry": { "type": "Point", "coordinates": [ 136.830272799999989, 34.9083346 ] } },
{ "type": "Feature", "properties": { "URL": "https://www.kaigokensaku.mhlw.go.jp/23/index.php?action_kouhyou_detail_023_kani=true&JigyosyoCd=2372003190-00&ServiceCd=150&Type=search", "名称": "デイサービスセンターつばめ", "内容2": null, "郵便番号": null, "所在地": "〒441-8089愛知県豊橋市牟呂大西町１８番１５", "区分": "デイサービス", "緯度": 34.7530734, "経度": 137.355275, "サービス提供地域": "豊橋市、豊川市" }, "geometry": { "type": "Point", "coordinates": [ 137.355275, 34.7530734 ] } },
{ "type": "Feature", "properties": { "URL": "https://www.kaigokensaku.mhlw.go.jp/23/index.php?action_kouhyou_detail_023_kani=true&JigyosyoCd=2373600697-00&ServiceCd=150&Type=search", "名称": "ふぁみりい恕苑デイサービスセンター", "内容2": null, "郵便番号": null, "所在地": "〒483-8404小杁町林125番地", "区分": "デイサービス", "緯度": 35.3678688, "経度": 136.8780825, "サービス提供地域": "江南市、扶桑町の全域 大口町、犬山市、一宮市、各務原市の一部地域" }, "geometry": { "type": "Point", "coordinates": [ 136.8780825, 35.3678688 ] } },
{ "type": "Feature", "properties": { "URL": "https://www.kaigokensaku.mhlw.go.jp/23/index.php?action_kouhyou_detail_023_kani=true&JigyosyoCd=2373001482-00&ServiceCd=150&Type=search", "名称": "いやしの里　ハナモト　デイサービス", "内容2": null, "郵便番号": null, "所在地": "〒470-0334豊田市花本町青木２８番地１", "区分": "デイサービス", "緯度": 35.1165137, "経度": 137.1762643, "サービス提供地域": "通常の事業の介護サービス実施区域は豊田市のうち、中学校区で崇化館３６町、朝日丘２４町、高橋２０町、保見１０町、猿投７町、猿投台９町、石野２２町、松平１９町、美里１０町、梅坪台１２町、益富８町、井郷４町、藤岡１０町（但し石畳町、大岩町、三箇町、白川町、西市野々、北曽木町、上川口町、下川口町、御作町は除く）の区域。" }, "geometry": { "type": "Point", "coordinates": [ 137.176264300000014, 35.1165137 ] } },
{ "type": "Feature", "properties": { "URL": "https://www.kaigokensaku.mhlw.go.jp/23/index.php?action_kouhyou_detail_023_kani=true&JigyosyoCd=2373902028-00&ServiceCd=150&Type=search", "名称": "あかつきリハビリデイサービス", "内容2": null, "郵便番号": null, "所在地": "〒495-0001愛知県稲沢市祖父江町祖父江高熊425番地3", "区分": "デイサービス", "緯度": 35.2535576, "経度": 136.7213863, "サービス提供地域": "稲沢市、一宮市(一部地域を除く)、愛西市(一部地域を除く)" }, "geometry": { "type": "Point", "coordinates": [ 136.7213863, 35.2535576 ] } },
{ "type": "Feature", "properties": { "URL": "https://www.kaigokensaku.mhlw.go.jp/23/index.php?action_kouhyou_detail_023_kani=true&JigyosyoCd=2374700637-00&ServiceCd=150&Type=search", "名称": "デイサービスゴールドエイジ岩倉", "内容2": null, "郵便番号": null, "所在地": "〒482-0016愛知県岩倉市野寄町一町田7 ゴールドエイジ岩倉", "区分": "デイサービス", "緯度": 35.2716911, "経度": 136.8546827, "サービス提供地域": "岩倉市内" }, "geometry": { "type": "Point", "coordinates": [ 136.854682700000012, 35.2716911 ] } },
{ "type": "Feature", "properties": { "URL": "https://www.kaigokensaku.mhlw.go.jp/23/index.php?action_kouhyou_detail_023_kani=true&JigyosyoCd=2372103008-00&ServiceCd=150&Type=search", "名称": "デイサービス　おかげ庵", "内容2": null, "郵便番号": null, "所在地": "〒444-0908愛知県岡崎市橋目町御小屋西６８", "区分": "デイサービス", "緯度": 34.989375, "経度": 137.1216621, "サービス提供地域": "岡崎市・豊田市・安城市" }, "geometry": { "type": "Point", "coordinates": [ 137.1216621, 34.989375 ] } },
{ "type": "Feature", "properties": { "URL": "https://www.kaigokensaku.mhlw.go.jp/23/index.php?action_kouhyou_detail_023_kani=true&JigyosyoCd=2377300195-00&ServiceCd=150&Type=search", "名称": "デイサービス花咲", "内容2": null, "郵便番号": null, "所在地": "〒452-0014愛知県清須市西枇杷島町押花47番地", "区分": "デイサービス", "緯度": 35.2002858, "経度": 136.8669392, "サービス提供地域": "（全域）清須市、名古屋市西区" }, "geometry": { "type": "Point", "coordinates": [ 136.8669392, 35.2002858 ] } },
{ "type": "Feature", "properties": { "URL": "https://www.kaigokensaku.mhlw.go.jp/23/index.php?action_kouhyou_detail_023_kani=true&JigyosyoCd=2373800768-00&ServiceCd=150&Type=search", "名称": "デイサービス　はなたば", "内容2": null, "郵便番号": null, "所在地": "〒485-0021愛知県小牧市大字二重掘南屋敷1662番地", "区分": "デイサービス", "緯度": 35.2895144, "経度": 136.8105278, "サービス提供地域": "小牧市　春日井市　犬山市" }, "geometry": { "type": "Point", "coordinates": [ 136.810527799999988, 35.2895144 ] } },
{ "type": "Feature", "properties": { "URL": "https://www.kaigokensaku.mhlw.go.jp/23/index.php?action_kouhyou_detail_023_kani=true&JigyosyoCd=2372000360-00&ServiceCd=150&Type=search", "名称": "デイサービスセンター　すこやかの里", "内容2": null, "郵便番号": null, "所在地": "〒440-0833愛知県豊橋市飯村町字高山118番地", "区分": "デイサービス", "緯度": 34.7419548, "経度": 137.4318272, "サービス提供地域": "豊橋市内の飯村・岩田・豊・向山・新川・松葉・八町・旭・東田・牛川・鷹丘・多米・松山・つつじが丘・幸・岩西・二川 上記以外は応相談" }, "geometry": { "type": "Point", "coordinates": [ 137.431827199999987, 34.741954799999988 ] } },
{ "type": "Feature", "properties": { "URL": "https://www.kaigokensaku.mhlw.go.jp/23/index.php?action_kouhyou_detail_023_kani=true&JigyosyoCd=2373800446-00&ServiceCd=150&Type=search", "名称": "デイサービスステーションひまわり", "内容2": null, "郵便番号": null, "所在地": "〒485-0041愛知県小牧市小牧一丁目135番地 フジカネひまわりビル", "区分": "デイサービス", "緯度": 35.2944435, "経度": 136.9203111, "サービス提供地域": "小牧市，春日井市，岩倉市，犬山市，江南市，大口町，扶桑町，豊山町" }, "geometry": { "type": "Point", "coordinates": [ 136.9203111, 35.2944435 ] } },
{ "type": "Feature", "properties": { "URL": "https://www.kaigokensaku.mhlw.go.jp/23/index.php?action_kouhyou_detail_023_kani=true&JigyosyoCd=2373300462-00&ServiceCd=150&Type=search", "名称": "アットホーム指定通所介護事業所", "内容2": null, "郵便番号": null, "所在地": "〒443-0037愛知県蒲郡市鹿島町大迫２２番地５３", "区分": "デイサービス", "緯度": 34.8187306, "経度": 137.187015, "サービス提供地域": "蒲郡市・幸田町・幡豆郡・西尾市" }, "geometry": { "type": "Point", "coordinates": [ 137.187015, 34.818730599999988 ] } },
{ "type": "Feature", "properties": { "URL": "https://www.kaigokensaku.mhlw.go.jp/23/index.php?action_kouhyou_detail_023_kani=true&JigyosyoCd=2372502407-00&ServiceCd=150&Type=search", "名称": "じゃがいも友愛デイサービス", "内容2": null, "郵便番号": null, "所在地": "〒487-0025愛知県春日井市出川町６丁目１０－１", "区分": "デイサービス", "緯度": 35.2647799, "経度": 137.0188196, "サービス提供地域": "春日井市" }, "geometry": { "type": "Point", "coordinates": [ 137.0188196, 35.2647799 ] } },
{ "type": "Feature", "properties": { "URL": "https://www.kaigokensaku.mhlw.go.jp/23/index.php?action_kouhyou_detail_023_kani=true&JigyosyoCd=2373500731-00&ServiceCd=150&Type=search", "名称": "デイサービスきほく", "内容2": null, "郵便番号": null, "所在地": "〒479-0863愛知県常滑市西之口10丁目73番地1", "区分": "デイサービス", "緯度": 34.9265325, "経度": 136.8289393, "サービス提供地域": "常滑市・知多市・半田市・阿久比町・武豊町・美浜町" }, "geometry": { "type": "Point", "coordinates": [ 136.8289393, 34.9265325 ] } },
{ "type": "Feature", "properties": { "URL": "https://www.kaigokensaku.mhlw.go.jp/23/index.php?action_kouhyou_detail_023_kani=true&JigyosyoCd=2375701287-00&ServiceCd=150&Type=search", "名称": "椰子の実", "内容2": null, "郵便番号": null, "所在地": "〒470-2401愛知県知多郡美浜町大字布土字和田１８８番地２", "区分": "デイサービス", "緯度": 34.7977078, "経度": 136.9181123, "サービス提供地域": "知多郡美浜町・武豊町・南知多町、半田市、常滑市" }, "geometry": { "type": "Point", "coordinates": [ 136.9181123, 34.7977078 ] } },
{ "type": "Feature", "properties": { "URL": "https://www.kaigokensaku.mhlw.go.jp/23/index.php?action_kouhyou_detail_023_kani=true&JigyosyoCd=2372602413-00&ServiceCd=150&Type=search", "名称": "デイサービス花れん", "内容2": null, "郵便番号": null, "所在地": "〒442-0833愛知県豊川市西口町２－１２", "区分": "デイサービス", "緯度": 34.8082645, "経度": 137.3714895, "サービス提供地域": "豊川市" }, "geometry": { "type": "Point", "coordinates": [ 137.3714895, 34.8082645 ] } },
{ "type": "Feature", "properties": { "URL": "https://www.kaigokensaku.mhlw.go.jp/23/index.php?action_kouhyou_detail_023_kani=true&JigyosyoCd=2372004214-00&ServiceCd=150&Type=search", "名称": "整友会デイリハビリセンター", "内容2": null, "郵便番号": null, "所在地": "〒440-0014南牛川一丁目16番地9", "区分": "デイサービス", "緯度": 34.7725199, "経度": 137.4209259, "サービス提供地域": "豊橋市内中央部～北東部地域" }, "geometry": { "type": "Point", "coordinates": [ 137.420925899999986, 34.7725199 ] } },
{ "type": "Feature", "properties": { "URL": "https://www.kaigokensaku.mhlw.go.jp/23/index.php?action_kouhyou_detail_023_kani=true&JigyosyoCd=2373801626-00&ServiceCd=150&Type=search", "名称": "デイサービスセンター陽だまり", "内容2": null, "郵便番号": null, "所在地": "〒485-0006愛知県小牧市久保新町144番地1", "区分": "デイサービス", "緯度": 35.3116645, "経度": 136.9379023, "サービス提供地域": "小牧市、犬山市、丹羽郡大口町" }, "geometry": { "type": "Point", "coordinates": [ 136.9379023, 35.3116645 ] } },
{ "type": "Feature", "properties": { "URL": "https://www.kaigokensaku.mhlw.go.jp/23/index.php?action_kouhyou_detail_023_kani=true&JigyosyoCd=2372302626-00&ServiceCd=150&Type=search", "名称": "シンシア瀬戸深川", "内容2": null, "郵便番号": null, "所在地": "〒489-0073愛知県瀬戸市泉町88-1", "区分": "デイサービス", "緯度": 35.2311675, "経度": 137.1045735, "サービス提供地域": "瀬戸市、長久手市、尾張旭市一部、豊田市一部" }, "geometry": { "type": "Point", "coordinates": [ 137.104573499999987, 35.2311675 ] } },
{ "type": "Feature", "properties": { "URL": "https://www.kaigokensaku.mhlw.go.jp/23/index.php?action_kouhyou_detail_023_kani=true&JigyosyoCd=2375300718-00&ServiceCd=150&Type=search", "名称": "Ｋライン・ケアセンター扶桑", "内容2": null, "郵便番号": null, "所在地": "〒480-0102愛知県丹羽郡扶桑町高雄郷東193-1", "区分": "デイサービス", "緯度": 35.3637621, "経度": 136.9331312, "サービス提供地域": "扶桑町、大口町、犬山市、江南市、小牧市、各務原市" }, "geometry": { "type": "Point", "coordinates": [ 136.9331312, 35.3637621 ] } },
{ "type": "Feature", "properties": { "URL": "https://www.kaigokensaku.mhlw.go.jp/23/index.php?action_kouhyou_detail_023_kani=true&JigyosyoCd=2377300146-00&ServiceCd=150&Type=search", "名称": "Ｋライン・ケアセンター新川", "内容2": null, "郵便番号": null, "所在地": "〒452-0901清須市阿原北野37-2", "区分": "デイサービス", "緯度": 35.214373, "経度": 136.8600036, "サービス提供地域": "清須市、北名古屋市、稲沢市、あま市、名古屋市（西区・中村区）" }, "geometry": { "type": "Point", "coordinates": [ 136.8600036, 35.214373 ] } },
{ "type": "Feature", "properties": { "URL": "https://www.kaigokensaku.mhlw.go.jp/23/index.php?action_kouhyou_detail_023_kani=true&JigyosyoCd=2373900907-00&ServiceCd=150&Type=search", "名称": "Ｋライン・ケアセンター稲沢", "内容2": null, "郵便番号": null, "所在地": "〒492-8448稲沢市北麻績町沼25", "区分": "デイサービス", "緯度": 35.2139133, "経度": 136.775507, "サービス提供地域": "稲沢市、津島市、一宮市、愛西市、あま市、清須市の一部の地域" }, "geometry": { "type": "Point", "coordinates": [ 136.775507, 35.2139133 ] } },
{ "type": "Feature", "properties": { "URL": "https://www.kaigokensaku.mhlw.go.jp/23/index.php?action_kouhyou_detail_023_kani=true&JigyosyoCd=2375700875-00&ServiceCd=150&Type=search", "名称": "陽だまり　デイサービス", "内容2": null, "郵便番号": null, "所在地": "〒470-2544愛知県知多郡武豊町字里中177番地1", "区分": "デイサービス", "緯度": 34.8463601, "経度": 136.9234904, "サービス提供地域": "武豊町、美浜町、半田市、常滑市。" }, "geometry": { "type": "Point", "coordinates": [ 136.9234904, 34.846360100000012 ] } },
{ "type": "Feature", "properties": { "URL": "https://www.kaigokensaku.mhlw.go.jp/23/index.php?action_kouhyou_detail_023_kani=true&JigyosyoCd=2374100432-00&ServiceCd=150&Type=search", "名称": "デイサービスセンターいこい", "内容2": null, "郵便番号": null, "所在地": "〒477-0032愛知県東海市加木屋町東峰松27番地", "区分": "デイサービス", "緯度": 35.0014285, "経度": 136.9139426, "サービス提供地域": "東海市・大府市・知多市・東浦町・半田市" }, "geometry": { "type": "Point", "coordinates": [ 136.913942600000013, 35.0014285 ] } },
{ "type": "Feature", "properties": { "URL": "https://www.kaigokensaku.mhlw.go.jp/23/index.php?action_kouhyou_detail_023_kani=true&JigyosyoCd=2374900138-00&ServiceCd=150&Type=search", "名称": "日進ホーム通所介護事業所", "内容2": null, "郵便番号": null, "所在地": "〒470-0124愛知県日進市浅田町平子2丁目20番地", "区分": "デイサービス", "緯度": 35.1214997, "経度": 137.024708, "サービス提供地域": "基本的には日進市全域となります。 状況に応じて、名東区・天白区・東郷町・みよし市・長久手市など" }, "geometry": { "type": "Point", "coordinates": [ 137.024708, 35.1214997 ] } },
{ "type": "Feature", "properties": { "URL": "https://www.kaigokensaku.mhlw.go.jp/23/index.php?action_kouhyou_detail_023_kani=true&JigyosyoCd=2372701017-00&ServiceCd=150&Type=search", "名称": "つしまデイサービス　みんなの家", "内容2": null, "郵便番号": null, "所在地": "〒496-0008愛知県津島市宇治町小切95", "区分": "デイサービス", "緯度": 35.1813497, "経度": 136.7573829, "サービス提供地域": "愛知県津島市、愛知県愛西市(小津町・北河田町・草平町・古瀬町・佐折町・下一色町・勝幡町・諏訪町・千引町・根高町・日置町・町方町・見越町・南河田町・持中町・諸桑町・柚木町・六輪町）、愛知県あま市（乙之子・北苅・木田・小橋方・篠田・丹波・蜂須賀・森山・七宝町）" }, "geometry": { "type": "Point", "coordinates": [ 136.75738290000001, 35.1813497 ] } },
{ "type": "Feature", "properties": { "URL": "https://www.kaigokensaku.mhlw.go.jp/23/index.php?action_kouhyou_detail_023_kani=true&JigyosyoCd=2374500318-00&ServiceCd=150&Type=search", "名称": "通所介護　みどり", "内容2": null, "郵便番号": null, "所在地": "〒488-0830愛知県尾張旭市東印場町三丁目１５番地１", "区分": "デイサービス", "緯度": 35.2091981, "経度": 137.0156496, "サービス提供地域": "尾張旭市、長久手市、名古屋市守山区、名古屋市名東区、瀬戸市" }, "geometry": { "type": "Point", "coordinates": [ 137.015649599999989, 35.2091981 ] } },
{ "type": "Feature", "properties": { "URL": "https://www.kaigokensaku.mhlw.go.jp/23/index.php?action_kouhyou_detail_023_kani=true&JigyosyoCd=2374700710-00&ServiceCd=150&Type=search", "名称": "ツクイ尾張岩倉", "内容2": null, "郵便番号": null, "所在地": "〒482-0002愛知県岩倉市大市場町順喜70", "区分": "デイサービス", "緯度": 35.2775788, "経度": 136.8812098, "サービス提供地域": "岩倉市、北名古屋市、小牧市、江南市、一宮市、稲沢市、豊山町、扶桑町" }, "geometry": { "type": "Point", "coordinates": [ 136.8812098, 35.2775788 ] } },
{ "type": "Feature", "properties": { "URL": "https://www.kaigokensaku.mhlw.go.jp/23/index.php?action_kouhyou_detail_023_kani=true&JigyosyoCd=2372100624-00&ServiceCd=150&Type=search", "名称": "ニチイケアセンター岡崎", "内容2": null, "郵便番号": null, "所在地": "〒444-0802美合町つむぎ中6-10", "区分": "デイサービス", "緯度": 34.926891, "経度": 137.1861339, "サービス提供地域": "岡崎市　幸田町坂崎" }, "geometry": { "type": "Point", "coordinates": [ 137.186133899999987, 34.926891 ] } },
{ "type": "Feature", "properties": { "URL": "https://www.kaigokensaku.mhlw.go.jp/23/index.php?action_kouhyou_detail_023_kani=true&JigyosyoCd=2372102455-00&ServiceCd=150&Type=search", "名称": "岡崎市西部地域福祉センター　デイサービスほほえみ", "内容2": null, "郵便番号": null, "所在地": "〒444-0905愛知県岡崎市宇頭町字小薮70番地1", "区分": "デイサービス", "緯度": 34.9672763, "経度": 137.1287167, "サービス提供地域": "岡崎市" }, "geometry": { "type": "Point", "coordinates": [ 137.128716700000012, 34.9672763 ] } },
{ "type": "Feature", "properties": { "URL": "https://www.kaigokensaku.mhlw.go.jp/23/index.php?action_kouhyou_detail_023_kani=true&JigyosyoCd=2372901930-00&ServiceCd=150&Type=search", "名称": "おんじぃのへや刈谷銀座店", "内容2": null, "郵便番号": null, "所在地": "〒448-0845銀座３丁目３４－１ エクセルグランデ刈谷銀座タワー１Ｆ", "区分": "デイサービス", "緯度": 34.9875643, "経度": 136.9912612, "サービス提供地域": "６時間以上７時間未満 刈谷市（井ヶ谷町、東境町、西境町、今川町、今岡町、一里山町を除く）、知立市（池端1～3丁目、上重原町恩田、上重原町鍛冶荒井、上重原町川向、上重原町曇り、上重原町寺内、上重原町島間、上重原町城後、上重原町土取、上重原町鳥居、上重原町長篠、上重原町中田、上重原町西八鳥、上重原町花立、上重原町東八鳥、上重原町本郷、上重原町丸山、上重原町己ノ池、上重原町村上、上重原2～6丁目、弘栄1丁目、栄1～2丁目、新地町古田）、高浜市（新田町、八幡町、小池町、屋敷町、呉竹町、芳川町、春日町、沢渡町、湯" }, "geometry": { "type": "Point", "coordinates": [ 136.9912612, 34.9875643 ] } },
{ "type": "Feature", "properties": { "URL": "https://www.kaigokensaku.mhlw.go.jp/23/index.php?action_kouhyou_detail_023_kani=true&JigyosyoCd=2372200242-00&ServiceCd=150&Type=search", "名称": "ウエルコートみづほデイサービス事業所", "内容2": null, "郵便番号": null, "所在地": "〒491-0101愛知県一宮市浅井町尾関字同者１６３番地の２", "区分": "デイサービス", "緯度": 35.3493886, "経度": 136.8318511, "サービス提供地域": "一宮市、江南市、岐阜県各務原市川島町" }, "geometry": { "type": "Point", "coordinates": [ 136.8318511, 35.3493886 ] } },
{ "type": "Feature", "properties": { "URL": "https://www.kaigokensaku.mhlw.go.jp/23/index.php?action_kouhyou_detail_023_kani=true&JigyosyoCd=2372302402-00&ServiceCd=150&Type=search", "名称": "デイサービスそれいゆ", "内容2": null, "郵便番号": null, "所在地": "〒489-0819愛知県瀬戸市西本町2-8", "区分": "デイサービス", "緯度": 35.2241406, "経度": 137.0983641, "サービス提供地域": "瀬戸市、尾張旭市、春日井市、長久手市、三好市" }, "geometry": { "type": "Point", "coordinates": [ 137.0983641, 35.2241406 ] } },
{ "type": "Feature", "properties": { "URL": "https://www.kaigokensaku.mhlw.go.jp/23/index.php?action_kouhyou_detail_023_kani=true&JigyosyoCd=2373001193-00&ServiceCd=150&Type=search", "名称": "デイサービスセンター豊水園", "内容2": null, "郵便番号": null, "所在地": "〒471-0823愛知県豊田市今町5丁目40番地1", "区分": "デイサービス", "緯度": 35.0422339, "経度": 137.1713316, "サービス提供地域": "豊田市（旧市内に限る）・岡崎市（北部地域包括支援センター区域に限る）" }, "geometry": { "type": "Point", "coordinates": [ 137.1713316, 35.0422339 ] } },
{ "type": "Feature", "properties": { "URL": "https://www.kaigokensaku.mhlw.go.jp/23/index.php?action_kouhyou_detail_023_kani=true&JigyosyoCd=2374101604-00&ServiceCd=150&Type=search", "名称": "デイサービスポトス", "内容2": null, "郵便番号": null, "所在地": "〒477-0034愛知県東海市養父町大木之本6-1", "区分": "デイサービス", "緯度": 35.0062335, "経度": 136.8833652, "サービス提供地域": "東海市、知多市、大府市、東浦町" }, "geometry": { "type": "Point", "coordinates": [ 136.883365199999986, 35.0062335 ] } },
{ "type": "Feature", "properties": { "URL": "https://www.kaigokensaku.mhlw.go.jp/23/index.php?action_kouhyou_detail_023_kani=true&JigyosyoCd=2373301163-00&ServiceCd=150&Type=search", "名称": "ＪＡデイサービスセンター形原", "内容2": null, "郵便番号": null, "所在地": "〒443-0104愛知県蒲郡市形原町計後家4番1号", "区分": "デイサービス", "緯度": 34.8046171, "経度": 137.1839379, "サービス提供地域": "蒲郡市内" }, "geometry": { "type": "Point", "coordinates": [ 137.183937899999989, 34.8046171 ] } },
{ "type": "Feature", "properties": { "URL": "https://www.kaigokensaku.mhlw.go.jp/23/index.php?action_kouhyou_detail_023_kani=true&JigyosyoCd=2372300539-00&ServiceCd=150&Type=search", "名称": "水野デイサービスセンター", "内容2": null, "郵便番号": null, "所在地": "〒489-0905愛知県瀬戸市はぎの台３丁目１番地の3 瀬戸市水野在宅福祉センター", "区分": "デイサービス", "緯度": 35.2402754, "経度": 137.0716269, "サービス提供地域": "瀬戸市" }, "geometry": { "type": "Point", "coordinates": [ 137.071626900000012, 35.2402754 ] } },
{ "type": "Feature", "properties": { "URL": "https://www.kaigokensaku.mhlw.go.jp/23/index.php?action_kouhyou_detail_023_kani=true&JigyosyoCd=2372701090-00&ServiceCd=150&Type=search", "名称": "デイサービス向陽", "内容2": null, "郵便番号": null, "所在地": "〒496-0026愛知県津島市唐臼町当理３２", "区分": "デイサービス", "緯度": 35.1618012, "経度": 136.7505695, "サービス提供地域": "津島市" }, "geometry": { "type": "Point", "coordinates": [ 136.750569500000012, 35.1618012 ] } },
{ "type": "Feature", "properties": { "URL": "https://www.kaigokensaku.mhlw.go.jp/23/index.php?action_kouhyou_detail_023_kani=true&JigyosyoCd=2377600800-00&ServiceCd=150&Type=search", "名称": "Kライン・ケアセンター七宝", "内容2": null, "郵便番号": null, "所在地": "〒497-0003愛知県あま市七宝町秋竹六反田417-7", "区分": "デイサービス", "緯度": 35.1748175, "経度": 136.8058762, "サービス提供地域": "あま市、津島市、愛西市、稲沢市、清須市、名古屋市中川区、海部郡蟹江町、海部郡大治町" }, "geometry": { "type": "Point", "coordinates": [ 136.8058762, 35.1748175 ] } },
{ "type": "Feature", "properties": { "URL": "https://www.kaigokensaku.mhlw.go.jp/23/index.php?action_kouhyou_detail_023_kani=true&JigyosyoCd=2375300742-00&ServiceCd=150&Type=search", "名称": "Kライン・ケアセンター大口", "内容2": null, "郵便番号": null, "所在地": "〒480-0131愛知県丹羽郡大口町高橋二丁目185", "区分": "デイサービス", "緯度": 35.3248082, "経度": 136.9024768, "サービス提供地域": "大口町、扶桑町、江南市、岩倉市、犬山市、小牧市、一宮市" }, "geometry": { "type": "Point", "coordinates": [ 136.902476799999988, 35.3248082 ] } },
{ "type": "Feature", "properties": { "URL": "https://www.kaigokensaku.mhlw.go.jp/23/index.php?action_kouhyou_detail_023_kani=true&JigyosyoCd=2375300874-00&ServiceCd=150&Type=search", "名称": "Kライン・ケアセンター扶桑北", "内容2": null, "郵便番号": null, "所在地": "〒480-0104愛知県丹羽郡扶桑町大字斎藤北山字北山94番", "区分": "デイサービス", "緯度": 34.7297829, "経度": 137.4480136, "サービス提供地域": "扶桑町・大口町・犬山市・江南市" }, "geometry": { "type": "Point", "coordinates": [ 137.4480136, 34.7297829 ] } },
{ "type": "Feature", "properties": { "URL": "https://www.kaigokensaku.mhlw.go.jp/23/index.php?action_kouhyou_detail_023_kani=true&JigyosyoCd=2373400783-00&ServiceCd=150&Type=search", "名称": "デイサービスセンター　ともいき・塔野地", "内容2": null, "郵便番号": null, "所在地": "〒484-0097愛知県犬山市塔野地北四丁目　17番1", "区分": "デイサービス", "緯度": 35.3760655, "経度": 136.9577423, "サービス提供地域": "犬山市 サービス提供地域以外の方は、ご相談ください。" }, "geometry": { "type": "Point", "coordinates": [ 136.9577423, 35.3760655 ] } },
{ "type": "Feature", "properties": { "URL": "https://www.kaigokensaku.mhlw.go.jp/23/index.php?action_kouhyou_detail_023_kani=true&JigyosyoCd=2373300835-00&ServiceCd=150&Type=search", "名称": "デイサービスセンター　竹島園", "内容2": null, "郵便番号": null, "所在地": "〒443-0031蒲郡市竹島町17－9", "区分": "デイサービス", "緯度": 34.8180031, "経度": 137.2364486, "サービス提供地域": "蒲郡市" }, "geometry": { "type": "Point", "coordinates": [ 137.236448599999989, 34.8180031 ] } },
{ "type": "Feature", "properties": { "URL": "https://www.kaigokensaku.mhlw.go.jp/23/index.php?action_kouhyou_detail_023_kani=true&JigyosyoCd=2373601398-00&ServiceCd=150&Type=search", "名称": "デイサービスセンター第２ジョイフル江南", "内容2": null, "郵便番号": null, "所在地": "〒483-8363愛知県江南市河野町五十間５１番地", "区分": "デイサービス", "緯度": 35.3465232, "経度": 136.8394324, "サービス提供地域": "江南市全域、一宮市の一部（浅井町・瀬部・時之島・春明） 扶桑町の一部（小渕・南山名・山那・栢森・斎藤・高雄・高木）各務原市の一部（川島笠田町・川島北山町・川島小網町・川島河田町・川島竹早町・川島松倉町・川島松原町・川島緑町・川島渡町）を区域とする。" }, "geometry": { "type": "Point", "coordinates": [ 136.8394324, 35.3465232 ] } },
{ "type": "Feature", "properties": { "URL": "https://www.kaigokensaku.mhlw.go.jp/23/index.php?action_kouhyou_detail_023_kani=true&JigyosyoCd=2377300740-00&ServiceCd=150&Type=search", "名称": "デイサービスソラスト清須", "内容2": null, "郵便番号": null, "所在地": "〒452-0901愛知県清須市阿原鴨池100番地", "区分": "デイサービス", "緯度": 35.2164528, "経度": 136.8565776, "サービス提供地域": "清須市・北名古屋市・あま市・稲沢市・名古屋市西区・名古屋市北区" }, "geometry": { "type": "Point", "coordinates": [ 136.8565776, 35.2164528 ] } },
{ "type": "Feature", "properties": { "URL": "https://www.kaigokensaku.mhlw.go.jp/23/index.php?action_kouhyou_detail_023_kani=true&JigyosyoCd=2375601867-00&ServiceCd=150&Type=search", "名称": "Ｋライン・ケアセンター美和", "内容2": null, "郵便番号": null, "所在地": "〒490-1225愛知県あま市蜂須賀北本郷1317-1", "区分": "デイサービス", "緯度": 35.2035321, "経度": 136.767522, "サービス提供地域": "あま市、愛西市、津島市、稲沢市、清須市、一宮市の地域" }, "geometry": { "type": "Point", "coordinates": [ 136.767522, 35.2035321 ] } },
{ "type": "Feature", "properties": { "URL": "https://www.kaigokensaku.mhlw.go.jp/23/index.php?action_kouhyou_detail_023_kani=true&JigyosyoCd=2373001722-00&ServiceCd=150&Type=search", "名称": "まどいの丘デイサービスセンター", "内容2": null, "郵便番号": null, "所在地": "〒444-3252愛知県豊田市神殿町中切７－２ 豊田市下山保健福祉センター", "区分": "デイサービス", "緯度": 35.0416792, "経度": 137.3583421, "サービス提供地域": "豊田市　阿蔵町・蘭町・宇連野町・大桑町・大沼町・蕪木町・神殿町・黒坂町・小松野町・下山田代町・田折町・高野町・立岩町・田平沢町　　栃立町・梨野町・野原町・花沢町・羽布町・東大林町・平瀬町・和合町" }, "geometry": { "type": "Point", "coordinates": [ 137.358342099999987, 35.0416792 ] } },
{ "type": "Feature", "properties": { "URL": "https://www.kaigokensaku.mhlw.go.jp/23/index.php?action_kouhyou_detail_023_kani=true&JigyosyoCd=2372204830-00&ServiceCd=150&Type=search", "名称": "デイサービス えだまめ", "内容2": null, "郵便番号": null, "所在地": "〒494-0016東加賀野井字川原1713番地", "区分": "デイサービス", "緯度": 35.2928745, "経度": 136.7273008, "サービス提供地域": "一宮市・稲沢市" }, "geometry": { "type": "Point", "coordinates": [ 136.7273008, 35.2928745 ] } },
{ "type": "Feature", "properties": { "URL": "https://www.kaigokensaku.mhlw.go.jp/23/index.php?action_kouhyou_detail_023_kani=true&JigyosyoCd=2373400379-00&ServiceCd=150&Type=search", "名称": "デイサービスセンター　犬山白寿苑", "内容2": null, "郵便番号": null, "所在地": "〒484-0000愛知県犬山市字洞田３０－１", "区分": "デイサービス", "緯度": 35.3312628, "経度": 136.9671461, "サービス提供地域": "犬山市　小牧市　春日井市　大口町　扶桑町" }, "geometry": { "type": "Point", "coordinates": [ 136.9671461, 35.3312628 ] } },
{ "type": "Feature", "properties": { "URL": "https://www.kaigokensaku.mhlw.go.jp/23/index.php?action_kouhyou_detail_023_kani=true&JigyosyoCd=2373400304-00&ServiceCd=150&Type=search", "名称": "デイサービスセンター繭", "内容2": null, "郵便番号": null, "所在地": "〒484-0083愛知県犬山市大字犬山字東古券６５４", "区分": "デイサービス", "緯度": 35.3821635, "経度": 136.9408815, "サービス提供地域": "犬山市・丹羽郡・各務原市" }, "geometry": { "type": "Point", "coordinates": [ 136.940881499999989, 35.3821635 ] } },
{ "type": "Feature", "properties": { "URL": "https://www.kaigokensaku.mhlw.go.jp/23/index.php?action_kouhyou_detail_023_kani=true&JigyosyoCd=2373001789-00&ServiceCd=150&Type=search", "名称": "すまいる駒場　デイサービスセンター", "内容2": null, "郵便番号": null, "所在地": "〒473-0925愛知県豊田市駒場町元城57-2", "区分": "デイサービス", "緯度": 35.0151474, "経度": 137.0628329, "サービス提供地域": "知立市全域・豊田市(生駒町・大島町・和会町・駒新町・駒場町・高岡町・高岡新町・高岡本町・高美町・竹元町・堤町・堤本町・中町・中田町・中根町・西岡町・花園町・広田町・広美町・本町・本田町・前林町・吉原町・若林西町・若林東町 )" }, "geometry": { "type": "Point", "coordinates": [ 137.062832899999989, 35.0151474 ] } },
{ "type": "Feature", "properties": { "URL": "https://www.kaigokensaku.mhlw.go.jp/23/index.php?action_kouhyou_detail_023_kani=true&JigyosyoCd=2374200547-00&ServiceCd=150&Type=search", "名称": "デイサービス　さくらぎ", "内容2": null, "郵便番号": null, "所在地": "〒474-0044大府市桜木町４丁目１番地の１", "区分": "デイサービス", "緯度": 34.9873113, "経度": 136.9181073, "サービス提供地域": "大府市、東海市、知多市、東浦町" }, "geometry": { "type": "Point", "coordinates": [ 136.9181073, 34.9873113 ] } },
{ "type": "Feature", "properties": { "URL": "https://www.kaigokensaku.mhlw.go.jp/23/index.php?action_kouhyou_detail_023_kani=true&JigyosyoCd=2373201488-00&ServiceCd=150&Type=search", "名称": "デイサービスふじホーム", "内容2": null, "郵便番号": null, "所在地": "〒445-0033愛知県西尾市室町中川原57", "区分": "デイサービス", "緯度": 34.8545052, "経度": 137.1007007, "サービス提供地域": "西尾市　岡崎市中島町　幸田町" }, "geometry": { "type": "Point", "coordinates": [ 137.1007007, 34.8545052 ] } },
{ "type": "Feature", "properties": { "URL": "https://www.kaigokensaku.mhlw.go.jp/23/index.php?action_kouhyou_detail_023_kani=true&JigyosyoCd=2375300072-00&ServiceCd=150&Type=search", "名称": "デイサービスセンター御桜乃里", "内容2": null, "郵便番号": null, "所在地": "〒480-0144愛知県丹羽郡大口町下小口六丁目124番地2", "区分": "デイサービス", "緯度": 35.3304909, "経度": 136.9109886, "サービス提供地域": "大口町、扶桑町、犬山市、江南市、小牧市、岩倉市" }, "geometry": { "type": "Point", "coordinates": [ 136.9109886, 35.3304909 ] } },
{ "type": "Feature", "properties": { "URL": "https://www.kaigokensaku.mhlw.go.jp/23/index.php?action_kouhyou_detail_023_kani=true&JigyosyoCd=2372600433-00&ServiceCd=150&Type=search", "名称": "デイサービスセンター豊川彩幸", "内容2": null, "郵便番号": null, "所在地": "〒442-0846愛知県豊川市森6丁目66-2", "区分": "デイサービス", "緯度": 34.8222348, "経度": 137.3341789, "サービス提供地域": "豊川市、豊橋市、蒲郡市" }, "geometry": { "type": "Point", "coordinates": [ 137.334178900000012, 34.8222348 ] } },
{ "type": "Feature", "properties": { "URL": "https://www.kaigokensaku.mhlw.go.jp/23/index.php?action_kouhyou_detail_023_kani=true&JigyosyoCd=2372101960-00&ServiceCd=150&Type=search", "名称": "デイサ－ビスみのがわ", "内容2": null, "郵便番号": null, "所在地": "〒444-3512愛知県岡崎市鉢地町字下中野2番地1", "区分": "デイサービス", "緯度": 34.8843128, "経度": 137.2621732, "サービス提供地域": "岡崎市" }, "geometry": { "type": "Point", "coordinates": [ 137.2621732, 34.8843128 ] } },
{ "type": "Feature", "properties": { "URL": "https://www.kaigokensaku.mhlw.go.jp/23/index.php?action_kouhyou_detail_023_kani=true&JigyosyoCd=2370102606-00&ServiceCd=150&Type=search", "名称": "医療法人　蜂友会　はちやデイサービスセンター", "内容2": null, "郵便番号": null, "所在地": "〒464-0092愛知県名古屋市千種区茶屋が坂１丁目１０番５号", "区分": "デイサービス", "緯度": 35.1842219, "経度": 136.9605864, "サービス提供地域": "千種区・名東区・東区・昭和区・中区・守山区" }, "geometry": { "type": "Point", "coordinates": [ 136.960586400000011, 35.1842219 ] } },
{ "type": "Feature", "properties": { "URL": "https://www.kaigokensaku.mhlw.go.jp/23/index.php?action_kouhyou_detail_023_kani=true&JigyosyoCd=2377100140-00&ServiceCd=150&Type=search", "名称": "赤羽根デイサービスセンター", "内容2": null, "郵便番号": null, "所在地": "〒441-3502愛知県田原市赤羽根町赤土1番地", "区分": "デイサービス", "緯度": 34.6190241, "経度": 137.2112109, "サービス提供地域": "田原市" }, "geometry": { "type": "Point", "coordinates": [ 137.2112109, 34.6190241 ] } },
{ "type": "Feature", "properties": { "URL": "https://www.kaigokensaku.mhlw.go.jp/23/index.php?action_kouhyou_detail_023_kani=true&JigyosyoCd=2373200969-00&ServiceCd=150&Type=search", "名称": "幡豆デイサービス", "内容2": null, "郵便番号": null, "所在地": "〒444-0702愛知県西尾市寺部町西浦35番地", "区分": "デイサービス", "緯度": 34.7879982, "経度": 137.1201229, "サービス提供地域": "東幡豆町、西幡豆町、寺部町、鳥羽町、吉良町、一色町、蒲郡市西部地区（西浦・形原・金平・鹿島町）" }, "geometry": { "type": "Point", "coordinates": [ 137.120122900000013, 34.7879982 ] } },
{ "type": "Feature", "properties": { "URL": "https://www.kaigokensaku.mhlw.go.jp/23/index.php?action_kouhyou_detail_023_kani=true&JigyosyoCd=2377400110-00&ServiceCd=150&Type=search", "名称": "北名古屋市社協デイサービスセンターもえの丘", "内容2": null, "郵便番号": null, "所在地": "〒481-0006愛知県北名古屋市熊之庄大畔４８番地 北名古屋市総合福祉センターもえの丘", "区分": "デイサービス", "緯度": 35.2606523, "経度": 136.8877145, "サービス提供地域": "北名古屋市、岩倉市、豊山町、小牧市の一部、名古屋市西区の一部、名古屋市北区の一部、一宮市の一部" }, "geometry": { "type": "Point", "coordinates": [ 136.887714499999987, 35.2606523 ] } },
{ "type": "Feature", "properties": { "URL": "https://www.kaigokensaku.mhlw.go.jp/23/index.php?action_kouhyou_detail_023_kani=true&JigyosyoCd=2374300446-00&ServiceCd=150&Type=search", "名称": "ほのぼの園デイサービスセンター", "内容2": null, "郵便番号": null, "所在地": "〒478-0036愛知県知多市新舞子字明知山101-6", "区分": "デイサービス", "緯度": 34.9505866, "経度": 136.8300139, "サービス提供地域": "知多市・常滑市・阿久比町・東浦町" }, "geometry": { "type": "Point", "coordinates": [ 136.830013900000012, 34.9505866 ] } },
{ "type": "Feature", "properties": { "URL": "https://www.kaigokensaku.mhlw.go.jp/23/index.php?action_kouhyou_detail_023_kani=true&JigyosyoCd=2373700273-00&ServiceCd=150&Type=search", "名称": "いっぷくの里", "内容2": null, "郵便番号": null, "所在地": "〒494-0012愛知県一宮市明地字西阿古井13番地の2", "区分": "デイサービス", "緯度": 35.2820998, "経度": 136.7325536, "サービス提供地域": "一宮市尾西地区及び萩原町、稲沢市祖父江町" }, "geometry": { "type": "Point", "coordinates": [ 136.732553599999989, 35.2820998 ] } },
{ "type": "Feature", "properties": { "URL": "https://www.kaigokensaku.mhlw.go.jp/23/index.php?action_kouhyou_detail_023_kani=true&JigyosyoCd=2372200473-00&ServiceCd=150&Type=search", "名称": "たんぽぽデイサービス森本", "内容2": null, "郵便番号": null, "所在地": "〒491-0831愛知県一宮市森本１丁目２０番１５号", "区分": "デイサービス", "緯度": 35.293103, "経度": 136.8157751, "サービス提供地域": "一宮市（旧尾西、木曽川地区含む）、岩倉市一部地域、稲沢市一部地域、その他周辺地域に関しても応相談可能です。" }, "geometry": { "type": "Point", "coordinates": [ 136.8157751, 35.293103 ] } },
{ "type": "Feature", "properties": { "URL": "https://www.kaigokensaku.mhlw.go.jp/23/index.php?action_kouhyou_detail_023_kani=true&JigyosyoCd=2372203394-00&ServiceCd=150&Type=search", "名称": "デイサ－ビスセンタ－　たんぽぽ祢々の里", "内容2": null, "郵便番号": null, "所在地": "〒491-0811愛知県一宮市千秋町加納馬場字松下６０番地", "区分": "デイサービス", "緯度": 35.3061989, "経度": 136.8707624, "サービス提供地域": "一宮市・江南市・岩倉市・小牧市" }, "geometry": { "type": "Point", "coordinates": [ 136.8707624, 35.3061989 ] } },
{ "type": "Feature", "properties": { "URL": "https://www.kaigokensaku.mhlw.go.jp/23/index.php?action_kouhyou_detail_023_kani=true&JigyosyoCd=2377600958-00&ServiceCd=150&Type=search", "名称": "リハプロジェクト８", "内容2": null, "郵便番号": null, "所在地": "〒490-1106小路1-6-1", "区分": "デイサービス", "緯度": 35.2063582, "経度": 136.811361, "サービス提供地域": "あま市、清須市、海部郡大治町、稲沢市（中之庄新町・増田・高重・堀田・七ツ寺）" }, "geometry": { "type": "Point", "coordinates": [ 136.811361, 35.2063582 ] } },
{ "type": "Feature", "properties": { "URL": "https://www.kaigokensaku.mhlw.go.jp/23/index.php?action_kouhyou_detail_023_kani=true&JigyosyoCd=2374101596-00&ServiceCd=150&Type=search", "名称": "木田の里デイサービスセンター", "内容2": null, "郵便番号": null, "所在地": "〒477-0031愛知県東海市大田町庄之脇1番地", "区分": "デイサービス", "緯度": 35.0153279, "経度": 136.9007153, "サービス提供地域": "東海市、大府市、知多市、東浦町、その他の地域は、個別に相談に応じる。" }, "geometry": { "type": "Point", "coordinates": [ 136.9007153, 35.0153279 ] } },
{ "type": "Feature", "properties": { "URL": "https://www.kaigokensaku.mhlw.go.jp/23/index.php?action_kouhyou_detail_023_kani=true&JigyosyoCd=2374400139-00&ServiceCd=150&Type=search", "名称": "知立南デイサービス", "内容2": null, "郵便番号": null, "所在地": "〒472-0051愛知県知立市東長篠一丁目1番地13", "区分": "デイサービス", "緯度": 35.0001829, "経度": 137.0405529, "サービス提供地域": "知立市、刈谷市、安城市、豊田市(駒場町)" }, "geometry": { "type": "Point", "coordinates": [ 137.0405529, 35.0001829 ] } },
{ "type": "Feature", "properties": { "URL": "https://www.kaigokensaku.mhlw.go.jp/23/index.php?action_kouhyou_detail_023_kani=true&JigyosyoCd=2372000576-00&ServiceCd=150&Type=search", "名称": "豊橋市社会福祉協議会　南部デイサービスセンター", "内容2": null, "郵便番号": null, "所在地": "〒441-8133愛知県豊橋市大清水町字大清水５４６番地", "区分": "デイサービス", "緯度": 34.6976905, "経度": 137.3633371, "サービス提供地域": "豊橋市南部地域" }, "geometry": { "type": "Point", "coordinates": [ 137.3633371, 34.6976905 ] } },
{ "type": "Feature", "properties": { "URL": "https://www.kaigokensaku.mhlw.go.jp/23/index.php?action_kouhyou_detail_023_kani=true&JigyosyoCd=2375500317-00&ServiceCd=150&Type=search", "名称": "デイサービスさくらんぼ", "内容2": null, "郵便番号": null, "所在地": "〒495-0013愛知県稲沢市祖父江町二俣下り戸109-1", "区分": "デイサービス", "緯度": 35.2410886, "経度": 136.7293803, "サービス提供地域": "稲沢市、一宮市、津島市、羽島市、愛西市、海津市、岐阜市" }, "geometry": { "type": "Point", "coordinates": [ 136.7293803, 35.2410886 ] } },
{ "type": "Feature", "properties": { "URL": "https://www.kaigokensaku.mhlw.go.jp/23/index.php?action_kouhyou_detail_023_kani=true&JigyosyoCd=2372203659-00&ServiceCd=150&Type=search", "名称": "デイサービスセンターサザン富士", "内容2": null, "郵便番号": null, "所在地": "〒491-0024一宮市富士二丁目１０番２０号", "区分": "デイサービス", "緯度": 35.3054686, "経度": 136.8186623, "サービス提供地域": "一宮市" }, "geometry": { "type": "Point", "coordinates": [ 136.8186623, 35.3054686 ] } },
{ "type": "Feature", "properties": { "URL": "https://www.kaigokensaku.mhlw.go.jp/23/index.php?action_kouhyou_detail_023_kani=true&JigyosyoCd=2372800421-00&ServiceCd=150&Type=search", "名称": "デイサービス第2向陽", "内容2": null, "郵便番号": null, "所在地": "〒447-0035碧南市中山町1丁目56番地", "区分": "デイサービス", "緯度": 34.8873665, "経度": 137.0014061, "サービス提供地域": "碧南市内、高浜市内、西尾市内、その他の地域でも送迎が片道30分以内なら利用可。" }, "geometry": { "type": "Point", "coordinates": [ 137.0014061, 34.8873665 ] } },
{ "type": "Feature", "properties": { "URL": "https://www.kaigokensaku.mhlw.go.jp/23/index.php?action_kouhyou_detail_023_kani=true&JigyosyoCd=2375200595-00&ServiceCd=150&Type=search", "名称": "老人デイサービスセンターペガサス春日", "内容2": null, "郵便番号": null, "所在地": "〒452-0962愛知県清須市春日新町１０５番地", "区分": "デイサービス", "緯度": 35.226632, "経度": 136.8501203, "サービス提供地域": "清須市、北名古屋市、西春日井郡豊山町、稲沢市、 名古屋市西区（新木町、浮野町、上橋町、木前町、城町、城西町、十方町、長先町、中沼町、西原町、野南町、平中町、丸野町一丁目、二丁目、見寄町、山木一丁目）" }, "geometry": { "type": "Point", "coordinates": [ 136.850120299999986, 35.226632 ] } },
{ "type": "Feature", "properties": { "URL": "https://www.kaigokensaku.mhlw.go.jp/23/index.php?action_kouhyou_detail_023_kani=true&JigyosyoCd=2372002879-00&ServiceCd=150&Type=search", "名称": "コープあいちデイサービス新川", "内容2": null, "郵便番号": null, "所在地": "〒440-0814豊橋市前田町１丁目４番２", "区分": "デイサービス", "緯度": 34.7628322, "経度": 137.396488, "サービス提供地域": "豊橋市" }, "geometry": { "type": "Point", "coordinates": [ 137.396488, 34.7628322 ] } },
{ "type": "Feature", "properties": { "URL": "https://www.kaigokensaku.mhlw.go.jp/23/index.php?action_kouhyou_detail_023_kani=true&JigyosyoCd=2375601206-00&ServiceCd=150&Type=search", "名称": "たんぽぽデイサービス甚目寺", "内容2": null, "郵便番号": null, "所在地": "〒490-1116愛知県あま市本郷字郷前9番", "区分": "デイサービス", "緯度": 35.1851715, "経度": 136.823611, "サービス提供地域": "あま市甚目寺町、七宝町、美和町、海部郡大治町、清須市、名古屋市中村区、中川区、西区" }, "geometry": { "type": "Point", "coordinates": [ 136.823611, 35.1851715 ] } },
{ "type": "Feature", "properties": { "URL": "https://www.kaigokensaku.mhlw.go.jp/23/index.php?action_kouhyou_detail_023_kani=true&JigyosyoCd=2373700067-00&ServiceCd=150&Type=search", "名称": "朝日デイサービスセンター", "内容2": null, "郵便番号": null, "所在地": "〒494-0012愛知県一宮市明地字西阿古井１番地", "区分": "デイサービス", "緯度": 35.2791078, "経度": 136.7303221, "サービス提供地域": "一宮市尾西地区及び萩原町、稲沢市祖父江町" }, "geometry": { "type": "Point", "coordinates": [ 136.7303221, 35.2791078 ] } },
{ "type": "Feature", "properties": { "URL": "https://www.kaigokensaku.mhlw.go.jp/23/index.php?action_kouhyou_detail_023_kani=true&JigyosyoCd=2371303849-00&ServiceCd=150&Type=search", "名称": "あいじゅReha＆Stay", "内容2": null, "郵便番号": null, "所在地": "〒463-0015愛知県名古屋市守山区西島4丁目37番地", "区分": "デイサービス", "緯度": 35.158016, "経度": 136.9466692, "サービス提供地域": "千種区、名東区、守山区、東区,北区" }, "geometry": { "type": "Point", "coordinates": [ 136.9466692, 35.158016 ] } },
{ "type": "Feature", "properties": { "URL": "https://www.kaigokensaku.mhlw.go.jp/23/index.php?action_kouhyou_detail_023_kani=true&JigyosyoCd=2373400577-00&ServiceCd=150&Type=search", "名称": "さとうデイサービスセンター犬山", "内容2": null, "郵便番号": null, "所在地": "〒484-0894愛知県犬山市大字羽黒字下大日８番地３", "区分": "デイサービス", "緯度": 35.3516359, "経度": 136.9433773, "サービス提供地域": "犬山市、江南市、各務ヶ原市、小牧市、春日井市、可児市、扶桑町、大口町" }, "geometry": { "type": "Point", "coordinates": [ 136.9433773, 35.3516359 ] } },
{ "type": "Feature", "properties": { "URL": "https://www.kaigokensaku.mhlw.go.jp/23/index.php?action_kouhyou_detail_023_kani=true&JigyosyoCd=2373101530-00&ServiceCd=150&Type=search", "名称": "JAあいち中央デイサービス安城北", "内容2": null, "郵便番号": null, "所在地": "〒446-0004尾崎町北屋敷25", "区分": "デイサービス", "緯度": 34.9798506, "経度": 137.1081997, "サービス提供地域": "安城市(相生町・朝日町・安城町・井坑山町、池浦町・今池町・今本町・宇頭茶屋町・大岡町・尾崎町・柿崎町・河野町・北山崎町・篠目町・里町・上条町・城南町・昭和町・新田町・住吉町・大東町・高木町・東栄町・東明町・錦町・西別所町・二本木新町・橋目長・浜富町・浜谷町・東別所町・日の出町・百石町・別郷町・弁天町・法蓮町・御園町・南町・明治本町・山崎町・古井町）及び知立市内（牛田・牛田町・八ツ面町・八橋町・来迎寺町）岡崎市の一部（宇頭町・宇頭北町・西大友町・東大友町・橋目町・小針町・矢作町　等）" }, "geometry": { "type": "Point", "coordinates": [ 137.1081997, 34.9798506 ] } },
{ "type": "Feature", "properties": { "URL": "https://www.kaigokensaku.mhlw.go.jp/23/index.php?action_kouhyou_detail_023_kani=true&JigyosyoCd=2373101209-00&ServiceCd=150&Type=search", "名称": "JAあいち中央デイサービス安城南", "内容2": null, "郵便番号": null, "所在地": "〒444-1221安城市和泉町南家下6-1", "区分": "デイサービス", "緯度": 34.924442, "経度": 137.051004, "サービス提供地域": "安城市：明祥中学校区、安城西中学校区、安城南中学校区、桜井中学校区、安祥中学校区 碧南市：西端小学校区、鷲塚小学校区" }, "geometry": { "type": "Point", "coordinates": [ 137.051004, 34.924442 ] } },
{ "type": "Feature", "properties": { "URL": "https://www.kaigokensaku.mhlw.go.jp/23/index.php?action_kouhyou_detail_023_kani=true&JigyosyoCd=2372201406-00&ServiceCd=150&Type=search", "名称": "デイサービスセンター・ちあき", "内容2": null, "郵便番号": null, "所在地": "〒491-0821愛知県一宮市丹陽町重吉字新田裏東切1070番地6 ケアハウスちあき1階", "区分": "デイサービス", "緯度": 35.2883832, "経度": 136.8464437, "サービス提供地域": "一宮市全域、岩倉市全域、稲沢市赤池中町" }, "geometry": { "type": "Point", "coordinates": [ 136.8464437, 35.2883832 ] } },
{ "type": "Feature", "properties": { "URL": "https://www.kaigokensaku.mhlw.go.jp/23/index.php?action_kouhyou_detail_023_kani=true&JigyosyoCd=2370102168-00&ServiceCd=150&Type=search", "名称": "デイサービスセンター楽人", "内容2": null, "郵便番号": null, "所在地": "〒468-0827名古屋市千種区田代本通2丁目1番地 ダイトーエムイービル１階", "区分": "デイサービス", "緯度": 35.1635236, "経度": 136.955757, "サービス提供地域": "名古屋市千種区、昭和区、名東区（一部）、東区（一部）" }, "geometry": { "type": "Point", "coordinates": [ 136.955757, 35.1635236 ] } },
{ "type": "Feature", "properties": { "URL": "https://www.kaigokensaku.mhlw.go.jp/23/index.php?action_kouhyou_detail_023_kani=true&JigyosyoCd=2373101951-00&ServiceCd=150&Type=search", "名称": "八千代リハビリデイサービス彩", "内容2": null, "郵便番号": null, "所在地": "〒446-0073愛知県安城市篠目町4-4-3", "区分": "デイサービス", "緯度": 34.9791205, "経度": 137.0728566, "サービス提供地域": "安城市(朝日町、安城町、今池町、東栄町、高木町、桜町、緑町、井杭山町、今本町、里町、浜屋町、宇頭茶屋町、橋目町、尾崎町、東別所町、西別所町、別郷町、北山崎町、大岡町、山崎町、新明町、東新町、法連町、浜富町、新田町、大東町、弁天町、池浦町、住吉町、篠目町、錦町、日の出町、福釜、三河安城町、三河安城東町、三河安城本町、三河安城南町、南町、箕輪町、御幸本町、二本木町、二本木新町、美園町、城南町、大山町、百石町、小堤町、花ノ木町、末広町、明治本町、昭和町、相生町、横山町) 知立市(弘法町、八橋町、来迎寺町、内幸" }, "geometry": { "type": "Point", "coordinates": [ 137.0728566, 34.9791205 ] } },