{
"type": "FeatureCollection",
"name": "geo_地域老人福祉施設",
"crs": { "type": "name", "properties": { "name": "urn:ogc:def:crs:OGC:1.3:CRS84" } },
"features": [
{ "type": "Feature", "properties": { "URL": "https://www.kaigokensaku.mhlw.go.jp/23/index.php?action_kouhyou_detail_023_kani=true&JigyosyoCd=2392600207-00&ServiceCd=540&Type=search", "名称": "特別養護老人ホームれんげそう", "内容2": null, "郵便番号": null, "所在地": "〒441-0104愛知県豊川市平井町神明13番6 特別養護老人ホームれんげそう", "区分": "地域老人福祉施設", "緯度": 34.792329, "経度": 137.3604629, "サービス提供地域": "－" }, "geometry": { "type": "Point", "coordinates": [ 137.360462899999987, 34.792329 ] } },
{ "type": "Feature", "properties": { "URL": "https://www.kaigokensaku.mhlw.go.jp/23/index.php?action_kouhyou_detail_023_kani=true&JigyosyoCd=2392500373-00&ServiceCd=540&Type=search", "名称": "ゆたかの郷", "内容2": null, "郵便番号": null, "所在地": "〒486-0844愛知県春日井市鳥居松町四丁目２３６番地", "区分": "地域老人福祉施設", "緯度": 35.2432233, "経度": 136.9737163, "サービス提供地域": "－" }, "geometry": { "type": "Point", "coordinates": [ 136.9737163, 35.2432233 ] } },
{ "type": "Feature", "properties": { "URL": "https://www.kaigokensaku.mhlw.go.jp/23/index.php?action_kouhyou_detail_023_kani=true&JigyosyoCd=2392500308-00&ServiceCd=540&Type=search", "名称": "地域密着型特別養護老人ホーム　すないの家　春日井", "内容2": null, "郵便番号": null, "所在地": "〒486-0803愛知県春日井市西山町5丁目5番1", "区分": "地域老人福祉施設", "緯度": 35.276525, "経度": 136.9794472, "サービス提供地域": "－" }, "geometry": { "type": "Point", "coordinates": [ 136.97944720000001, 35.276525 ] } },
{ "type": "Feature", "properties": { "URL": "https://www.kaigokensaku.mhlw.go.jp/23/index.php?action_kouhyou_detail_023_kani=true&JigyosyoCd=2394500033-00&ServiceCd=540&Type=search", "名称": "地域密着型特別養護老人ホーム　すないの家尾張旭", "内容2": null, "郵便番号": null, "所在地": "〒488-0008愛知県尾張旭市柏井町弥栄２５６-１", "区分": "地域老人福祉施設", "緯度": 35.2295265, "経度": 137.0528116, "サービス提供地域": "－" }, "geometry": { "type": "Point", "coordinates": [ 137.052811600000013, 35.2295265 ] } },
{ "type": "Feature", "properties": { "URL": "https://www.kaigokensaku.mhlw.go.jp/23/index.php?action_kouhyou_detail_023_kani=true&JigyosyoCd=2392100182-00&ServiceCd=540&Type=search", "名称": "小規模特別養護老人ホーム　第二やはぎ苑", "内容2": null, "郵便番号": null, "所在地": "〒444-0908愛知県岡崎市橋目町字恵香１６番地 特別養護老人ホーム第二やはぎ苑", "区分": "地域老人福祉施設", "緯度": 34.9804914, "経度": 137.1344203, "サービス提供地域": "－" }, "geometry": { "type": "Point", "coordinates": [ 137.134420299999988, 34.9804914 ] } },
{ "type": "Feature", "properties": { "URL": "https://www.kaigokensaku.mhlw.go.jp/23/index.php?action_kouhyou_detail_023_kani=true&JigyosyoCd=2395000157-00&ServiceCd=540&Type=search", "名称": "特別養護老人ホームきらめきとうごう", "内容2": null, "郵便番号": null, "所在地": "〒470-0153愛知県愛知郡東郷町大字和合字南蚊谷310番地", "区分": "地域老人福祉施設", "緯度": 35.1008871, "経度": 137.0540447, "サービス提供地域": "－" }, "geometry": { "type": "Point", "coordinates": [ 137.0540447, 35.1008871 ] } },
{ "type": "Feature", "properties": { "URL": "https://www.kaigokensaku.mhlw.go.jp/23/index.php?action_kouhyou_detail_023_kani=true&JigyosyoCd=2392100398-00&ServiceCd=540&Type=search", "名称": "特別養護老人ホーム　さくらレジデンス", "内容2": null, "郵便番号": null, "所在地": "〒444-2148愛知県岡崎市仁木町字東郷8番地1 特別養護老人ホーム　さくらレジデンス", "区分": "地域老人福祉施設", "緯度": 35.0137893, "経度": 137.1716387, "サービス提供地域": "－" }, "geometry": { "type": "Point", "coordinates": [ 137.171638699999988, 35.0137893 ] } },
{ "type": "Feature", "properties": { "URL": "https://www.kaigokensaku.mhlw.go.jp/23/index.php?action_kouhyou_detail_023_kani=true&JigyosyoCd=2391000110-00&ServiceCd=540&Type=search", "名称": "特別養護老人ホーム　あんのん", "内容2": null, "郵便番号": null, "所在地": "〒454-0005名古屋市中川区西日置町十丁目201番地", "区分": "地域老人福祉施設", "緯度": 35.1578022, "経度": 136.8849532, "サービス提供地域": "－" }, "geometry": { "type": "Point", "coordinates": [ 136.884953200000012, 35.1578022 ] } },
{ "type": "Feature", "properties": { "URL": "https://www.kaigokensaku.mhlw.go.jp/23/index.php?action_kouhyou_detail_023_kani=true&JigyosyoCd=2392000242-00&ServiceCd=540&Type=search", "名称": "小規模特別養護老人ホーム　カサブランカ", "内容2": null, "郵便番号": null, "所在地": "〒440-0837三ノ輪町字本興寺3-60", "区分": "地域老人福祉施設", "緯度": 34.7468305, "経度": 137.4128145, "サービス提供地域": "－" }, "geometry": { "type": "Point", "coordinates": [ 137.4128145, 34.7468305 ] } },
{ "type": "Feature", "properties": { "URL": "https://www.kaigokensaku.mhlw.go.jp/23/index.php?action_kouhyou_detail_023_kani=true&JigyosyoCd=2375001514-00&ServiceCd=540&Type=search", "名称": "特別養護老人ホームきらめきとうごう", "内容2": null, "郵便番号": null, "所在地": "〒470-0153愛知県愛知郡東郷町大字和合字南蚊谷310番地", "区分": "地域老人福祉施設", "緯度": 35.1008871, "経度": 137.0540447, "サービス提供地域": "－" }, "geometry": { "type": "Point", "coordinates": [ 137.0540447, 35.1008871 ] } },
{ "type": "Feature", "properties": { "URL": "https://www.kaigokensaku.mhlw.go.jp/23/index.php?action_kouhyou_detail_023_kani=true&JigyosyoCd=2392000192-00&ServiceCd=540&Type=search", "名称": "小規模特別養護老人ホーム　カサデヴェルデ", "内容2": null, "郵便番号": null, "所在地": "〒441-3302杉山町字泉原139-1", "区分": "地域老人福祉施設", "緯度": 34.6704701, "経度": 137.3229598, "サービス提供地域": "－" }, "geometry": { "type": "Point", "coordinates": [ 137.3229598, 34.6704701 ] } },
{ "type": "Feature", "properties": { "URL": "https://www.kaigokensaku.mhlw.go.jp/23/index.php?action_kouhyou_detail_023_kani=true&JigyosyoCd=2393000100-00&ServiceCd=540&Type=search", "名称": "特別養護老人ホームくらがいけ", "内容2": null, "郵便番号": null, "所在地": "〒471-0003豊田市岩滝町高入４０－１", "区分": "地域老人福祉施設", "緯度": 35.1004424, "経度": 137.2007695, "サービス提供地域": "－" }, "geometry": { "type": "Point", "coordinates": [ 137.2007695, 35.1004424 ] } },
{ "type": "Feature", "properties": { "URL": "https://www.kaigokensaku.mhlw.go.jp/23/index.php?action_kouhyou_detail_023_kani=true&JigyosyoCd=2392600132-00&ServiceCd=540&Type=search", "名称": "地域密着型特別養護老人ホームみその", "内容2": null, "郵便番号": null, "所在地": "〒442-1212愛知県豊川市金沢町弁天下38-3", "区分": "地域老人福祉施設", "緯度": 34.8567135, "経度": 137.4530233, "サービス提供地域": "－" }, "geometry": { "type": "Point", "coordinates": [ 137.453023300000012, 34.856713500000012 ] } },
{ "type": "Feature", "properties": { "URL": "https://www.kaigokensaku.mhlw.go.jp/23/index.php?action_kouhyou_detail_023_kani=true&JigyosyoCd=2393600065-00&ServiceCd=540&Type=search", "名称": "特別養護老人ホーム第２ふぁみりい恕苑", "内容2": null, "郵便番号": null, "所在地": "〒483-8404愛知県江南市小杁町林138番地１", "区分": "地域老人福祉施設", "緯度": 35.3660743, "経度": 136.8773771, "サービス提供地域": "－" }, "geometry": { "type": "Point", "coordinates": [ 136.8773771, 35.3660743 ] } },
{ "type": "Feature", "properties": { "URL": "https://www.kaigokensaku.mhlw.go.jp/23/index.php?action_kouhyou_detail_023_kani=true&JigyosyoCd=2392000333-00&ServiceCd=540&Type=search", "名称": "小規模特別養護老人ホーム　天伯", "内容2": null, "郵便番号": null, "所在地": "〒441-8112愛知県豊橋市天伯町字六ツ美33番地の1", "区分": "地域老人福祉施設", "緯度": 34.6981643, "経度": 137.4102251, "サービス提供地域": "－" }, "geometry": { "type": "Point", "coordinates": [ 137.4102251, 34.6981643 ] } },
{ "type": "Feature", "properties": { "URL": "https://www.kaigokensaku.mhlw.go.jp/23/index.php?action_kouhyou_detail_023_kani=true&JigyosyoCd=2392000077-00&ServiceCd=540&Type=search", "名称": "小規模特別養護老人ホーム常盤", "内容2": null, "郵便番号": null, "所在地": "〒440-0044愛知県豊橋市宮下町1番地の１", "区分": "地域老人福祉施設", "緯度": 34.7617498, "経度": 137.4155351, "サービス提供地域": "－" }, "geometry": { "type": "Point", "coordinates": [ 137.4155351, 34.7617498 ] } },
{ "type": "Feature", "properties": { "URL": "https://www.kaigokensaku.mhlw.go.jp/23/index.php?action_kouhyou_detail_023_kani=true&JigyosyoCd=2392200131-00&ServiceCd=540&Type=search", "名称": "地域密着型特別養護老人ホーム　風の苑マグノリア", "内容2": null, "郵便番号": null, "所在地": "〒491-0051愛知県一宮市今伊勢町馬寄字東瀬古55番地1", "区分": "地域老人福祉施設", "緯度": 35.3240543, "経度": 136.7813285, "サービス提供地域": "－" }, "geometry": { "type": "Point", "coordinates": [ 136.7813285, 35.3240543 ] } },
{ "type": "Feature", "properties": { "URL": "https://www.kaigokensaku.mhlw.go.jp/23/index.php?action_kouhyou_detail_023_kani=true&JigyosyoCd=2391600216-00&ServiceCd=540&Type=search", "名称": "地域密着型特別養護老人ホームひらばりみなみ", "内容2": null, "郵便番号": null, "所在地": "〒468-0020平針南二丁目1002番地の1", "区分": "地域老人福祉施設", "緯度": 35.1104692, "経度": 137.0053878, "サービス提供地域": "－" }, "geometry": { "type": "Point", "coordinates": [ 137.0053878, 35.1104692 ] } },
{ "type": "Feature", "properties": { "URL": "https://www.kaigokensaku.mhlw.go.jp/23/index.php?action_kouhyou_detail_023_kani=true&JigyosyoCd=2392000168-00&ServiceCd=540&Type=search", "名称": "地域密着型特別養護老人ホーム大清水彩幸", "内容2": null, "郵便番号": null, "所在地": "〒441-8131東大清水町１８１番１", "区分": "地域老人福祉施設", "緯度": 34.6856817, "経度": 137.3782491, "サービス提供地域": "－" }, "geometry": { "type": "Point", "coordinates": [ 137.3782491, 34.6856817 ] } },
{ "type": "Feature", "properties": { "URL": "https://www.kaigokensaku.mhlw.go.jp/23/index.php?action_kouhyou_detail_023_kani=true&JigyosyoCd=2395600097-00&ServiceCd=540&Type=search", "名称": "あおばの郷", "内容2": null, "郵便番号": null, "所在地": "〒497-0052愛知県海部郡蟹江町西之森5丁目23番 あおばの郷", "区分": "地域老人福祉施設", "緯度": 35.1445121, "経度": 136.7776489, "サービス提供地域": "－" }, "geometry": { "type": "Point", "coordinates": [ 136.7776489, 35.1445121 ] } },
{ "type": "Feature", "properties": { "URL": "https://www.kaigokensaku.mhlw.go.jp/23/index.php?action_kouhyou_detail_023_kani=true&JigyosyoCd=2397100096-00&ServiceCd=540&Type=search", "名称": "特別養護老人ホーム　田原ゆの里", "内容2": null, "郵便番号": null, "所在地": "〒441-3402愛知県田原市吉胡町蔵王97番63 地域密着型複合福祉施設　田原ゆの里", "区分": "地域老人福祉施設", "緯度": 34.6859116, "経度": 137.2784148, "サービス提供地域": "－" }, "geometry": { "type": "Point", "coordinates": [ 137.2784148, 34.6859116 ] } },
{ "type": "Feature", "properties": { "URL": "https://www.kaigokensaku.mhlw.go.jp/23/index.php?action_kouhyou_detail_023_kani=true&JigyosyoCd=2393200213-00&ServiceCd=540&Type=search", "名称": "特別養護老人ホーム三和の里", "内容2": null, "郵便番号": null, "所在地": "〒445-0004愛知県西尾市西浅井町山之腰９０番地", "区分": "地域老人福祉施設", "緯度": 34.886498, "経度": 137.1042427, "サービス提供地域": "－" }, "geometry": { "type": "Point", "coordinates": [ 137.104242699999986, 34.886498 ] } },
{ "type": "Feature", "properties": { "URL": "https://www.kaigokensaku.mhlw.go.jp/23/index.php?action_kouhyou_detail_023_kani=true&JigyosyoCd=2394600031-00&ServiceCd=540&Type=search", "名称": "特別養護老人ホーム論地がるてん", "内容2": null, "郵便番号": null, "所在地": "〒444-1314愛知県高浜市論地町三丁目7番地１１７", "区分": "地域老人福祉施設", "緯度": 34.9175511, "経度": 137.0032496, "サービス提供地域": "－" }, "geometry": { "type": "Point", "coordinates": [ 137.0032496, 34.9175511 ] } },
{ "type": "Feature", "properties": { "URL": "https://www.kaigokensaku.mhlw.go.jp/23/index.php?action_kouhyou_detail_023_kani=true&JigyosyoCd=2392500506-00&ServiceCd=540&Type=search", "名称": "地域密着型特別養護老人ホームルフレ樹の里", "内容2": null, "郵便番号": null, "所在地": "〒486-0909愛知県春日井市四ツ家町字二ツ杁113番地1", "区分": "地域老人福祉施設", "緯度": 35.2607995, "経度": 136.9423565, "サービス提供地域": "－" }, "geometry": { "type": "Point", "coordinates": [ 136.942356499999988, 35.2607995 ] } },
{ "type": "Feature", "properties": { "URL": "https://www.kaigokensaku.mhlw.go.jp/23/index.php?action_kouhyou_detail_023_kani=true&JigyosyoCd=2393500075-00&ServiceCd=540&Type=search", "名称": "特別養護老人ホーム　ヴィラ南陵", "内容2": null, "郵便番号": null, "所在地": "〒479-0805常滑市苅屋字六本松127-3", "区分": "地域老人福祉施設", "緯度": 34.8500447, "経度": 136.8684927, "サービス提供地域": "－" }, "geometry": { "type": "Point", "coordinates": [ 136.8684927, 34.8500447 ] } },
{ "type": "Feature", "properties": { "URL": "https://www.kaigokensaku.mhlw.go.jp/23/index.php?action_kouhyou_detail_023_kani=true&JigyosyoCd=2392000325-00&ServiceCd=540&Type=search", "名称": "特別養護老人ホーム斯楽荘", "内容2": null, "郵便番号": null, "所在地": "〒441-1115愛知県豊橋市石巻本町字大清水８０番地", "区分": "地域老人福祉施設", "緯度": 34.7958654, "経度": 137.4329893, "サービス提供地域": "－" }, "geometry": { "type": "Point", "coordinates": [ 137.4329893, 34.7958654 ] } },
{ "type": "Feature", "properties": { "URL": "https://www.kaigokensaku.mhlw.go.jp/23/index.php?action_kouhyou_detail_023_kani=true&JigyosyoCd=2393000183-00&ServiceCd=540&Type=search", "名称": "地域密着型特別養護老人ホームうねべの里", "内容2": null, "郵便番号": null, "所在地": "〒470-1219豊田市畝部西町西裏100番地", "区分": "地域老人福祉施設", "緯度": 35.0120051, "経度": 137.1477484, "サービス提供地域": "－" }, "geometry": { "type": "Point", "coordinates": [ 137.147748400000012, 35.0120051 ] } },
{ "type": "Feature", "properties": { "URL": "https://www.kaigokensaku.mhlw.go.jp/23/index.php?action_kouhyou_detail_023_kani=true&JigyosyoCd=2392100315-00&ServiceCd=540&Type=search", "名称": "地域密着型特別養護老人ホームもとのみの里", "内容2": null, "郵便番号": null, "所在地": "〒444-0063岡崎市元能見町１７２番地１２", "区分": "地域老人福祉施設", "緯度": 34.9646127, "経度": 137.1607732, "サービス提供地域": "－" }, "geometry": { "type": "Point", "coordinates": [ 137.1607732, 34.9646127 ] } },
{ "type": "Feature", "properties": { "URL": "https://www.kaigokensaku.mhlw.go.jp/23/index.php?action_kouhyou_detail_023_kani=true&JigyosyoCd=2392100877-00&ServiceCd=540&Type=search", "名称": "特別養護老人ホームあちわの里", "内容2": null, "郵便番号": null, "所在地": "〒444-2111愛知県岡崎市西阿知和町字御用田1番地101", "区分": "地域老人福祉施設", "緯度": 34.9972506, "経度": 137.1773888, "サービス提供地域": "－" }, "geometry": { "type": "Point", "coordinates": [ 137.177388799999989, 34.9972506 ] } },
{ "type": "Feature", "properties": { "URL": "https://www.kaigokensaku.mhlw.go.jp/23/index.php?action_kouhyou_detail_023_kani=true&JigyosyoCd=2393000191-00&ServiceCd=540&Type=search", "名称": "特別養護老人ホームこささの里", "内容2": null, "郵便番号": null, "所在地": "〒470-0332豊田市越戸町上西小笹116番地", "区分": "地域老人福祉施設", "緯度": 35.1107097, "経度": 137.17878, "サービス提供地域": "－" }, "geometry": { "type": "Point", "coordinates": [ 137.17878, 35.1107097 ] } },
{ "type": "Feature", "properties": { "URL": "https://www.kaigokensaku.mhlw.go.jp/23/index.php?action_kouhyou_detail_023_kani=true&JigyosyoCd=2392100760-00&ServiceCd=540&Type=search", "名称": "特別養護老人ホームたきの里", "内容2": null, "郵便番号": null, "所在地": "〒444-3173滝町字十楽４３番地１１", "区分": "地域老人福祉施設", "緯度": 34.989611, "経度": 137.1907595, "サービス提供地域": "－" }, "geometry": { "type": "Point", "coordinates": [ 137.190759500000013, 34.989611 ] } },
{ "type": "Feature", "properties": { "URL": "https://www.kaigokensaku.mhlw.go.jp/23/index.php?action_kouhyou_detail_023_kani=true&JigyosyoCd=2392100372-00&ServiceCd=540&Type=search", "名称": "特別養護老人ホームときわの里", "内容2": null, "郵便番号": null, "所在地": "〒444-3173愛知県岡崎市滝町字神田1番地3", "区分": "地域老人福祉施設", "緯度": 34.9817616, "経度": 137.1920908, "サービス提供地域": "－" }, "geometry": { "type": "Point", "coordinates": [ 137.192090799999988, 34.9817616 ] } },
{ "type": "Feature", "properties": { "URL": "https://www.kaigokensaku.mhlw.go.jp/23/index.php?action_kouhyou_detail_023_kani=true&JigyosyoCd=2392100158-00&ServiceCd=540&Type=search", "名称": "特別養護老人ホームねこざわの里", "内容2": null, "郵便番号": null, "所在地": "〒444-0001愛知県岡崎市真伝吉祥2丁目38番地10", "区分": "地域老人福祉施設", "緯度": 34.9741652, "経度": 137.1935036, "サービス提供地域": "－" }, "geometry": { "type": "Point", "coordinates": [ 137.193503600000014, 34.9741652 ] } },
{ "type": "Feature", "properties": { "URL": "https://www.kaigokensaku.mhlw.go.jp/23/index.php?action_kouhyou_detail_023_kani=true&JigyosyoCd=2392100554-00&ServiceCd=540&Type=search", "名称": "特別養護老人ホームはこやなぎの里", "内容2": null, "郵便番号": null, "所在地": "〒444-0001愛知県岡崎市箱柳町字川北５６番地", "区分": "地域老人福祉施設", "緯度": 34.970265, "経度": 137.1968577, "サービス提供地域": "－" }, "geometry": { "type": "Point", "coordinates": [ 137.19685770000001, 34.970265 ] } },
{ "type": "Feature", "properties": { "URL": "https://www.kaigokensaku.mhlw.go.jp/23/index.php?action_kouhyou_detail_023_kani=true&JigyosyoCd=2392200479-00&ServiceCd=540&Type=search", "名称": "特別養護老人ホーム・ちあき第二", "内容2": null, "郵便番号": null, "所在地": "〒491-0814愛知県一宮市千秋町小山字山王21番地1", "区分": "地域老人福祉施設", "緯度": 35.2894144, "経度": 136.8489425, "サービス提供地域": "－" }, "geometry": { "type": "Point", "coordinates": [ 136.8489425, 35.289414400000013 ] } },
{ "type": "Feature", "properties": { "URL": "https://www.kaigokensaku.mhlw.go.jp/23/index.php?action_kouhyou_detail_023_kani=true&JigyosyoCd=2392100885-00&ServiceCd=540&Type=search", "名称": "特別養護老人ホーム第２あちわの里", "内容2": null, "郵便番号": null, "所在地": "〒444-2111愛知県岡崎市西阿知和町御用田1番地66", "区分": "地域老人福祉施設", "緯度": 34.9972506, "経度": 137.1773888, "サービス提供地域": "－" }, "geometry": { "type": "Point", "coordinates": [ 137.177388799999989, 34.9972506 ] } },
{ "type": "Feature", "properties": { "URL": "https://www.kaigokensaku.mhlw.go.jp/23/index.php?action_kouhyou_detail_023_kani=true&JigyosyoCd=2394000075-00&ServiceCd=540&Type=search", "名称": "特別養護老人ホーム奇楽荘", "内容2": null, "郵便番号": null, "所在地": "〒441-1338愛知県新城市一鍬田字柿平32番地1", "区分": "地域老人福祉施設", "緯度": 34.8688891, "経度": 137.4925791, "サービス提供地域": "－" }, "geometry": { "type": "Point", "coordinates": [ 137.4925791, 34.8688891 ] } },
{ "type": "Feature", "properties": { "URL": "https://www.kaigokensaku.mhlw.go.jp/23/index.php?action_kouhyou_detail_023_kani=true&JigyosyoCd=2395000041-00&ServiceCd=540&Type=search", "名称": "地域密着型介護老人福祉施設　エイジトピア諸輪", "内容2": null, "郵便番号": null, "所在地": "〒470-0151愛知県愛知郡東郷町大字諸輪字後山60-5", "区分": "地域老人福祉施設", "緯度": 35.1073753, "経度": 137.0679446, "サービス提供地域": "－" }, "geometry": { "type": "Point", "coordinates": [ 137.0679446, 35.1073753 ] } },
{ "type": "Feature", "properties": { "URL": "https://www.kaigokensaku.mhlw.go.jp/23/index.php?action_kouhyou_detail_023_kani=true&JigyosyoCd=2393900051-00&ServiceCd=540&Type=search", "名称": "特別養護老人ホーム　すずの郷西館", "内容2": null, "郵便番号": null, "所在地": "〒492-8267愛知県稲沢市船橋町江向131番地", "区分": "地域老人福祉施設", "緯度": 35.2482016, "経度": 136.7724255, "サービス提供地域": "－" }, "geometry": { "type": "Point", "coordinates": [ 136.7724255, 35.2482016 ] } },
{ "type": "Feature", "properties": { "URL": "https://www.kaigokensaku.mhlw.go.jp/23/index.php?action_kouhyou_detail_023_kani=true&JigyosyoCd=2392300139-00&ServiceCd=540&Type=search", "名称": "地域密着型介護老人福祉施設エイジトピア南山口", "内容2": null, "郵便番号": null, "所在地": "〒489-0965愛知県瀬戸市南山口町122", "区分": "地域老人福祉施設", "緯度": 35.1957949, "経度": 137.0926081, "サービス提供地域": "－" }, "geometry": { "type": "Point", "coordinates": [ 137.0926081, 35.1957949 ] } },
{ "type": "Feature", "properties": { "URL": "https://www.kaigokensaku.mhlw.go.jp/23/index.php?action_kouhyou_detail_023_kani=true&JigyosyoCd=2394800029-00&ServiceCd=540&Type=search", "名称": "くつかけホーム", "内容2": null, "郵便番号": null, "所在地": "〒470-1101愛知県豊明市沓掛町山新田106", "区分": "地域老人福祉施設", "緯度": 35.0878828, "経度": 137.016504, "サービス提供地域": "－" }, "geometry": { "type": "Point", "coordinates": [ 137.016504, 35.0878828 ] } },
{ "type": "Feature", "properties": { "URL": "https://www.kaigokensaku.mhlw.go.jp/23/index.php?action_kouhyou_detail_023_kani=true&JigyosyoCd=2392500217-00&ServiceCd=540&Type=search", "名称": "地域密着型小規模特別養護老人ホーム　あいあいの郷", "内容2": null, "郵便番号": null, "所在地": "〒487-0027愛知県春日井市松本町17番地１", "区分": "地域老人福祉施設", "緯度": 35.2712774, "経度": 137.0173488, "サービス提供地域": "－" }, "geometry": { "type": "Point", "coordinates": [ 137.0173488, 35.2712774 ] } },
{ "type": "Feature", "properties": { "URL": "https://www.kaigokensaku.mhlw.go.jp/23/index.php?action_kouhyou_detail_023_kani=true&JigyosyoCd=2391100183-00&ServiceCd=540&Type=search", "名称": "特別養護老人ホーム　第Ⅱ港寿楽苑", "内容2": null, "郵便番号": null, "所在地": "〒455-0066愛知県名古屋市港区寛政町1丁目32番地 特別養護老人ホーム　第Ⅱ港寿楽苑", "区分": "地域老人福祉施設", "緯度": 35.1067345, "経度": 136.864358, "サービス提供地域": "－" }, "geometry": { "type": "Point", "coordinates": [ 136.864358, 35.1067345 ] } },
{ "type": "Feature", "properties": { "URL": "https://www.kaigokensaku.mhlw.go.jp/23/index.php?action_kouhyou_detail_023_kani=true&JigyosyoCd=2390300156-00&ServiceCd=540&Type=search", "名称": "特別養護老人ホーム　安井乃郷", "内容2": null, "郵便番号": null, "所在地": "〒462-0023愛知県名古屋市北区安井1丁目１０番１０号", "区分": "地域老人福祉施設", "緯度": 35.2114169, "経度": 136.9164444, "サービス提供地域": "－" }, "geometry": { "type": "Point", "coordinates": [ 136.916444399999989, 35.2114169 ] } },
{ "type": "Feature", "properties": { "URL": "https://www.kaigokensaku.mhlw.go.jp/23/index.php?action_kouhyou_detail_023_kani=true&JigyosyoCd=2393800194-00&ServiceCd=540&Type=search", "名称": "特別養護老人ホーム小牧白寿苑", "内容2": null, "郵便番号": null, "所在地": "〒485-0011愛知県小牧市大字岩崎字山浦1432番地70", "区分": "地域老人福祉施設", "緯度": 35.3100262, "経度": 136.9331643, "サービス提供地域": "－" }, "geometry": { "type": "Point", "coordinates": [ 136.933164299999987, 35.3100262 ] } },
{ "type": "Feature", "properties": { "URL": "https://www.kaigokensaku.mhlw.go.jp/23/index.php?action_kouhyou_detail_023_kani=true&JigyosyoCd=2391100142-00&ServiceCd=540&Type=search", "名称": "地域密着型特別養護老人ホーム　木場清里苑", "内容2": null, "郵便番号": null, "所在地": "〒455-0021愛知県名古屋市港区木場町1番地の11", "区分": "地域老人福祉施設", "緯度": 35.1080361, "経度": 136.9003317, "サービス提供地域": "－" }, "geometry": { "type": "Point", "coordinates": [ 136.90033170000001, 35.1080361 ] } },
{ "type": "Feature", "properties": { "URL": "https://www.kaigokensaku.mhlw.go.jp/23/index.php?action_kouhyou_detail_023_kani=true&JigyosyoCd=2390200133-00&ServiceCd=540&Type=search", "名称": "地域密着型特別養護老人ホーム　ジョイフル砂田橋", "内容2": null, "郵便番号": null, "所在地": "〒461-0045愛知県名古屋市東区砂田橋一丁目1番1号 ジョイフル砂田橋", "区分": "地域老人福祉施設", "緯度": 35.1874332, "経度": 136.9552285, "サービス提供地域": "－" }, "geometry": { "type": "Point", "coordinates": [ 136.9552285, 35.1874332 ] } },
{ "type": "Feature", "properties": { "URL": "https://www.kaigokensaku.mhlw.go.jp/23/index.php?action_kouhyou_detail_023_kani=true&JigyosyoCd=2391600232-00&ServiceCd=540&Type=search", "名称": "地域密着型特別養護老人ホーム　八事の憩", "内容2": null, "郵便番号": null, "所在地": "〒468-0069愛知県名古屋市天白区表山二丁目312番地 地域密着型特別養護老人ホーム八事の憩", "区分": "地域老人福祉施設", "緯度": 35.1321704, "経度": 136.9652201, "サービス提供地域": "－" }, "geometry": { "type": "Point", "coordinates": [ 136.96522010000001, 35.1321704 ] } },
{ "type": "Feature", "properties": { "URL": "https://www.kaigokensaku.mhlw.go.jp/23/index.php?action_kouhyou_detail_023_kani=true&JigyosyoCd=2393300104-00&ServiceCd=540&Type=search", "名称": "特別養護老人ホーム　さくらの木", "内容2": null, "郵便番号": null, "所在地": "〒443-0013愛知県蒲郡市大塚町南向山２５番地５ 特別養護老人ホーム　さくらの木", "区分": "地域老人福祉施設", "緯度": 34.8126241, "経度": 137.2921261, "サービス提供地域": "－" }, "geometry": { "type": "Point", "coordinates": [ 137.2921261, 34.8126241 ] } },
{ "type": "Feature", "properties": { "URL": "https://www.kaigokensaku.mhlw.go.jp/23/index.php?action_kouhyou_detail_023_kani=true&JigyosyoCd=2391100316-00&ServiceCd=540&Type=search", "名称": "特別養護老人ホームみなとの憩", "内容2": null, "郵便番号": null, "所在地": "〒455-0037愛知県名古屋市港区名港一丁目６番１号 社会福祉法人フロンティア　みなとの憩", "区分": "地域老人福祉施設", "緯度": 35.0967424, "経度": 136.8853046, "サービス提供地域": "－" }, "geometry": { "type": "Point", "coordinates": [ 136.885304600000012, 35.0967424 ] } },
{ "type": "Feature", "properties": { "URL": "https://www.kaigokensaku.mhlw.go.jp/23/index.php?action_kouhyou_detail_023_kani=true&JigyosyoCd=2397100054-00&ServiceCd=540&Type=search", "名称": "特別養護老人ホーム花の里", "内容2": null, "郵便番号": null, "所在地": "〒441-3614愛知県田原市保美町平城6番1 地域密着型複合福祉施設花の里", "区分": "地域老人福祉施設", "緯度": 34.625747, "経度": 137.094383, "サービス提供地域": "－" }, "geometry": { "type": "Point", "coordinates": [ 137.094383, 34.625747 ] } },
{ "type": "Feature", "properties": { "URL": "https://www.kaigokensaku.mhlw.go.jp/23/index.php?action_kouhyou_detail_023_kani=true&JigyosyoCd=2394900043-00&ServiceCd=540&Type=search", "名称": "社会福祉法人薫徳会　エイジトピア浅田", "内容2": null, "郵便番号": null, "所在地": "〒470-0124愛知県日進市浅田町上納24番16", "区分": "地域老人福祉施設", "緯度": 35.1265351, "経度": 137.0285782, "サービス提供地域": "－" }, "geometry": { "type": "Point", "coordinates": [ 137.0285782, 35.1265351 ] } },
{ "type": "Feature", "properties": { "URL": "https://www.kaigokensaku.mhlw.go.jp/23/index.php?action_kouhyou_detail_023_kani=true&JigyosyoCd=2391400203-00&ServiceCd=540&Type=search", "名称": "地域密着型特別養護老人ホーム　オーネスト波の花", "内容2": null, "郵便番号": null, "所在地": "〒459-8001愛知県名古屋市緑区大高町字下塩田３２－１", "区分": "地域老人福祉施設", "緯度": 35.070767, "経度": 136.9355606, "サービス提供地域": "－" }, "geometry": { "type": "Point", "coordinates": [ 136.9355606, 35.070767 ] } },
{ "type": "Feature", "properties": { "URL": "https://www.kaigokensaku.mhlw.go.jp/23/index.php?action_kouhyou_detail_023_kani=true&JigyosyoCd=2390300289-00&ServiceCd=540&Type=search", "名称": "特別養護老人ホームかくれんぼ", "内容2": null, "郵便番号": null, "所在地": "〒462-0047な名古屋市北区金城町4丁目47番地の2", "区分": "地域老人福祉施設", "緯度": 35.2098981, "経度": 136.9061299, "サービス提供地域": "－" }, "geometry": { "type": "Point", "coordinates": [ 136.9061299, 35.2098981 ] } },
{ "type": "Feature", "properties": { "URL": "https://www.kaigokensaku.mhlw.go.jp/23/index.php?action_kouhyou_detail_023_kani=true&JigyosyoCd=2391000144-00&ServiceCd=540&Type=search", "名称": "特別養護老人ホーム　オーネスト紫の郷", "内容2": null, "郵便番号": null, "所在地": "〒454-0964富永四丁目278番地", "区分": "地域老人福祉施設", "緯度": 35.1210301, "経度": 136.8046186, "サービス提供地域": "－" }, "geometry": { "type": "Point", "coordinates": [ 136.8046186, 35.1210301 ] } },
{ "type": "Feature", "properties": { "URL": "https://www.kaigokensaku.mhlw.go.jp/23/index.php?action_kouhyou_detail_023_kani=true&JigyosyoCd=2393200049-00&ServiceCd=540&Type=search", "名称": "せんねん村矢曽根の家", "内容2": null, "郵便番号": null, "所在地": "〒445-0872西尾市矢曽根町蓮雲寺55番地１", "区分": "地域老人福祉施設", "緯度": 34.8562905, "経度": 137.0499759, "サービス提供地域": "－" }, "geometry": { "type": "Point", "coordinates": [ 137.0499759, 34.8562905 ] } },
{ "type": "Feature", "properties": { "URL": "https://www.kaigokensaku.mhlw.go.jp/23/index.php?action_kouhyou_detail_023_kani=true&JigyosyoCd=2390300172-00&ServiceCd=540&Type=search", "名称": "地域密着型特別養護老人ホーム愛生苑", "内容2": null, "郵便番号": null, "所在地": "〒462-0011愛知県名古屋市北区五反田町１０８番地２", "区分": "地域老人福祉施設", "緯度": 35.2270171, "経度": 136.911593, "サービス提供地域": "－" }, "geometry": { "type": "Point", "coordinates": [ 136.911593, 35.2270171 ] } },
{ "type": "Feature", "properties": { "URL": "https://www.kaigokensaku.mhlw.go.jp/23/index.php?action_kouhyou_detail_023_kani=true&JigyosyoCd=2393000241-00&ServiceCd=540&Type=search", "名称": "特別養護老人ホーム　ひまわり邸", "内容2": null, "郵便番号": null, "所在地": "〒471-0067愛知県豊田市栄生町5-20", "区分": "地域老人福祉施設", "緯度": 35.101876, "経度": 137.149006, "サービス提供地域": "－" }, "geometry": { "type": "Point", "coordinates": [ 137.149006, 35.101876 ] } },
{ "type": "Feature", "properties": { "URL": "https://www.kaigokensaku.mhlw.go.jp/23/index.php?action_kouhyou_detail_023_kani=true&JigyosyoCd=2392600215-00&ServiceCd=540&Type=search", "名称": "地域密着型特別養護老人ホームいちごの花", "内容2": null, "郵便番号": null, "所在地": "〒441-0101愛知県豊川市宿町金山９６番地", "区分": "地域老人福祉施設", "緯度": 34.8044711, "経度": 137.3630829, "サービス提供地域": "－" }, "geometry": { "type": "Point", "coordinates": [ 137.3630829, 34.8044711 ] } },
{ "type": "Feature", "properties": { "URL": "https://www.kaigokensaku.mhlw.go.jp/23/index.php?action_kouhyou_detail_023_kani=true&JigyosyoCd=2393100173-00&ServiceCd=540&Type=search", "名称": "地域密着型特別養護老人ホームこころくばり", "内容2": null, "郵便番号": null, "所在地": "〒446-0073愛知県安城市篠目町竜田155番 介護複合施設こころくばり", "区分": "地域老人福祉施設", "緯度": 34.98151, "経度": 137.0662184, "サービス提供地域": "－" }, "geometry": { "type": "Point", "coordinates": [ 137.0662184, 34.98151 ] } },
{ "type": "Feature", "properties": { "URL": "https://www.kaigokensaku.mhlw.go.jp/23/index.php?action_kouhyou_detail_023_kani=true&JigyosyoCd=2392200289-00&ServiceCd=540&Type=search", "名称": "特別養護老人ホーム・ちあき", "内容2": null, "郵便番号": null, "所在地": "〒491-0814愛知県一宮市千秋町小山字山王22番地1", "区分": "地域老人福祉施設", "緯度": 35.2896557, "経度": 136.8487269, "サービス提供地域": "－" }, "geometry": { "type": "Point", "coordinates": [ 136.8487269, 35.2896557 ] } },
{ "type": "Feature", "properties": { "URL": "https://www.kaigokensaku.mhlw.go.jp/23/index.php?action_kouhyou_detail_023_kani=true&JigyosyoCd=2393300070-00&ServiceCd=540&Type=search", "名称": "特別養護老人ホームなごみの郷", "内容2": null, "郵便番号": null, "所在地": "〒443-0008愛知県蒲郡市柏原町加治替戸3-1 0533-69-8753", "区分": "地域老人福祉施設", "緯度": 34.8374291, "経度": 137.2114242, "サービス提供地域": "－" }, "geometry": { "type": "Point", "coordinates": [ 137.21142420000001, 34.8374291 ] } },
{ "type": "Feature", "properties": { "URL": "https://www.kaigokensaku.mhlw.go.jp/23/index.php?action_kouhyou_detail_023_kani=true&JigyosyoCd=2392100349-00&ServiceCd=540&Type=search", "名称": "地域密着型特別養護老人ホームなのはな苑うえじ", "内容2": null, "郵便番号": null, "所在地": "〒444-0824上地町字新佐原85番地 なのはな苑うえじ", "区分": "地域老人福祉施設", "緯度": 34.8962664, "経度": 137.1577524, "サービス提供地域": "－" }, "geometry": { "type": "Point", "coordinates": [ 137.1577524, 34.8962664 ] } },
{ "type": "Feature", "properties": { "URL": "https://www.kaigokensaku.mhlw.go.jp/23/index.php?action_kouhyou_detail_023_kani=true&JigyosyoCd=2390300115-00&ServiceCd=540&Type=search", "名称": "特別養護老人ホームオアシス楠", "内容2": null, "郵便番号": null, "所在地": "〒462-0017落合町１５６番地", "区分": "地域老人福祉施設", "緯度": 35.2238592, "経度": 136.9089366, "サービス提供地域": "－" }, "geometry": { "type": "Point", "coordinates": [ 136.9089366, 35.2238592 ] } },
{ "type": "Feature", "properties": { "URL": "https://www.kaigokensaku.mhlw.go.jp/23/index.php?action_kouhyou_detail_023_kani=true&JigyosyoCd=2390300198-00&ServiceCd=540&Type=search", "名称": "特別養護老人ホームオアシス", "内容2": null, "郵便番号": null, "所在地": "〒462-0016愛知県名古屋市北区西味鋺一丁目９０１番地の１５", "区分": "地域老人福祉施設", "緯度": 35.2209769, "経度": 136.9132832, "サービス提供地域": "－" }, "geometry": { "type": "Point", "coordinates": [ 136.9132832, 35.2209769 ] } },
{ "type": "Feature", "properties": { "URL": "https://www.kaigokensaku.mhlw.go.jp/23/index.php?action_kouhyou_detail_023_kani=true&JigyosyoCd=2393800137-00&ServiceCd=540&Type=search", "名称": "特別養護老人ホーム結いの郷小牧", "内容2": null, "郵便番号": null, "所在地": "〒485-0084愛知県小牧市大字入鹿出新田字郷中539-1", "区分": "地域老人福祉施設", "緯度": 35.3083943, "経度": 136.9040502, "サービス提供地域": "－" }, "geometry": { "type": "Point", "coordinates": [ 136.9040502, 35.3083943 ] } },
{ "type": "Feature", "properties": { "URL": "https://www.kaigokensaku.mhlw.go.jp/23/index.php?action_kouhyou_detail_023_kani=true&JigyosyoCd=2394200055-00&ServiceCd=540&Type=search", "名称": "特別養護老人ホームもりおか", "内容2": null, "郵便番号": null, "所在地": "〒474-0038愛知県大府市森岡町二丁目28番地", "区分": "地域老人福祉施設", "緯度": 35.0089494, "経度": 136.9472264, "サービス提供地域": "－" }, "geometry": { "type": "Point", "coordinates": [ 136.9472264, 35.0089494 ] } },
{ "type": "Feature", "properties": { "URL": "https://www.kaigokensaku.mhlw.go.jp/23/index.php?action_kouhyou_detail_023_kani=true&JigyosyoCd=2395300029-00&ServiceCd=540&Type=search", "名称": "特別養護老人ホーム　結いの郷", "内容2": null, "郵便番号": null, "所在地": "〒480-0102大字高雄字郷東３１２番地", "区分": "地域老人福祉施設", "緯度": 35.3608941, "経度": 136.9337083, "サービス提供地域": "－" }, "geometry": { "type": "Point", "coordinates": [ 136.9337083, 35.3608941 ] } },
{ "type": "Feature", "properties": { "URL": "https://www.kaigokensaku.mhlw.go.jp/23/index.php?action_kouhyou_detail_023_kani=true&JigyosyoCd=2393200114-00&ServiceCd=540&Type=search", "名称": "特別養護老人ホームレジデンス寺嶋", "内容2": null, "郵便番号": null, "所在地": "〒444-0533愛知県西尾市吉良町寺嶋川原15番地", "区分": "地域老人福祉施設", "緯度": 34.8387892, "経度": 137.0844892, "サービス提供地域": "－" }, "geometry": { "type": "Point", "coordinates": [ 137.0844892, 34.8387892 ] } },
{ "type": "Feature", "properties": { "URL": "https://www.kaigokensaku.mhlw.go.jp/23/index.php?action_kouhyou_detail_023_kani=true&JigyosyoCd=2394100172-00&ServiceCd=540&Type=search", "名称": "特別養護老人ホーム　ザ ストーリー東海", "内容2": null, "郵便番号": null, "所在地": "〒476-0011愛知県東海市富木島町新藤塚３０番", "区分": "地域老人福祉施設", "緯度": 35.0175822, "経度": 136.9302103, "サービス提供地域": "－" }, "geometry": { "type": "Point", "coordinates": [ 136.9302103, 35.0175822 ] } },
{ "type": "Feature", "properties": { "URL": "https://www.kaigokensaku.mhlw.go.jp/23/index.php?action_kouhyou_detail_023_kani=true&JigyosyoCd=2395000082-00&ServiceCd=540&Type=search", "名称": "社会福祉法人　千寿会　長久手さつきの家", "内容2": null, "郵便番号": null, "所在地": "〒480-1103愛知県長久手市岩作色金21番地1", "区分": "地域老人福祉施設", "緯度": 35.1886772, "経度": 137.0546029, "サービス提供地域": "－" }, "geometry": { "type": "Point", "coordinates": [ 137.0546029, 35.1886772 ] } },
{ "type": "Feature", "properties": { "URL": "https://www.kaigokensaku.mhlw.go.jp/23/index.php?action_kouhyou_detail_023_kani=true&JigyosyoCd=2392100232-00&ServiceCd=540&Type=search", "名称": "特別養護老人ホーム　アルクオーレ岡崎六名", "内容2": null, "郵便番号": null, "所在地": "〒444-0846六名新町１０番地１５", "区分": "地域老人福祉施設", "緯度": 34.94092, "経度": 137.1530628, "サービス提供地域": "－" }, "geometry": { "type": "Point", "coordinates": [ 137.153062799999987, 34.94092 ] } },
{ "type": "Feature", "properties": { "URL": "https://www.kaigokensaku.mhlw.go.jp/23/index.php?action_kouhyou_detail_023_kani=true&JigyosyoCd=2395700269-00&ServiceCd=540&Type=search", "名称": "特別養護老人ホーム　うのさと茜邸", "内容2": null, "郵便番号": null, "所在地": "〒470-2102愛知県知多郡東浦町大字緒川字雁狭間山1-21", "区分": "地域老人福祉施設", "緯度": 34.9686884, "経度": 136.9257459, "サービス提供地域": "－" }, "geometry": { "type": "Point", "coordinates": [ 136.92574590000001, 34.9686884 ] } },
{ "type": "Feature", "properties": { "URL": "https://www.kaigokensaku.mhlw.go.jp/23/index.php?action_kouhyou_detail_023_kani=true&JigyosyoCd=2392101008-00&ServiceCd=540&Type=search", "名称": "地域密着型特別養護老人ホーム　岡崎ささゆりの里", "内容2": null, "郵便番号": null, "所在地": "〒444-0008愛知県岡崎市洞町字下河原６番１", "区分": "地域老人福祉施設", "緯度": 34.9448304, "経度": 137.2009744, "サービス提供地域": "－" }, "geometry": { "type": "Point", "coordinates": [ 137.2009744, 34.9448304 ] } },
{ "type": "Feature", "properties": { "URL": "https://www.kaigokensaku.mhlw.go.jp/23/index.php?action_kouhyou_detail_023_kani=true&JigyosyoCd=2393600156-00&ServiceCd=540&Type=search", "名称": "地域密着型特別養護老人ホ－ムたんぽぽ鶴の里", "内容2": null, "郵便番号": null, "所在地": "〒483-8264愛知県江南市島宮町城141番地", "区分": "地域老人福祉施設", "緯度": 35.3290402, "経度": 136.8461752, "サービス提供地域": "－" }, "geometry": { "type": "Point", "coordinates": [ 136.8461752, 35.3290402 ] } },
{ "type": "Feature", "properties": { "URL": "https://www.kaigokensaku.mhlw.go.jp/23/index.php?action_kouhyou_detail_023_kani=true&JigyosyoCd=2397500071-00&ServiceCd=540&Type=search", "名称": "特別養護老人ホーム　にじいろあすなろ", "内容2": null, "郵便番号": null, "所在地": "〒498-0036愛知県弥富市森津一三丁目6-1", "区分": "地域老人福祉施設", "緯度": 35.0965859, "経度": 136.7393871, "サービス提供地域": "－" }, "geometry": { "type": "Point", "coordinates": [ 136.739387099999988, 35.0965859 ] } },
{ "type": "Feature", "properties": { "URL": "https://www.kaigokensaku.mhlw.go.jp/23/index.php?action_kouhyou_detail_023_kani=true&JigyosyoCd=2392200446-00&ServiceCd=540&Type=search", "名称": "社会福祉法人　聖会　特別養護老人ホーム　プチ・プレジール", "内容2": null, "郵便番号": null, "所在地": "〒491-0924愛知県一宮市大和町於保字丹波6番地3", "区分": "地域老人福祉施設", "緯度": 35.2780452, "経度": 136.7977753, "サービス提供地域": "－" }, "geometry": { "type": "Point", "coordinates": [ 136.797775300000012, 35.2780452 ] } },
{ "type": "Feature", "properties": { "URL": "https://www.kaigokensaku.mhlw.go.jp/23/index.php?action_kouhyou_detail_023_kani=true&JigyosyoCd=2390400170-00&ServiceCd=540&Type=search", "名称": "びわじま介護センター　地域密着型介護老人福祉施設", "内容2": null, "郵便番号": null, "所在地": "〒451-0053愛知県名古屋市西区枇杷島２丁目19-18", "区分": "地域老人福祉施設", "緯度": 35.1913232, "経度": 136.8698121, "サービス提供地域": "－" }, "geometry": { "type": "Point", "coordinates": [ 136.8698121, 35.1913232 ] } },
{ "type": "Feature", "properties": { "URL": "https://www.kaigokensaku.mhlw.go.jp/23/index.php?action_kouhyou_detail_023_kani=true&JigyosyoCd=2392500480-00&ServiceCd=540&Type=search", "名称": "ほのぼのホーム西尾", "内容2": null, "郵便番号": null, "所在地": "〒480-0302春日井市西尾町字前新田336番1", "区分": "地域老人福祉施設", "緯度": 35.3227219, "経度": 137.0461392, "サービス提供地域": "－" }, "geometry": { "type": "Point", "coordinates": [ 137.0461392, 35.3227219 ] } },
{ "type": "Feature", "properties": { "URL": "https://www.kaigokensaku.mhlw.go.jp/23/index.php?action_kouhyou_detail_023_kani=true&JigyosyoCd=2392300089-00&ServiceCd=540&Type=search", "名称": "地域密着型小規模特別養護老人ホーム　ラシュレ樹の里", "内容2": null, "郵便番号": null, "所在地": "〒489-0035紺屋田町65番地13", "区分": "地域老人福祉施設", "緯度": 35.2349438, "経度": 137.1148501, "サービス提供地域": "－" }, "geometry": { "type": "Point", "coordinates": [ 137.114850100000012, 35.2349438 ] } },
{ "type": "Feature", "properties": { "URL": "https://www.kaigokensaku.mhlw.go.jp/23/index.php?action_kouhyou_detail_023_kani=true&JigyosyoCd=2391400211-00&ServiceCd=540&Type=search", "名称": "地域密着型特別養護老人ホーム　きらめき", "内容2": null, "郵便番号": null, "所在地": "〒459-8016愛知県名古屋市緑区南大高四丁目107番地", "区分": "地域老人福祉施設", "緯度": 35.055041, "経度": 136.9396452, "サービス提供地域": "－" }, "geometry": { "type": "Point", "coordinates": [ 136.9396452, 35.055041 ] } },
{ "type": "Feature", "properties": { "URL": "https://www.kaigokensaku.mhlw.go.jp/23/index.php?action_kouhyou_detail_023_kani=true&JigyosyoCd=2392200537-00&ServiceCd=540&Type=search", "名称": "地域密着型特別養護老人ホーム　たんぽぽ鴇の里", "内容2": null, "郵便番号": null, "所在地": "〒491-0002愛知県一宮市時之島字大東21番1", "区分": "地域老人福祉施設", "緯度": 35.3265194, "経度": 136.8478052, "サービス提供地域": "－" }, "geometry": { "type": "Point", "coordinates": [ 136.84780520000001, 35.3265194 ] } },
{ "type": "Feature", "properties": { "URL": "https://www.kaigokensaku.mhlw.go.jp/23/index.php?action_kouhyou_detail_023_kani=true&JigyosyoCd=2392500340-00&ServiceCd=540&Type=search", "名称": "地域密着型特別養護老人ホーム　どんぐりの森", "内容2": null, "郵便番号": null, "所在地": "〒487-0032愛知県春日井市高森台５丁目６番地１", "区分": "地域老人福祉施設", "緯度": 35.2974389, "経度": 137.0537248, "サービス提供地域": "－" }, "geometry": { "type": "Point", "coordinates": [ 137.0537248, 35.2974389 ] } },
{ "type": "Feature", "properties": { "URL": "https://www.kaigokensaku.mhlw.go.jp/23/index.php?action_kouhyou_detail_023_kani=true&JigyosyoCd=2392100117-00&ServiceCd=540&Type=search", "名称": "地域密着型特別養護老人ホーム　なのはな苑むつみ", "内容2": null, "郵便番号": null, "所在地": "〒444-0232愛知県岡崎市合歓木町字上郷間２９７－１", "区分": "地域老人福祉施設", "緯度": 34.9134649, "経度": 137.113877, "サービス提供地域": "－" }, "geometry": { "type": "Point", "coordinates": [ 137.113877, 34.9134649 ] } },
{ "type": "Feature", "properties": { "URL": "https://www.kaigokensaku.mhlw.go.jp/23/index.php?action_kouhyou_detail_023_kani=true&JigyosyoCd=2392000119-00&ServiceCd=540&Type=search", "名称": "地域密着型特別養護老人ホーム　幸王寿園", "内容2": null, "郵便番号": null, "所在地": "〒441-8113愛知県豊橋市西幸町字浜池323番地324番地", "区分": "地域老人福祉施設", "緯度": 34.7229874, "経度": 137.41079, "サービス提供地域": "－" }, "geometry": { "type": "Point", "coordinates": [ 137.41079, 34.7229874 ] } },
{ "type": "Feature", "properties": { "URL": "https://www.kaigokensaku.mhlw.go.jp/23/index.php?action_kouhyou_detail_023_kani=true&JigyosyoCd=2392600140-00&ServiceCd=540&Type=search", "名称": "地域密着型特別養護老人ホームみかんの樹", "内容2": null, "郵便番号": null, "所在地": "〒442-0846愛知県豊川市森四丁目８６番地１ 地域密着型特別養護老人ホームみかんの樹", "区分": "地域老人福祉施設", "緯度": 34.825397, "経度": 137.3349448, "サービス提供地域": "－" }, "geometry": { "type": "Point", "coordinates": [ 137.334944799999988, 34.825397 ] } },
{ "type": "Feature", "properties": { "URL": "https://www.kaigokensaku.mhlw.go.jp/23/index.php?action_kouhyou_detail_023_kani=true&JigyosyoCd=2392200529-00&ServiceCd=540&Type=search", "名称": "地域密着型特別養護老人ホームゆとりの郷", "内容2": null, "郵便番号": null, "所在地": "〒491-0135愛知県一宮市光明寺字古屋敷１８６番地１", "区分": "地域老人福祉施設", "緯度": 35.3520947, "経度": 136.8062587, "サービス提供地域": "－" }, "geometry": { "type": "Point", "coordinates": [ 136.8062587, 35.352094699999988 ] } },
{ "type": "Feature", "properties": { "URL": "https://www.kaigokensaku.mhlw.go.jp/23/index.php?action_kouhyou_detail_023_kani=true&JigyosyoCd=2392100505-00&ServiceCd=540&Type=search", "名称": "地域密着型特別養護老人ホーム額田ささゆりの里", "内容2": null, "郵便番号": null, "所在地": "〒444-3622愛知県岡崎市樫山町字丸峰１番地３", "区分": "地域老人福祉施設", "緯度": 34.9180153, "経度": 137.2774892, "サービス提供地域": "－" }, "geometry": { "type": "Point", "coordinates": [ 137.2774892, 34.9180153 ] } },
{ "type": "Feature", "properties": { "URL": "https://www.kaigokensaku.mhlw.go.jp/23/index.php?action_kouhyou_detail_023_kani=true&JigyosyoCd=2392100513-00&ServiceCd=540&Type=search", "名称": "小規模特別養護老人ホーム 第三やはぎ苑", "内容2": null, "郵便番号": null, "所在地": "〒444-0908愛知県岡崎市橋目町字恵香18番地1", "区分": "地域老人福祉施設", "緯度": 34.980977, "経度": 137.1346897, "サービス提供地域": "－" }, "geometry": { "type": "Point", "coordinates": [ 137.1346897, 34.980977 ] } },
{ "type": "Feature", "properties": { "URL": "https://www.kaigokensaku.mhlw.go.jp/23/index.php?action_kouhyou_detail_023_kani=true&JigyosyoCd=2395000033-00&ServiceCd=540&Type=search", "名称": "小規模特別養護老人ホーム　だいたい村", "内容2": null, "郵便番号": null, "所在地": "〒480-1102愛知県長久手市前熊字下田１５５", "区分": "地域老人福祉施設", "緯度": 35.1854245, "経度": 137.0596569, "サービス提供地域": "－" }, "geometry": { "type": "Point", "coordinates": [ 137.0596569, 35.1854245 ] } },
{ "type": "Feature", "properties": { "URL": "https://www.kaigokensaku.mhlw.go.jp/23/index.php?action_kouhyou_detail_023_kani=true&JigyosyoCd=2394400036-00&ServiceCd=540&Type=search", "名称": "小規模特養　ヴィラトピア知立", "内容2": null, "郵便番号": null, "所在地": "〒472-0007愛知県知立市牛田町コネハサマ34番地1", "区分": "地域老人福祉施設", "緯度": 35.0074352, "経度": 137.0597085, "サービス提供地域": "－" }, "geometry": { "type": "Point", "coordinates": [ 137.0597085, 35.0074352 ] } },
{ "type": "Feature", "properties": { "URL": "https://www.kaigokensaku.mhlw.go.jp/23/index.php?action_kouhyou_detail_023_kani=true&JigyosyoCd=2391100118-00&ServiceCd=540&Type=search", "名称": "特別養護老人ホーム　おおて幸楽園", "内容2": null, "郵便番号": null, "所在地": "〒455-0053名四町１７８番地２", "区分": "地域老人福祉施設", "緯度": 35.0986052, "経度": 136.869007, "サービス提供地域": "－" }, "geometry": { "type": "Point", "coordinates": [ 136.869007, 35.0986052 ] } },
{ "type": "Feature", "properties": { "URL": "https://www.kaigokensaku.mhlw.go.jp/23/index.php?action_kouhyou_detail_023_kani=true&JigyosyoCd=2395700145-00&ServiceCd=540&Type=search", "名称": "特別養護老人ホーム　ひだまり", "内容2": null, "郵便番号": null, "所在地": "〒470-3411愛知県南知多町大字豊丘字中平井１４番地２", "区分": "地域老人福祉施設", "緯度": 34.7252226, "経度": 136.9424778, "サービス提供地域": "－" }, "geometry": { "type": "Point", "coordinates": [ 136.9424778, 34.7252226 ] } },
{ "type": "Feature", "properties": { "URL": "https://www.kaigokensaku.mhlw.go.jp/23/index.php?action_kouhyou_detail_023_kani=true&JigyosyoCd=2392000580-00&ServiceCd=540&Type=search", "名称": "特別養護老人ホーム　やまなみ王寿園", "内容2": null, "郵便番号": null, "所在地": "〒441-3106愛知県豊橋市中原町字西荒神11", "区分": "地域老人福祉施設", "緯度": 34.7284651, "経度": 137.4711713, "サービス提供地域": "－" }, "geometry": { "type": "Point", "coordinates": [ 137.4711713, 34.7284651 ] } },
{ "type": "Feature", "properties": { "URL": "https://www.kaigokensaku.mhlw.go.jp/23/index.php?action_kouhyou_detail_023_kani=true&JigyosyoCd=2392100380-00&ServiceCd=540&Type=search", "名称": "特別養護老人ホーム　アクアむつみ", "内容2": null, "郵便番号": null, "所在地": "〒444-0204愛知県岡崎市土井町東善道3番地", "区分": "地域老人福祉施設", "緯度": 34.9208814, "経度": 137.1419493, "サービス提供地域": "－" }, "geometry": { "type": "Point", "coordinates": [ 137.1419493, 34.9208814 ] } },
{ "type": "Feature", "properties": { "URL": "https://www.kaigokensaku.mhlw.go.jp/23/index.php?action_kouhyou_detail_023_kani=true&JigyosyoCd=2393100082-00&ServiceCd=540&Type=search", "名称": "特別養護老人ホーム　アルクオーレ安城横山", "内容2": null, "郵便番号": null, "所在地": "〒446-0045愛知県安城市横山町赤子１０番地", "区分": "地域老人福祉施設", "緯度": 34.9589366, "経度": 137.0681932, "サービス提供地域": "－" }, "geometry": { "type": "Point", "coordinates": [ 137.0681932, 34.9589366 ] } },
{ "type": "Feature", "properties": { "URL": "https://www.kaigokensaku.mhlw.go.jp/23/index.php?action_kouhyou_detail_023_kani=true&JigyosyoCd=2395000116-00&ServiceCd=540&Type=search", "名称": "特別養護老人ホーム　フィロスとうごう", "内容2": null, "郵便番号": null, "所在地": "〒470-0153愛知県愛知郡東郷町大字和合字南蚊谷310番地", "区分": "地域老人福祉施設", "緯度": 35.1008871, "経度": 137.0540447, "サービス提供地域": "－" }, "geometry": { "type": "Point", "coordinates": [ 137.0540447, 35.1008871 ] } },
{ "type": "Feature", "properties": { "URL": "https://www.kaigokensaku.mhlw.go.jp/23/index.php?action_kouhyou_detail_023_kani=true&JigyosyoCd=2394300061-00&ServiceCd=540&Type=search", "名称": "特別養護老人ホーム　プラムガーデン", "内容2": null, "郵便番号": null, "所在地": "〒478-0015愛知県知多市佐布里字神明54番地", "区分": "地域老人福祉施設", "緯度": 34.9729035, "経度": 136.8812086, "サービス提供地域": "－" }, "geometry": { "type": "Point", "coordinates": [ 136.8812086, 34.9729035 ] } },
{ "type": "Feature", "properties": { "URL": "https://www.kaigokensaku.mhlw.go.jp/23/index.php?action_kouhyou_detail_023_kani=true&JigyosyoCd=2391300122-00&ServiceCd=540&Type=search", "名称": "特別養護老人ホーム　ユニットケア　しだみ敬愛園", "内容2": null, "郵便番号": null, "所在地": "〒463-0003愛知県名古屋市桜坂5丁目606番地", "区分": "地域老人福祉施設", "緯度": 35.2335168, "経度": 137.0201109, "サービス提供地域": "－" }, "geometry": { "type": "Point", "coordinates": [ 137.0201109, 35.2335168 ] } },
{ "type": "Feature", "properties": { "URL": "https://www.kaigokensaku.mhlw.go.jp/23/index.php?action_kouhyou_detail_023_kani=true&JigyosyoCd=2394300038-00&ServiceCd=540&Type=search", "名称": "特別養護老人ホーム　ヴィラ桜坂", "内容2": null, "郵便番号": null, "所在地": "〒478-0042愛知県知多市長浦1丁目１１１番地", "区分": "地域老人福祉施設", "緯度": 34.9782903, "経度": 136.850797, "サービス提供地域": "－" }, "geometry": { "type": "Point", "coordinates": [ 136.850797, 34.9782903 ] } },
{ "type": "Feature", "properties": { "URL": "https://www.kaigokensaku.mhlw.go.jp/23/index.php?action_kouhyou_detail_023_kani=true&JigyosyoCd=2390300099-00&ServiceCd=540&Type=search", "名称": "特別養護老人ホーム　名春の森", "内容2": null, "郵便番号": null, "所在地": "〒462-0013愛知県名古屋市北区東味鋺一丁目2502番地", "区分": "地域老人福祉施設", "緯度": 35.2232407, "経度": 136.934719, "サービス提供地域": "－" }, "geometry": { "type": "Point", "coordinates": [ 136.934719, 35.2232407 ] } },
{ "type": "Feature", "properties": { "URL": "https://www.kaigokensaku.mhlw.go.jp/23/index.php?action_kouhyou_detail_023_kani=true&JigyosyoCd=2391200199-00&ServiceCd=540&Type=search", "名称": "特別養護老人ホーム　大地の丘笠寺", "内容2": null, "郵便番号": null, "所在地": "〒457-0045愛知県名古屋市南区松城町3丁目34番地の1", "区分": "地域老人福祉施設", "緯度": 35.0989346, "経度": 136.9314876, "サービス提供地域": "－" }, "geometry": { "type": "Point", "coordinates": [ 136.9314876, 35.0989346 ] } },
{ "type": "Feature", "properties": { "URL": "https://www.kaigokensaku.mhlw.go.jp/23/index.php?action_kouhyou_detail_023_kani=true&JigyosyoCd=2391300080-00&ServiceCd=540&Type=search", "名称": "特別養護老人ホーム　守山豊生苑", "内容2": null, "郵便番号": null, "所在地": "〒463-0065愛知県名古屋市守山区廿軒家１３番３２号", "区分": "地域老人福祉施設", "緯度": 35.1951212, "経度": 136.9590322, "サービス提供地域": "－" }, "geometry": { "type": "Point", "coordinates": [ 136.9590322, 35.1951212 ] } },
{ "type": "Feature", "properties": { "URL": "https://www.kaigokensaku.mhlw.go.jp/23/index.php?action_kouhyou_detail_023_kani=true&JigyosyoCd=2394100040-00&ServiceCd=540&Type=search", "名称": "特別養護老人ホーム　東萌山苑", "内容2": null, "郵便番号": null, "所在地": "〒476-0002愛知県東海市名和町東萌山45番地", "区分": "地域老人福祉施設", "緯度": 35.0513184, "経度": 136.9240684, "サービス提供地域": "－" }, "geometry": { "type": "Point", "coordinates": [ 136.92406840000001, 35.0513184 ] } },
{ "type": "Feature", "properties": { "URL": "https://www.kaigokensaku.mhlw.go.jp/23/index.php?action_kouhyou_detail_023_kani=true&JigyosyoCd=2393300054-00&ServiceCd=540&Type=search", "名称": "特別養護老人ホーム　百華苑", "内容2": null, "郵便番号": null, "所在地": "〒443-0021蒲郡市三谷町姥ヶ懐23番地", "区分": "地域老人福祉施設", "緯度": 34.8211797, "経度": 137.2568049, "サービス提供地域": "－" }, "geometry": { "type": "Point", "coordinates": [ 137.2568049, 34.8211797 ] } },
{ "type": "Feature", "properties": { "URL": "https://www.kaigokensaku.mhlw.go.jp/23/index.php?action_kouhyou_detail_023_kani=true&JigyosyoCd=2392000127-00&ServiceCd=540&Type=search", "名称": "特別養護老人ホーム　真寿苑", "内容2": null, "郵便番号": null, "所在地": "〒441-8087豊橋市牟呂町字東明治郷下1番地", "区分": "地域老人福祉施設", "緯度": 34.7536911, "経度": 137.3520233, "サービス提供地域": "－" }, "geometry": { "type": "Point", "coordinates": [ 137.352023300000013, 34.7536911 ] } },
{ "type": "Feature", "properties": { "URL": "https://www.kaigokensaku.mhlw.go.jp/23/index.php?action_kouhyou_detail_023_kani=true&JigyosyoCd=2391300155-00&ServiceCd=540&Type=search", "名称": "特別養護老人ホーム　第二守牧苑", "内容2": null, "郵便番号": null, "所在地": "〒465-0075愛知県名古屋市守山区市場11-22 特別養護老人ホーム　第二守牧苑", "区分": "地域老人福祉施設", "緯度": 35.1964666, "経度": 136.9503259, "サービス提供地域": "－" }, "geometry": { "type": "Point", "coordinates": [ 136.9503259, 35.1964666 ] } },
{ "type": "Feature", "properties": { "URL": "https://www.kaigokensaku.mhlw.go.jp/23/index.php?action_kouhyou_detail_023_kani=true&JigyosyoCd=2391100134-00&ServiceCd=540&Type=search", "名称": "特別養護老人ホーム　第二希望の郷", "内容2": null, "郵便番号": null, "所在地": "〒455-0863新茶屋2丁目1506", "区分": "地域老人福祉施設", "緯度": 35.1057526, "経度": 136.8061788, "サービス提供地域": "－" }, "geometry": { "type": "Point", "coordinates": [ 136.8061788, 35.1057526 ] } },
{ "type": "Feature", "properties": { "URL": "https://www.kaigokensaku.mhlw.go.jp/23/index.php?action_kouhyou_detail_023_kani=true&JigyosyoCd=2391100084-00&ServiceCd=540&Type=search", "名称": "特別養護老人ホーム　華の郷南陽", "内容2": null, "郵便番号": null, "所在地": "〒455-0863名古屋市港区新茶屋１丁目１７２８", "区分": "地域老人福祉施設", "緯度": 35.109305, "経度": 136.807188, "サービス提供地域": "－" }, "geometry": { "type": "Point", "coordinates": [ 136.807188, 35.109305 ] } },
{ "type": "Feature", "properties": { "URL": "https://www.kaigokensaku.mhlw.go.jp/23/index.php?action_kouhyou_detail_023_kani=true&JigyosyoCd=2391000177-00&ServiceCd=540&Type=search", "名称": "特別養護老人ホーム　豊治共愛の家", "内容2": null, "郵便番号": null, "所在地": "〒454-0963名古屋市中川区水里五丁目７５５番地", "区分": "地域老人福祉施設", "緯度": 35.1260647, "経度": 136.8027883, "サービス提供地域": "－" }, "geometry": { "type": "Point", "coordinates": [ 136.8027883, 35.1260647 ] } },
{ "type": "Feature", "properties": { "URL": "https://www.kaigokensaku.mhlw.go.jp/23/index.php?action_kouhyou_detail_023_kani=true&JigyosyoCd=2392000341-00&ServiceCd=540&Type=search", "名称": "特別養護老人ホーム　高師王寿園", "内容2": null, "郵便番号": null, "所在地": "〒441-8153愛知県豊橋市高師本郷町字竹ノ内107番地", "区分": "地域老人福祉施設", "緯度": 34.7174984, "経度": 137.3971116, "サービス提供地域": "－" }, "geometry": { "type": "Point", "coordinates": [ 137.397111599999988, 34.7174984 ] } },
{ "type": "Feature", "properties": { "URL": "https://www.kaigokensaku.mhlw.go.jp/23/index.php?action_kouhyou_detail_023_kani=true&JigyosyoCd=2396100139-00&ServiceCd=540&Type=search", "名称": "特別養護老人ホームきらめきみよし", "内容2": null, "郵便番号": null, "所在地": "〒470-0226愛知県みよし市西一色町神田80", "区分": "地域老人福祉施設", "緯度": 35.0904057, "経度": 137.0601302, "サービス提供地域": "－" }, "geometry": { "type": "Point", "coordinates": [ 137.0601302, 35.090405700000012 ] } },
{ "type": "Feature", "properties": { "URL": "https://www.kaigokensaku.mhlw.go.jp/23/index.php?action_kouhyou_detail_023_kani=true&JigyosyoCd=2394300129-00&ServiceCd=540&Type=search", "名称": "特別養護老人ホームちた福寿園", "内容2": null, "郵便番号": null, "所在地": "〒478-0022愛知県知多市大興寺字落田11番地1", "区分": "地域老人福祉施設", "緯度": 34.9459867, "経度": 136.8582007, "サービス提供地域": "－" }, "geometry": { "type": "Point", "coordinates": [ 136.8582007, 34.9459867 ] } },
{ "type": "Feature", "properties": { "URL": "https://www.kaigokensaku.mhlw.go.jp/23/index.php?action_kouhyou_detail_023_kani=true&JigyosyoCd=2392200487-00&ServiceCd=540&Type=search", "名称": "特別養護老人ホームまつかぜ", "内容2": null, "郵便番号": null, "所在地": "〒494-0001愛知県一宮市開明字柳苗代13番地", "区分": "地域老人福祉施設", "緯度": 35.3165197, "経度": 136.7670057, "サービス提供地域": "－" }, "geometry": { "type": "Point", "coordinates": [ 136.7670057, 35.3165197 ] } },
{ "type": "Feature", "properties": { "URL": "https://www.kaigokensaku.mhlw.go.jp/23/index.php?action_kouhyou_detail_023_kani=true&JigyosyoCd=2395600048-00&ServiceCd=540&Type=search", "名称": "特別養護老人ホームカリヨンの郷「新千秋」", "内容2": null, "郵便番号": null, "所在地": "〒497-0043愛知県海部郡蟹江町大字新千秋字後西３４番地", "区分": "地域老人福祉施設", "緯度": 35.1168818, "経度": 136.7738491, "サービス提供地域": "－" }, "geometry": { "type": "Point", "coordinates": [ 136.7738491, 35.1168818 ] } },
{ "type": "Feature", "properties": { "URL": "https://www.kaigokensaku.mhlw.go.jp/23/index.php?action_kouhyou_detail_023_kani=true&JigyosyoCd=2392500159-00&ServiceCd=540&Type=search", "名称": "特別養護老人ホームグレイスフル浅山", "内容2": null, "郵便番号": null, "所在地": "〒486-0857春日井市浅山町１丁目１番８号", "区分": "地域老人福祉施設", "緯度": 35.2535039, "経度": 136.9815853, "サービス提供地域": "－" }, "geometry": { "type": "Point", "coordinates": [ 136.9815853, 35.2535039 ] } },
{ "type": "Feature", "properties": { "URL": "https://www.kaigokensaku.mhlw.go.jp/23/index.php?action_kouhyou_detail_023_kani=true&JigyosyoCd=2393000274-00&ServiceCd=540&Type=search", "名称": "特別養護老人ホーム保見の里", "内容2": null, "郵便番号": null, "所在地": "〒470-0344愛知県豊田市保見町南山109‐1", "区分": "地域老人福祉施設", "緯度": 35.1304531, "経度": 137.1282076, "サービス提供地域": "－" }, "geometry": { "type": "Point", "coordinates": [ 137.1282076, 35.1304531 ] } },
{ "type": "Feature", "properties": { "URL": "https://www.kaigokensaku.mhlw.go.jp/23/index.php?action_kouhyou_detail_023_kani=true&JigyosyoCd=2392000226-00&ServiceCd=540&Type=search", "名称": "特別養護老人ホーム倶楽荘", "内容2": null, "郵便番号": null, "所在地": "〒440-0094愛知県豊橋市川崎町216番地2", "区分": "地域老人福祉施設", "緯度": 34.7830521, "経度": 137.3575657, "サービス提供地域": "－" }, "geometry": { "type": "Point", "coordinates": [ 137.3575657, 34.7830521 ] } },
{ "type": "Feature", "properties": { "URL": "https://www.kaigokensaku.mhlw.go.jp/23/index.php?action_kouhyou_detail_023_kani=true&JigyosyoCd=2392000788-00&ServiceCd=540&Type=search", "名称": "特別養護老人ホーム喜寿苑清須", "内容2": null, "郵便番号": null, "所在地": "〒440-0095愛知県豊橋市清須町字宮西38番地1", "区分": "地域老人福祉施設", "緯度": 34.7778757, "経度": 137.348937, "サービス提供地域": "－" }, "geometry": { "type": "Point", "coordinates": [ 137.348937, 34.7778757 ] } },
{ "type": "Feature", "properties": { "URL": "https://www.kaigokensaku.mhlw.go.jp/23/index.php?action_kouhyou_detail_023_kani=true&JigyosyoCd=2392000861-00&ServiceCd=540&Type=search", "名称": "特別養護老人ホーム富士見王寿園", "内容2": null, "郵便番号": null, "所在地": "〒441-8132愛知県豊橋市南大清水町字富士見858番地1", "区分": "地域老人福祉施設", "緯度": 34.6852615, "経度": 137.3620893, "サービス提供地域": "－" }, "geometry": { "type": "Point", "coordinates": [ 137.3620893, 34.6852615 ] } },
{ "type": "Feature", "properties": { "URL": "https://www.kaigokensaku.mhlw.go.jp/23/index.php?action_kouhyou_detail_023_kani=true&JigyosyoCd=2393300039-00&ServiceCd=540&Type=search", "名称": "特別養護老人ホーム形原眺海園ぬくもりの家", "内容2": null, "郵便番号": null, "所在地": "〒443-0104蒲郡市形原町南新田55-7", "区分": "地域老人福祉施設", "緯度": 34.8065018, "経度": 137.1890789, "サービス提供地域": "－" }, "geometry": { "type": "Point", "coordinates": [ 137.1890789, 34.8065018 ] } },
{ "type": "Feature", "properties": { "URL": "https://www.kaigokensaku.mhlw.go.jp/23/index.php?action_kouhyou_detail_023_kani=true&JigyosyoCd=2390900112-00&ServiceCd=540&Type=search", "名称": "特別養護老人ホーム桜田ファミリア", "内容2": null, "郵便番号": null, "所在地": "〒456-0004愛知県名古屋市熱田区桜田町9番23号", "区分": "地域老人福祉施設", "緯度": 35.1404901, "経度": 136.9073389, "サービス提供地域": "－" }, "geometry": { "type": "Point", "coordinates": [ 136.907338900000013, 35.1404901 ] } },
{ "type": "Feature", "properties": { "URL": "https://www.kaigokensaku.mhlw.go.jp/23/index.php?action_kouhyou_detail_023_kani=true&JigyosyoCd=2393000530-00&ServiceCd=540&Type=search", "名称": "特別養護老人ホーム益富の楽園", "内容2": null, "郵便番号": null, "所在地": "〒471-0801愛知県豊田市古瀬間町古宿131", "区分": "地域老人福祉施設", "緯度": 35.0746895, "経度": 137.2047722, "サービス提供地域": "－" }, "geometry": { "type": "Point", "coordinates": [ 137.2047722, 35.0746895 ] } },
{ "type": "Feature", "properties": { "URL": "https://www.kaigokensaku.mhlw.go.jp/23/index.php?action_kouhyou_detail_023_kani=true&JigyosyoCd=2393000332-00&ServiceCd=540&Type=search", "名称": "特別養護老人ホーム石野の里", "内容2": null, "郵便番号": null, "所在地": "〒470-0307愛知県豊田市東広瀬町神田26番地１", "区分": "地域老人福祉施設", "緯度": 35.1498576, "経度": 137.219437, "サービス提供地域": "－" }, "geometry": { "type": "Point", "coordinates": [ 137.219437, 35.1498576 ] } },
{ "type": "Feature", "properties": { "URL": "https://www.kaigokensaku.mhlw.go.jp/23/index.php?action_kouhyou_detail_023_kani=true&JigyosyoCd=2391100043-00&ServiceCd=540&Type=search", "名称": "特別養護老人ホーム第二幸楽荘", "内容2": null, "郵便番号": null, "所在地": "〒455-0864愛知県名古屋市港区小川一丁目１９番地", "区分": "地域老人福祉施設", "緯度": 35.0981495, "経度": 136.8175418, "サービス提供地域": "－" }, "geometry": { "type": "Point", "coordinates": [ 136.817541799999987, 35.0981495 ] } },
{ "type": "Feature", "properties": { "URL": "https://www.kaigokensaku.mhlw.go.jp/23/index.php?action_kouhyou_detail_023_kani=true&JigyosyoCd=2393000233-00&ServiceCd=540&Type=search", "名称": "特別養護老人ホーム第２すばる", "内容2": null, "郵便番号": null, "所在地": "〒473-0931豊田市上丘町八ツ田25番１", "区分": "地域老人福祉施設", "緯度": 35.0623353, "経度": 137.1104536, "サービス提供地域": "－" }, "geometry": { "type": "Point", "coordinates": [ 137.1104536, 35.0623353 ] } },
{ "type": "Feature", "properties": { "URL": "https://www.kaigokensaku.mhlw.go.jp/23/index.php?action_kouhyou_detail_023_kani=true&JigyosyoCd=2393000647-00&ServiceCd=540&Type=search", "名称": "特別養護老人ホーム藤岡の楽園", "内容2": null, "郵便番号": null, "所在地": "〒471-0431愛知県豊田市西中山町才ケ洞10-5", "区分": "地域老人福祉施設", "緯度": 35.1557606, "経度": 137.1752572, "サービス提供地域": "－" }, "geometry": { "type": "Point", "coordinates": [ 137.1752572, 35.1557606 ] } },
{ "type": "Feature", "properties": { "URL": "https://www.kaigokensaku.mhlw.go.jp/23/index.php?action_kouhyou_detail_023_kani=true&JigyosyoCd=2393000225-00&ServiceCd=540&Type=search", "名称": "特別養護老人ホーム豊田つつみ園", "内容2": null, "郵便番号": null, "所在地": "〒473-0932愛知県豊田市堤町堤18番地1", "区分": "地域老人福祉施設", "緯度": 35.0523979, "経度": 137.0932512, "サービス提供地域": "－" }, "geometry": { "type": "Point", "coordinates": [ 137.0932512, 35.0523979 ] } },
{ "type": "Feature", "properties": { "URL": "https://www.kaigokensaku.mhlw.go.jp/23/index.php?action_kouhyou_detail_023_kani=true&JigyosyoCd=2393000407-00&ServiceCd=540&Type=search", "名称": "猿投の楽園", "内容2": null, "郵便番号": null, "所在地": "〒470-0364愛知県加納町向井山9番1", "区分": "地域老人福祉施設", "緯度": 35.1587466, "経度": 137.1741071, "サービス提供地域": "－" }, "geometry": { "type": "Point", "coordinates": [ 137.174107099999986, 35.1587466 ] } },
{ "type": "Feature", "properties": { "URL": "https://www.kaigokensaku.mhlw.go.jp/23/index.php?action_kouhyou_detail_023_kani=true&JigyosyoCd=2394600064-00&ServiceCd=540&Type=search", "名称": "社会福祉法人昭徳会　地域密着型サテライト型特別養護老人ホームいこいの宿高浜安立", "内容2": null, "郵便番号": null, "所在地": "〒444-1335芳川町三丁目1番地6", "区分": "地域老人福祉施設", "緯度": 34.9387594, "経度": 136.9812924, "サービス提供地域": "－" }, "geometry": { "type": "Point", "coordinates": [ 136.9812924, 34.9387594 ] } },
{ "type": "Feature", "properties": { "URL": "https://www.kaigokensaku.mhlw.go.jp/23/index.php?action_kouhyou_detail_023_kani=true&JigyosyoCd=2391500457-00&ServiceCd=540&Type=search", "名称": "香流川翔裕園", "内容2": null, "郵便番号": null, "所在地": "〒465-0005愛知県名古屋市名東区香流一丁目101番地", "区分": "地域老人福祉施設", "緯度": 35.1876257, "経度": 136.98759, "サービス提供地域": "－" }, "geometry": { "type": "Point", "coordinates": [ 136.98759, 35.1876257 ] } },
{ "type": "Feature", "properties": { "URL": "https://www.kaigokensaku.mhlw.go.jp/23/index.php?action_kouhyou_detail_023_kani=true&JigyosyoCd=2392500274-00&ServiceCd=540&Type=search", "名称": "ほのぼのホーム篠木", "内容2": null, "郵便番号": null, "所在地": "〒486-0851愛知県春日井市篠木町7丁目４３－２", "区分": "地域老人福祉施設", "緯度": 35.2614338, "経度": 136.9910262, "サービス提供地域": "－" }, "geometry": { "type": "Point", "coordinates": [ 136.9910262, 35.2614338 ] } },
{ "type": "Feature", "properties": { "URL": "https://www.kaigokensaku.mhlw.go.jp/23/index.php?action_kouhyou_detail_023_kani=true&JigyosyoCd=2392600090-00&ServiceCd=540&Type=search", "名称": "地域密着型特別養護老人ホームさながわ", "内容2": null, "郵便番号": null, "所在地": "〒442-0066豊川市金屋元町二丁目50番地1", "区分": "地域老人福祉施設", "緯度": 34.8263056, "経度": 137.3834355, "サービス提供地域": "－" }, "geometry": { "type": "Point", "coordinates": [ 137.3834355, 34.8263056 ] } },
{ "type": "Feature", "properties": { "URL": "https://www.kaigokensaku.mhlw.go.jp/23/index.php?action_kouhyou_detail_023_kani=true&JigyosyoCd=2392600223-00&ServiceCd=540&Type=search", "名称": "特別養護老人ホーム　光楽苑", "内容2": null, "郵便番号": null, "所在地": "〒442-0826愛知県豊川市牛久保町高原101-1", "区分": "地域老人福祉施設", "緯度": 34.8085031, "経度": 137.3851709, "サービス提供地域": "－" }, "geometry": { "type": "Point", "coordinates": [ 137.3851709, 34.8085031 ] } },
{ "type": "Feature", "properties": { "URL": "https://www.kaigokensaku.mhlw.go.jp/23/index.php?action_kouhyou_detail_023_kani=true&JigyosyoCd=2392500852-00&ServiceCd=540&Type=search", "名称": "特別養護老人ホームヒトハスももやま", "内容2": null, "郵便番号": null, "所在地": "〒486-0802愛知県春日井市桃山町二丁目348番地1 ヒトハスももやま", "区分": "地域老人福祉施設", "緯度": 35.2811744, "経度": 136.9715822, "サービス提供地域": "－" }, "geometry": { "type": "Point", "coordinates": [ 136.9715822, 35.2811744 ] } },
{ "type": "Feature", "properties": { "URL": "https://www.kaigokensaku.mhlw.go.jp/23/index.php?action_kouhyou_detail_023_kani=true&JigyosyoCd=2393000324-00&ServiceCd=540&Type=search", "名称": "特別養護老人ホーム豊田わかばやし園", "内容2": null, "郵便番号": null, "所在地": "〒473-0917愛知県豊田市若林西町北山76番地", "区分": "地域老人福祉施設", "緯度": 35.0411453, "経度": 137.1015668, "サービス提供地域": "－" }, "geometry": { "type": "Point", "coordinates": [ 137.1015668, 35.0411453 ] } }
]
}
