{
"type": "FeatureCollection",
"name": "geo_老人福祉施設",
"crs": { "type": "name", "properties": { "name": "urn:ogc:def:crs:OGC:1.3:CRS84" } },
"features": [
{ "type": "Feature", "properties": { "URL": "https://www.kaigokensaku.mhlw.go.jp/23/index.php?action_kouhyou_detail_023_kani=true&JigyosyoCd=2372602645-00&ServiceCd=510&Type=search", "名称": "特別養護老人ホームせんりょう万両", "内容2": null, "郵便番号": null, "所在地": "〒442-0001愛知県豊川市千両町上西谷75番地１", "区分": "老人福祉施設", "緯度": 34.849366, "経度": 137.3655368, "サービス提供地域": "－" }, "geometry": { "type": "Point", "coordinates": [ 137.3655368, 34.849366 ] } },
{ "type": "Feature", "properties": { "URL": "https://www.kaigokensaku.mhlw.go.jp/23/index.php?action_kouhyou_detail_023_kani=true&JigyosyoCd=2375600992-00&ServiceCd=510&Type=search", "名称": "特別養護老人ホームあま恵寿荘", "内容2": null, "郵便番号": null, "所在地": "〒490-1207愛知県あま市二ツ寺西高須賀２番地", "区分": "老人福祉施設", "緯度": 35.2123626, "経度": 136.7923197, "サービス提供地域": "－" }, "geometry": { "type": "Point", "coordinates": [ 136.7923197, 35.2123626 ] } },
{ "type": "Feature", "properties": { "URL": "https://www.kaigokensaku.mhlw.go.jp/23/index.php?action_kouhyou_detail_023_kani=true&JigyosyoCd=2374201131-00&ServiceCd=510&Type=search", "名称": "特別養護老人ホームオーネスト尚武", "内容2": null, "郵便番号": null, "所在地": "〒474-0003愛知県大府市神田町五丁目7番地 特別養護老人ホームオーネスト尚武", "区分": "老人福祉施設", "緯度": 35.0302245, "経度": 136.9849591, "サービス提供地域": "－" }, "geometry": { "type": "Point", "coordinates": [ 136.9849591, 35.0302245 ] } },
{ "type": "Feature", "properties": { "URL": "https://www.kaigokensaku.mhlw.go.jp/23/index.php?action_kouhyou_detail_023_kani=true&JigyosyoCd=2376100182-00&ServiceCd=510&Type=search", "名称": "特別養護老人ホーム小原安立", "内容2": null, "郵便番号": null, "所在地": "〒470-0564愛知県豊田市沢田町座内２２番地", "区分": "老人福祉施設", "緯度": 35.2426977, "経度": 137.2714647, "サービス提供地域": "－" }, "geometry": { "type": "Point", "coordinates": [ 137.2714647, 35.2426977 ] } },
{ "type": "Feature", "properties": { "URL": "https://www.kaigokensaku.mhlw.go.jp/23/index.php?action_kouhyou_detail_023_kani=true&JigyosyoCd=2375600323-00&ServiceCd=510&Type=search", "名称": "特別養護老人ホーム佐織寿敬園", "内容2": null, "郵便番号": null, "所在地": "〒496-8019愛知県愛西市西川端町南須原4-1", "区分": "老人福祉施設", "緯度": 35.21722, "経度": 136.7132918, "サービス提供地域": "－" }, "geometry": { "type": "Point", "coordinates": [ 136.7132918, 35.21722 ] } },
{ "type": "Feature", "properties": { "URL": "https://www.kaigokensaku.mhlw.go.jp/23/index.php?action_kouhyou_detail_023_kani=true&JigyosyoCd=2372700241-00&ServiceCd=510&Type=search", "名称": "特別養護老人ホーム長寿の里・津島", "内容2": null, "郵便番号": null, "所在地": "〒496-0874愛知県津島市江西町一丁目3番1", "区分": "老人福祉施設", "緯度": 35.1786108, "経度": 136.7135183, "サービス提供地域": "－" }, "geometry": { "type": "Point", "coordinates": [ 136.7135183, 35.1786108 ] } },
{ "type": "Feature", "properties": { "URL": "https://www.kaigokensaku.mhlw.go.jp/23/index.php?action_kouhyou_detail_023_kani=true&JigyosyoCd=2372500187-00&ServiceCd=510&Type=search", "名称": "特別養護老人ホーム　グレイスフル春日井", "内容2": null, "郵便番号": null, "所在地": "〒486-0802愛知県春日井市桃山町字北山5079-1", "区分": "老人福祉施設", "緯度": 35.282381, "経度": 136.9671518, "サービス提供地域": "－" }, "geometry": { "type": "Point", "coordinates": [ 136.967151800000011, 35.282381 ] } },
{ "type": "Feature", "properties": { "URL": "https://www.kaigokensaku.mhlw.go.jp/23/index.php?action_kouhyou_detail_023_kani=true&JigyosyoCd=2374101059-00&ServiceCd=510&Type=search", "名称": "特別養護老人ホーム　東海清凉苑", "内容2": null, "郵便番号": null, "所在地": "〒477-0032愛知県東海市加木屋町冬至池4番15", "区分": "老人福祉施設", "緯度": 34.9780307, "経度": 136.9212044, "サービス提供地域": "－" }, "geometry": { "type": "Point", "coordinates": [ 136.9212044, 34.9780307 ] } },
{ "type": "Feature", "properties": { "URL": "https://www.kaigokensaku.mhlw.go.jp/23/index.php?action_kouhyou_detail_023_kani=true&JigyosyoCd=2375000102-00&ServiceCd=510&Type=search", "名称": "愛厚ホーム東郷苑", "内容2": null, "郵便番号": null, "所在地": "〒470-0162愛知県愛知郡東郷町大字春木字下正葉廻間４３３７－１３", "区分": "老人福祉施設", "緯度": 35.0836801, "経度": 137.0432699, "サービス提供地域": "－" }, "geometry": { "type": "Point", "coordinates": [ 137.043269900000013, 35.0836801 ] } },
{ "type": "Feature", "properties": { "URL": "https://www.kaigokensaku.mhlw.go.jp/23/index.php?action_kouhyou_detail_023_kani=true&JigyosyoCd=2373800073-00&ServiceCd=510&Type=search", "名称": "愛厚ホーム小牧苑", "内容2": null, "郵便番号": null, "所在地": "〒485-0801愛知県小牧市大字大山字岩次208-15", "区分": "老人福祉施設", "緯度": 35.34131, "経度": 136.954859, "サービス提供地域": "－" }, "geometry": { "type": "Point", "coordinates": [ 136.954859, 35.34131 ] } },
{ "type": "Feature", "properties": { "URL": "https://www.kaigokensaku.mhlw.go.jp/23/index.php?action_kouhyou_detail_023_kani=true&JigyosyoCd=2371000783-00&ServiceCd=510&Type=search", "名称": "特別養護老人ホーム　高杉共愛の里", "内容2": null, "郵便番号": null, "所在地": "〒454-0936愛知県名古屋市中川区高杉町２６１番地", "区分": "老人福祉施設", "緯度": 35.1263352, "経度": 136.841961, "サービス提供地域": "－" }, "geometry": { "type": "Point", "coordinates": [ 136.841961, 35.1263352 ] } },
{ "type": "Feature", "properties": { "URL": "https://www.kaigokensaku.mhlw.go.jp/23/index.php?action_kouhyou_detail_023_kani=true&JigyosyoCd=2370500122-00&ServiceCd=510&Type=search", "名称": "特別養護老人ホーム永生苑", "内容2": null, "郵便番号": null, "所在地": "〒450-0002愛知県名古屋市中村区名駅２丁目３９番１１号", "区分": "老人福祉施設", "緯度": 35.175338, "経度": 136.8830023, "サービス提供地域": "－" }, "geometry": { "type": "Point", "coordinates": [ 136.883002299999987, 35.175338 ] } },
{ "type": "Feature", "properties": { "URL": "https://www.kaigokensaku.mhlw.go.jp/23/index.php?action_kouhyou_detail_023_kani=true&JigyosyoCd=2375602170-00&ServiceCd=510&Type=search", "名称": "特別養護老人ホーム希望の郷大治", "内容2": null, "郵便番号": null, "所在地": "〒490-1145愛知県海部郡大治町大字中島字中田103 特別養護老人ホーム希望の郷大治", "区分": "老人福祉施設", "緯度": 35.1734088, "経度": 136.81748, "サービス提供地域": "－" }, "geometry": { "type": "Point", "coordinates": [ 136.81748, 35.1734088 ] } },
{ "type": "Feature", "properties": { "URL": "https://www.kaigokensaku.mhlw.go.jp/23/index.php?action_kouhyou_detail_023_kani=true&JigyosyoCd=2372900494-00&ServiceCd=510&Type=search", "名称": "特別養護老人ホームヴェルバレー", "内容2": null, "郵便番号": null, "所在地": "〒448-0001愛知県刈谷市井ヶ谷町石根1番地558 特別養護老人ホーム　ヴェルバレー", "区分": "老人福祉施設", "緯度": 35.0587411, "経度": 137.0602727, "サービス提供地域": "－" }, "geometry": { "type": "Point", "coordinates": [ 137.060272700000013, 35.0587411 ] } },
{ "type": "Feature", "properties": { "URL": "https://www.kaigokensaku.mhlw.go.jp/23/index.php?action_kouhyou_detail_023_kani=true&JigyosyoCd=2372001525-00&ServiceCd=510&Type=search", "名称": "特別養護老人ホーム　第二さわらび荘", "内容2": null, "郵便番号": null, "所在地": "〒441-8124愛知県豊橋市野依町字山中19-17", "区分": "老人福祉施設", "緯度": 34.7008282, "経度": 137.4000884, "サービス提供地域": "－" }, "geometry": { "type": "Point", "coordinates": [ 137.400088399999987, 34.7008282 ] } },
{ "type": "Feature", "properties": { "URL": "https://www.kaigokensaku.mhlw.go.jp/23/index.php?action_kouhyou_detail_023_kani=true&JigyosyoCd=2373600721-00&ServiceCd=510&Type=search", "名称": "特別養護老人ホームふぁみりい恕苑", "内容2": null, "郵便番号": null, "所在地": "〒483-8404愛知県江南市小杁町林125番地", "区分": "老人福祉施設", "緯度": 35.3678688, "経度": 136.8780825, "サービス提供地域": "－" }, "geometry": { "type": "Point", "coordinates": [ 136.8780825, 35.3678688 ] } },
{ "type": "Feature", "properties": { "URL": "https://www.kaigokensaku.mhlw.go.jp/23/index.php?action_kouhyou_detail_023_kani=true&JigyosyoCd=2372501128-00&ServiceCd=510&Type=search", "名称": "介護老人福祉施設　第２グレイスフル春日井", "内容2": null, "郵便番号": null, "所在地": "〒486-0901春日井市牛山町3195-1", "区分": "老人福祉施設", "緯度": 35.2720617, "経度": 136.944429, "サービス提供地域": "－" }, "geometry": { "type": "Point", "coordinates": [ 136.944429, 35.2720617 ] } },
{ "type": "Feature", "properties": { "URL": "https://www.kaigokensaku.mhlw.go.jp/23/index.php?action_kouhyou_detail_023_kani=true&JigyosyoCd=2373102496-00&ServiceCd=510&Type=search", "名称": "特別養護老人ホーム　鎌倉街道東山", "内容2": null, "郵便番号": null, "所在地": "〒446-0001愛知県安城市里町壱斗山249番地", "区分": "老人福祉施設", "緯度": 34.9934175, "経度": 137.1073313, "サービス提供地域": "－" }, "geometry": { "type": "Point", "coordinates": [ 137.1073313, 34.9934175 ] } },
{ "type": "Feature", "properties": { "URL": "https://www.kaigokensaku.mhlw.go.jp/23/index.php?action_kouhyou_detail_023_kani=true&JigyosyoCd=2372000261-00&ServiceCd=510&Type=search", "名称": "特別養護老人ホームさわらび荘", "内容2": null, "郵便番号": null, "所在地": "〒440-0003愛知県豊橋市浪ノ上町７番地の２", "区分": "老人福祉施設", "緯度": 34.7866925, "経度": 137.4222979, "サービス提供地域": "－" }, "geometry": { "type": "Point", "coordinates": [ 137.4222979, 34.7866925 ] } },
{ "type": "Feature", "properties": { "URL": "https://www.kaigokensaku.mhlw.go.jp/23/index.php?action_kouhyou_detail_023_kani=true&JigyosyoCd=2373004320-00&ServiceCd=510&Type=search", "名称": "ユニット型特別養護老人ホーム三九園", "内容2": null, "郵便番号": null, "所在地": "〒471-0848愛知県豊田市本地町９丁目６３番", "区分": "老人福祉施設", "緯度": 35.0711412, "経度": 137.1092521, "サービス提供地域": "－" }, "geometry": { "type": "Point", "coordinates": [ 137.1092521, 35.0711412 ] } },
{ "type": "Feature", "properties": { "URL": "https://www.kaigokensaku.mhlw.go.jp/23/index.php?action_kouhyou_detail_023_kani=true&JigyosyoCd=2370800712-00&ServiceCd=510&Type=search", "名称": "特別養護老人ホーム　メリーホーム大喜", "内容2": null, "郵便番号": null, "所在地": "〒467-0822愛知県名古屋市瑞穂区大喜町一丁目5番5", "区分": "老人福祉施設", "緯度": 35.1253736, "経度": 136.923991, "サービス提供地域": "－" }, "geometry": { "type": "Point", "coordinates": [ 136.923991, 35.1253736 ] } },
{ "type": "Feature", "properties": { "URL": "https://www.kaigokensaku.mhlw.go.jp/23/index.php?action_kouhyou_detail_023_kani=true&JigyosyoCd=2377500323-00&ServiceCd=510&Type=search", "名称": "特別養護老人ホーム　おふくろの家", "内容2": null, "郵便番号": null, "所在地": "〒498-0004又八二丁目１２８番地１", "区分": "老人福祉施設", "緯度": 35.1238705, "経度": 136.7533655, "サービス提供地域": "－" }, "geometry": { "type": "Point", "coordinates": [ 136.7533655, 35.1238705 ] } },
{ "type": "Feature", "properties": { "URL": "https://www.kaigokensaku.mhlw.go.jp/23/index.php?action_kouhyou_detail_023_kani=true&JigyosyoCd=2375700206-00&ServiceCd=510&Type=search", "名称": "特別養護老人ホーム　ビラ・オレンジ", "内容2": null, "郵便番号": null, "所在地": "〒470-3235愛知県知多郡美浜町大字野間字新前田212番地の１", "区分": "老人福祉施設", "緯度": 34.7659706, "経度": 136.8487594, "サービス提供地域": "－" }, "geometry": { "type": "Point", "coordinates": [ 136.8487594, 34.7659706 ] } },
{ "type": "Feature", "properties": { "URL": "https://www.kaigokensaku.mhlw.go.jp/23/index.php?action_kouhyou_detail_023_kani=true&JigyosyoCd=2375701832-00&ServiceCd=510&Type=search", "名称": "特別養護老人ホーム　ビラ・オレンジ（ユニット型）", "内容2": null, "郵便番号": null, "所在地": "〒470-3235愛知県知多郡美浜町大字野間字新前田２１２番地の１", "区分": "老人福祉施設", "緯度": 34.7659706, "経度": 136.8487594, "サービス提供地域": "－" }, "geometry": { "type": "Point", "coordinates": [ 136.8487594, 34.7659706 ] } },
{ "type": "Feature", "properties": { "URL": "https://www.kaigokensaku.mhlw.go.jp/23/index.php?action_kouhyou_detail_023_kani=true&JigyosyoCd=2372000303-00&ServiceCd=510&Type=search", "名称": "特別養護老人ホーム彩幸", "内容2": null, "郵便番号": null, "所在地": "〒441-3213愛知県豊橋市西赤沢町字深山９５番地", "区分": "老人福祉施設", "緯度": 34.6778374, "経度": 137.3621785, "サービス提供地域": "－" }, "geometry": { "type": "Point", "coordinates": [ 137.3621785, 34.6778374 ] } },
{ "type": "Feature", "properties": { "URL": "https://www.kaigokensaku.mhlw.go.jp/23/index.php?action_kouhyou_detail_023_kani=true&JigyosyoCd=2373601307-00&ServiceCd=510&Type=search", "名称": "特別養護老人ホーム第2サンライフ江南", "内容2": null, "郵便番号": null, "所在地": "〒483-8363愛知県江南市河野町五十間73 第2サンライフ江南", "区分": "老人福祉施設", "緯度": 35.3470111, "経度": 136.8402744, "サービス提供地域": "－" }, "geometry": { "type": "Point", "coordinates": [ 136.8402744, 35.3470111 ] } },
{ "type": "Feature", "properties": { "URL": "https://www.kaigokensaku.mhlw.go.jp/23/index.php?action_kouhyou_detail_023_kani=true&JigyosyoCd=2374100150-00&ServiceCd=510&Type=search", "名称": "特別養護老人ホーム東海の里", "内容2": null, "郵便番号": null, "所在地": "〒476-0011東海市富木島町藤ノ棚１番地の１", "区分": "老人福祉施設", "緯度": 35.0140723, "経度": 136.9230407, "サービス提供地域": "－" }, "geometry": { "type": "Point", "coordinates": [ 136.9230407, 35.0140723 ] } },
{ "type": "Feature", "properties": { "URL": "https://www.kaigokensaku.mhlw.go.jp/23/index.php?action_kouhyou_detail_023_kani=true&JigyosyoCd=2372201828-00&ServiceCd=510&Type=search", "名称": "特別養護老人ホーム　たんぽぽ加茂の里", "内容2": null, "郵便番号": null, "所在地": "〒491-0801愛知県一宮市千秋町加茂字海戸２２番地", "区分": "老人福祉施設", "緯度": 35.311459, "経度": 136.8522944, "サービス提供地域": "－" }, "geometry": { "type": "Point", "coordinates": [ 136.8522944, 35.311459 ] } },
{ "type": "Feature", "properties": { "URL": "https://www.kaigokensaku.mhlw.go.jp/23/index.php?action_kouhyou_detail_023_kani=true&JigyosyoCd=2373901764-00&ServiceCd=510&Type=search", "名称": "特別養護老人ホーム信竜", "内容2": null, "郵便番号": null, "所在地": "〒492-8215愛知県稲沢市大塚北九丁目４５番地", "区分": "老人福祉施設", "緯度": 35.2425011, "経度": 136.8013949, "サービス提供地域": "－" }, "geometry": { "type": "Point", "coordinates": [ 136.8013949, 35.2425011 ] } },
{ "type": "Feature", "properties": { "URL": "https://www.kaigokensaku.mhlw.go.jp/23/index.php?action_kouhyou_detail_023_kani=true&JigyosyoCd=2374600035-00&ServiceCd=510&Type=search", "名称": "特別養護老人ホーム高浜安立荘", "内容2": null, "郵便番号": null, "所在地": "〒444-1335愛知県高浜市芳川町1丁目2番地73", "区分": "老人福祉施設", "緯度": 34.9411011, "経度": 136.9817837, "サービス提供地域": "－" }, "geometry": { "type": "Point", "coordinates": [ 136.9817837, 34.9411011 ] } },
{ "type": "Feature", "properties": { "URL": "https://www.kaigokensaku.mhlw.go.jp/23/index.php?action_kouhyou_detail_023_kani=true&JigyosyoCd=2372203386-00&ServiceCd=510&Type=search", "名称": "特別養護老人ホ－ム　たんぽぽ祢々の里", "内容2": null, "郵便番号": null, "所在地": "〒491-0811愛知県一宮市千秋町加納馬場字松下６０番地", "区分": "老人福祉施設", "緯度": 35.3061989, "経度": 136.8707624, "サービス提供地域": "－" }, "geometry": { "type": "Point", "coordinates": [ 136.8707624, 35.3061989 ] } },
{ "type": "Feature", "properties": { "URL": "https://www.kaigokensaku.mhlw.go.jp/23/index.php?action_kouhyou_detail_023_kani=true&JigyosyoCd=2373100532-00&ServiceCd=510&Type=search", "名称": "特別養護老人ホーム小川の里", "内容2": null, "郵便番号": null, "所在地": "〒444-1162愛知県安城市小川町三ツ塚1番地1", "区分": "老人福祉施設", "緯度": 34.9097494, "経度": 137.0781107, "サービス提供地域": "－" }, "geometry": { "type": "Point", "coordinates": [ 137.0781107, 34.9097494 ] } },
{ "type": "Feature", "properties": { "URL": "https://www.kaigokensaku.mhlw.go.jp/23/index.php?action_kouhyou_detail_023_kani=true&JigyosyoCd=2372204921-00&ServiceCd=510&Type=search", "名称": "介護老人福祉施設えもり", "内容2": null, "郵便番号": null, "所在地": "〒491-0114愛知県一宮市浅井町江森字楼光寺１６番地１ 介護老人福祉施設えもり", "区分": "老人福祉施設", "緯度": 35.3366484, "経度": 136.8175604, "サービス提供地域": "－" }, "geometry": { "type": "Point", "coordinates": [ 136.8175604, 35.3366484 ] } },
{ "type": "Feature", "properties": { "URL": "https://www.kaigokensaku.mhlw.go.jp/23/index.php?action_kouhyou_detail_023_kani=true&JigyosyoCd=2372200218-00&ServiceCd=510&Type=search", "名称": "愛厚ホーム一宮苑", "内容2": null, "郵便番号": null, "所在地": "〒491-0934愛知県一宮市大和町苅安賀字狭間70", "区分": "老人福祉施設", "緯度": 35.2883396, "経度": 136.7707289, "サービス提供地域": "－" }, "geometry": { "type": "Point", "coordinates": [ 136.7707289, 35.2883396 ] } },
{ "type": "Feature", "properties": { "URL": "https://www.kaigokensaku.mhlw.go.jp/23/index.php?action_kouhyou_detail_023_kani=true&JigyosyoCd=2373801006-00&ServiceCd=510&Type=search", "名称": "特別養護老人ホーム　オーネスト桃花林", "内容2": null, "郵便番号": null, "所在地": "〒485-0822小牧市大字上末字道場５８０番地１", "区分": "老人福祉施設", "緯度": 35.2953605, "経度": 136.9635092, "サービス提供地域": "－" }, "geometry": { "type": "Point", "coordinates": [ 136.9635092, 35.2953605 ] } },
{ "type": "Feature", "properties": { "URL": "https://www.kaigokensaku.mhlw.go.jp/23/index.php?action_kouhyou_detail_023_kani=true&JigyosyoCd=2373601315-00&ServiceCd=510&Type=search", "名称": "特別養護老人ホーム　ジョイフル布袋", "内容2": null, "郵便番号": null, "所在地": "〒483-8153愛知県江南市北山町東196", "区分": "老人福祉施設", "緯度": 35.3161228, "経度": 136.8806006, "サービス提供地域": "－" }, "geometry": { "type": "Point", "coordinates": [ 136.8806006, 35.3161228 ] } },
{ "type": "Feature", "properties": { "URL": "https://www.kaigokensaku.mhlw.go.jp/23/index.php?action_kouhyou_detail_023_kani=true&JigyosyoCd=2372202495-00&ServiceCd=510&Type=search", "名称": "特別養護老人ホーム　丹陽", "内容2": null, "郵便番号": null, "所在地": "〒491-0824愛知県一宮市丹陽町九日市場字新猫塚85番地", "区分": "老人福祉施設", "緯度": 35.2614651, "経度": 136.8365019, "サービス提供地域": "－" }, "geometry": { "type": "Point", "coordinates": [ 136.8365019, 35.2614651 ] } },
{ "type": "Feature", "properties": { "URL": "https://www.kaigokensaku.mhlw.go.jp/23/index.php?action_kouhyou_detail_023_kani=true&JigyosyoCd=2374800106-00&ServiceCd=510&Type=search", "名称": "特別養護老人ホーム　勅使苑", "内容2": null, "郵便番号": null, "所在地": "〒470-1102愛知県豊明市沓掛町勅使８番地１０５", "区分": "老人福祉施設", "緯度": 35.0818739, "経度": 137.0171732, "サービス提供地域": "－" }, "geometry": { "type": "Point", "coordinates": [ 137.0171732, 35.0818739 ] } },
{ "type": "Feature", "properties": { "URL": "https://www.kaigokensaku.mhlw.go.jp/23/index.php?action_kouhyou_detail_023_kani=true&JigyosyoCd=2373601489-00&ServiceCd=510&Type=search", "名称": "特別養護老人ホームたんぽぽ絆の里", "内容2": null, "郵便番号": null, "所在地": "〒483-8263愛知県江南市島宮町桐野200番地", "区分": "老人福祉施設", "緯度": 35.3270005, "経度": 136.8484316, "サービス提供地域": "－" }, "geometry": { "type": "Point", "coordinates": [ 136.8484316, 35.3270005 ] } },
{ "type": "Feature", "properties": { "URL": "https://www.kaigokensaku.mhlw.go.jp/23/index.php?action_kouhyou_detail_023_kani=true&JigyosyoCd=2372200234-00&ServiceCd=510&Type=search", "名称": "特別養護老人ホームウエルコートみづほ", "内容2": null, "郵便番号": null, "所在地": "〒491-0101一宮市浅井町尾関字同者１６３番地２", "区分": "老人福祉施設", "緯度": 35.3493886, "経度": 136.8318511, "サービス提供地域": "－" }, "geometry": { "type": "Point", "coordinates": [ 136.8318511, 35.3493886 ] } },
{ "type": "Feature", "properties": { "URL": "https://www.kaigokensaku.mhlw.go.jp/23/index.php?action_kouhyou_detail_023_kani=true&JigyosyoCd=2372502746-00&ServiceCd=510&Type=search", "名称": "特別養護老人ホーム春日井樹の里", "内容2": null, "郵便番号": null, "所在地": "〒486-0909愛知県春日井市四ツ家町字四ツ家２２１番地１", "区分": "老人福祉施設", "緯度": 35.2587542, "経度": 136.9435001, "サービス提供地域": "－" }, "geometry": { "type": "Point", "coordinates": [ 136.9435001, 35.2587542 ] } },
{ "type": "Feature", "properties": { "URL": "https://www.kaigokensaku.mhlw.go.jp/23/index.php?action_kouhyou_detail_023_kani=true&JigyosyoCd=2370400075-00&ServiceCd=510&Type=search", "名称": "平田豊生苑", "内容2": null, "郵便番号": null, "所在地": "〒452-0832名古屋市西区平出町８７番地", "区分": "老人福祉施設", "緯度": 35.227791, "経度": 136.8698832, "サービス提供地域": "－" }, "geometry": { "type": "Point", "coordinates": [ 136.8698832, 35.227791 ] } },
{ "type": "Feature", "properties": { "URL": "https://www.kaigokensaku.mhlw.go.jp/23/index.php?action_kouhyou_detail_023_kani=true&JigyosyoCd=2372100319-00&ServiceCd=510&Type=search", "名称": "特別養護老人ホーム　かわいの里", "内容2": null, "郵便番号": null, "所在地": "〒444-3343愛知県岡崎市秦梨町字平畑16番地1", "区分": "老人福祉施設", "緯度": 34.9565354, "経度": 137.2490003, "サービス提供地域": "－" }, "geometry": { "type": "Point", "coordinates": [ 137.2490003, 34.9565354 ] } },
{ "type": "Feature", "properties": { "URL": "https://www.kaigokensaku.mhlw.go.jp/23/index.php?action_kouhyou_detail_023_kani=true&JigyosyoCd=2376000085-00&ServiceCd=510&Type=search", "名称": "特別養護老人ホーム　まどかの郷", "内容2": null, "郵便番号": null, "所在地": "〒444-0128愛知県額田郡幸田町大字野場字石荒２３番地", "区分": "老人福祉施設", "緯度": 34.8637349, "経度": 137.1521307, "サービス提供地域": "－" }, "geometry": { "type": "Point", "coordinates": [ 137.152130699999987, 34.8637349 ] } },
{ "type": "Feature", "properties": { "URL": "https://www.kaigokensaku.mhlw.go.jp/23/index.php?action_kouhyou_detail_023_kani=true&JigyosyoCd=2372205399-00&ServiceCd=510&Type=search", "名称": "特別養護老人ホーム　奥町", "内容2": null, "郵便番号": null, "所在地": "〒491-0201愛知県一宮市奥町字大切前7-4", "区分": "老人福祉施設", "緯度": 35.3283887, "経度": 136.7618537, "サービス提供地域": "－" }, "geometry": { "type": "Point", "coordinates": [ 136.761853699999989, 35.3283887 ] } },
{ "type": "Feature", "properties": { "URL": "https://www.kaigokensaku.mhlw.go.jp/23/index.php?action_kouhyou_detail_023_kani=true&JigyosyoCd=2373400924-00&ServiceCd=510&Type=search", "名称": "特別養護老人ホーム　犬山白寿苑（ユニット）", "内容2": null, "郵便番号": null, "所在地": "〒484-0000愛知県犬山市字洞田３０番地の１", "区分": "老人福祉施設", "緯度": 35.3312628, "経度": 136.9671461, "サービス提供地域": "－" }, "geometry": { "type": "Point", "coordinates": [ 136.9671461, 35.3312628 ] } },
{ "type": "Feature", "properties": { "URL": "https://www.kaigokensaku.mhlw.go.jp/23/index.php?action_kouhyou_detail_023_kani=true&JigyosyoCd=2373003900-00&ServiceCd=510&Type=search", "名称": "特別養護老人ホームアメニティ豊田駅前", "内容2": null, "郵便番号": null, "所在地": "〒471-0027豊田市喜多町２丁目１７０", "区分": "老人福祉施設", "緯度": 35.0870883, "経度": 137.1573845, "サービス提供地域": "－" }, "geometry": { "type": "Point", "coordinates": [ 137.1573845, 35.0870883 ] } },
{ "type": "Feature", "properties": { "URL": "https://www.kaigokensaku.mhlw.go.jp/23/index.php?action_kouhyou_detail_023_kani=true&JigyosyoCd=2377300294-00&ServiceCd=510&Type=search", "名称": "特別養護老人ホーム平安の里", "内容2": null, "郵便番号": null, "所在地": "〒452-0962愛知県清須市春日新町９５番地", "区分": "老人福祉施設", "緯度": 35.2265233, "経度": 136.8516198, "サービス提供地域": "－" }, "geometry": { "type": "Point", "coordinates": [ 136.8516198, 35.2265233 ] } },
{ "type": "Feature", "properties": { "URL": "https://www.kaigokensaku.mhlw.go.jp/23/index.php?action_kouhyou_detail_023_kani=true&JigyosyoCd=2372401592-00&ServiceCd=510&Type=search", "名称": "特別養護老人ホーム瑞光の里 緑ヶ丘", "内容2": null, "郵便番号": null, "所在地": "〒475-0002愛知県半田市緑ヶ丘二丁目35番1", "区分": "老人福祉施設", "緯度": 34.9317879, "経度": 136.9529077, "サービス提供地域": "－" }, "geometry": { "type": "Point", "coordinates": [ 136.9529077, 34.9317879 ] } },
{ "type": "Feature", "properties": { "URL": "https://www.kaigokensaku.mhlw.go.jp/23/index.php?action_kouhyou_detail_023_kani=true&JigyosyoCd=2375500085-00&ServiceCd=510&Type=search", "名称": "特別養護老人ホーム祖父江グリーンハウス", "内容2": null, "郵便番号": null, "所在地": "〒495-0001愛知県稲沢市祖父江町祖父江中沼15番地", "区分": "老人福祉施設", "緯度": 35.2694402, "経度": 136.7073893, "サービス提供地域": "－" }, "geometry": { "type": "Point", "coordinates": [ 136.707389299999988, 35.2694402 ] } },
{ "type": "Feature", "properties": { "URL": "https://www.kaigokensaku.mhlw.go.jp/23/index.php?action_kouhyou_detail_023_kani=true&JigyosyoCd=2376100356-00&ServiceCd=510&Type=search", "名称": "特別養護老人ホームみよしの里", "内容2": null, "郵便番号": null, "所在地": "〒470-0224愛知県みよし市三好町八和田山１８番地", "区分": "老人福祉施設", "緯度": 35.0776956, "経度": 137.076968, "サービス提供地域": "－" }, "geometry": { "type": "Point", "coordinates": [ 137.076968, 35.0776956 ] } },
{ "type": "Feature", "properties": { "URL": "https://www.kaigokensaku.mhlw.go.jp/23/index.php?action_kouhyou_detail_023_kani=true&JigyosyoCd=2373400080-00&ServiceCd=510&Type=search", "名称": "特別養護老人ホーム　ぬく森", "内容2": null, "郵便番号": null, "所在地": "〒484-0061愛知県犬山市大字前原字橋爪山１５番地１２１", "区分": "老人福祉施設", "緯度": 35.3695808, "経度": 136.982888, "サービス提供地域": "－" }, "geometry": { "type": "Point", "coordinates": [ 136.982888, 35.3695808 ] } },
{ "type": "Feature", "properties": { "URL": "https://www.kaigokensaku.mhlw.go.jp/23/index.php?action_kouhyou_detail_023_kani=true&JigyosyoCd=2373400809-00&ServiceCd=510&Type=search", "名称": "ユニット型　特別養護老人ホーム　ぬく森", "内容2": null, "郵便番号": null, "所在地": "〒484-0061愛知県犬山市大字前原字橋爪山１５番地１２１", "区分": "老人福祉施設", "緯度": 35.3695808, "経度": 136.982888, "サービス提供地域": "－" }, "geometry": { "type": "Point", "coordinates": [ 136.982888, 35.3695808 ] } },
{ "type": "Feature", "properties": { "URL": "https://www.kaigokensaku.mhlw.go.jp/23/index.php?action_kouhyou_detail_023_kani=true&JigyosyoCd=2377300070-00&ServiceCd=510&Type=search", "名称": "特別養護老人ホーム　清洲の里", "内容2": null, "郵便番号": null, "所在地": "〒452-0946愛知県清須市廻間堂畑１番地", "区分": "老人福祉施設", "緯度": 35.2166288, "経度": 136.8295219, "サービス提供地域": "－" }, "geometry": { "type": "Point", "coordinates": [ 136.8295219, 35.2166288 ] } },
{ "type": "Feature", "properties": { "URL": "https://www.kaigokensaku.mhlw.go.jp/23/index.php?action_kouhyou_detail_023_kani=true&JigyosyoCd=2376200206-00&ServiceCd=510&Type=search", "名称": "特別養護老人ホーム巴の里", "内容2": null, "郵便番号": null, "所在地": "〒444-2351愛知県豊田市岩神町仲田38番地5", "区分": "老人福祉施設", "緯度": 35.1304498, "経度": 137.3062557, "サービス提供地域": "－" }, "geometry": { "type": "Point", "coordinates": [ 137.3062557, 35.1304498 ] } },
{ "type": "Feature", "properties": { "URL": "https://www.kaigokensaku.mhlw.go.jp/23/index.php?action_kouhyou_detail_023_kani=true&JigyosyoCd=2372900056-00&ServiceCd=510&Type=search", "名称": "特別養護老人ホーム洲原ほーむ", "内容2": null, "郵便番号": null, "所在地": "〒448-0001愛知県刈谷市井ヶ谷町西石根1番地10", "区分": "老人福祉施設", "緯度": 35.0581752, "経度": 137.0591719, "サービス提供地域": "－" }, "geometry": { "type": "Point", "coordinates": [ 137.0591719, 35.0581752 ] } },
{ "type": "Feature", "properties": { "URL": "https://www.kaigokensaku.mhlw.go.jp/23/index.php?action_kouhyou_detail_023_kani=true&JigyosyoCd=2373900915-00&ServiceCd=510&Type=search", "名称": "特別養護老人ホーム　すずの郷", "内容2": null, "郵便番号": null, "所在地": "〒492-8267愛知県稲沢市船橋町江向193番地１", "区分": "老人福祉施設", "緯度": 35.248268, "経度": 136.7730553, "サービス提供地域": "－" }, "geometry": { "type": "Point", "coordinates": [ 136.77305530000001, 35.248268 ] } },
{ "type": "Feature", "properties": { "URL": "https://www.kaigokensaku.mhlw.go.jp/23/index.php?action_kouhyou_detail_023_kani=true&JigyosyoCd=2375300122-00&ServiceCd=510&Type=search", "名称": "特別養護老人ホーム　扶桑苑", "内容2": null, "郵便番号": null, "所在地": "〒480-0101愛知県丹羽郡扶桑町大字山那字番所下８３－５", "区分": "老人福祉施設", "緯度": 35.3736558, "経度": 136.9179857, "サービス提供地域": "－" }, "geometry": { "type": "Point", "coordinates": [ 136.9179857, 35.3736558 ] } },
{ "type": "Feature", "properties": { "URL": "https://www.kaigokensaku.mhlw.go.jp/23/index.php?action_kouhyou_detail_023_kani=true&JigyosyoCd=2375200124-00&ServiceCd=510&Type=search", "名称": "特別養護老人ホームあいせの里", "内容2": null, "郵便番号": null, "所在地": "〒481-0001愛知県北名古屋市六ツ師大島１５０番地", "区分": "老人福祉施設", "緯度": 35.2521862, "経度": 136.9010936, "サービス提供地域": "－" }, "geometry": { "type": "Point", "coordinates": [ 136.9010936, 35.2521862 ] } },
{ "type": "Feature", "properties": { "URL": "https://www.kaigokensaku.mhlw.go.jp/23/index.php?action_kouhyou_detail_023_kani=true&JigyosyoCd=2376600090-00&ServiceCd=510&Type=search", "名称": "特別養護老人ホーム田原福寿園（本館）", "内容2": null, "郵便番号": null, "所在地": "〒441-3413愛知県田原市六連町神ノ釜9番地3", "区分": "老人福祉施設", "緯度": 34.6556772, "経度": 137.2962846, "サービス提供地域": "－" }, "geometry": { "type": "Point", "coordinates": [ 137.2962846, 34.6556772 ] } },
{ "type": "Feature", "properties": { "URL": "https://www.kaigokensaku.mhlw.go.jp/23/index.php?action_kouhyou_detail_023_kani=true&JigyosyoCd=2373100086-00&ServiceCd=510&Type=search", "名称": "特別養護老人ホーム　安寿の郷ホーム", "内容2": null, "郵便番号": null, "所在地": "〒446-0014愛知県安城市別郷町油石105", "区分": "老人福祉施設", "緯度": 34.961279, "経度": 137.1119713, "サービス提供地域": "－" }, "geometry": { "type": "Point", "coordinates": [ 137.1119713, 34.961279 ] } },
{ "type": "Feature", "properties": { "URL": "https://www.kaigokensaku.mhlw.go.jp/23/index.php?action_kouhyou_detail_023_kani=true&JigyosyoCd=2374200489-00&ServiceCd=510&Type=search", "名称": "特別養護老人ホームデイパーク大府", "内容2": null, "郵便番号": null, "所在地": "〒474-0011愛知県大府市横根町箕手８７番地１", "区分": "老人福祉施設", "緯度": 35.0320862, "経度": 136.9765422, "サービス提供地域": "－" }, "geometry": { "type": "Point", "coordinates": [ 136.976542200000011, 35.0320862 ] } },
{ "type": "Feature", "properties": { "URL": "https://www.kaigokensaku.mhlw.go.jp/23/index.php?action_kouhyou_detail_023_kani=true&JigyosyoCd=2375200132-00&ServiceCd=510&Type=search", "名称": "特別養護老人ホーム五条の里", "内容2": null, "郵便番号": null, "所在地": "〒481-0037北名古屋市鍜治ヶ一色鍜治前10番地", "区分": "老人福祉施設", "緯度": 35.2594742, "経度": 136.8598363, "サービス提供地域": "－" }, "geometry": { "type": "Point", "coordinates": [ 136.859836300000012, 35.2594742 ] } },
{ "type": "Feature", "properties": { "URL": "https://www.kaigokensaku.mhlw.go.jp/23/index.php?action_kouhyou_detail_023_kani=true&JigyosyoCd=2374000053-00&ServiceCd=510&Type=search", "名称": "特別養護老人ホーム麗楽荘", "内容2": null, "郵便番号": null, "所在地": "〒441-1301新城市矢部字上ノ川1番地4", "区分": "老人福祉施設", "緯度": 34.917, "経度": 137.5081739, "サービス提供地域": "－" }, "geometry": { "type": "Point", "coordinates": [ 137.5081739, 34.917 ] } },
{ "type": "Feature", "properties": { "URL": "https://www.kaigokensaku.mhlw.go.jp/23/index.php?action_kouhyou_detail_023_kani=true&JigyosyoCd=2370302842-00&ServiceCd=510&Type=search", "名称": "特別養護老人ホーム　レスペート落合", "内容2": null, "郵便番号": null, "所在地": "〒462-0017愛知県名古屋市北区落合町２８８番地", "区分": "老人福祉施設", "緯度": 35.22546, "経度": 136.9065574, "サービス提供地域": "－" }, "geometry": { "type": "Point", "coordinates": [ 136.9065574, 35.22546 ] } },
{ "type": "Feature", "properties": { "URL": "https://www.kaigokensaku.mhlw.go.jp/23/index.php?action_kouhyou_detail_023_kani=true&JigyosyoCd=2371200839-00&ServiceCd=510&Type=search", "名称": "特別養護老人ホーム南生苑", "内容2": null, "郵便番号": null, "所在地": "〒457-0835名古屋市南区西又兵ヱ町4丁目8番2", "区分": "老人福祉施設", "緯度": 35.0928321, "経度": 136.9151284, "サービス提供地域": "－" }, "geometry": { "type": "Point", "coordinates": [ 136.915128399999986, 35.0928321 ] } },
{ "type": "Feature", "properties": { "URL": "https://www.kaigokensaku.mhlw.go.jp/23/index.php?action_kouhyou_detail_023_kani=true&JigyosyoCd=2372300091-00&ServiceCd=510&Type=search", "名称": "特別養護老人ホーム　ウィローふたば", "内容2": null, "郵便番号": null, "所在地": "〒489-0987愛知県瀬戸市西山町１丁目４６番地の１８", "区分": "老人福祉施設", "緯度": 35.2207249, "経度": 137.05834, "サービス提供地域": "－" }, "geometry": { "type": "Point", "coordinates": [ 137.05834, 35.2207249 ] } },
{ "type": "Feature", "properties": { "URL": "https://www.kaigokensaku.mhlw.go.jp/23/index.php?action_kouhyou_detail_023_kani=true&JigyosyoCd=2370400091-00&ServiceCd=510&Type=search", "名称": "特別養護老人ホーム　庄内の里", "内容2": null, "郵便番号": null, "所在地": "〒452-0822愛知県名古屋市西区中小田井２－９８ 特別養護老人ホーム　庄内の里", "区分": "老人福祉施設", "緯度": 35.2106459, "経度": 136.8726601, "サービス提供地域": "－" }, "geometry": { "type": "Point", "coordinates": [ 136.8726601, 35.2106459 ] } },
{ "type": "Feature", "properties": { "URL": "https://www.kaigokensaku.mhlw.go.jp/23/index.php?action_kouhyou_detail_023_kani=true&JigyosyoCd=2377400839-00&ServiceCd=510&Type=search", "名称": "特別養護老人ホームかもだの里（従来型）", "内容2": null, "郵便番号": null, "所在地": "〒481-0041愛知県北名古屋市九之坪笹塚109番地", "区分": "老人福祉施設", "緯度": 35.237448, "経度": 136.8769438, "サービス提供地域": "－" }, "geometry": { "type": "Point", "coordinates": [ 136.8769438, 35.237448 ] } },
{ "type": "Feature", "properties": { "URL": "https://www.kaigokensaku.mhlw.go.jp/23/index.php?action_kouhyou_detail_023_kani=true&JigyosyoCd=2373800081-00&ServiceCd=510&Type=search", "名称": "特別養護老人ホームゆうあい", "内容2": null, "郵便番号": null, "所在地": "〒485-0056愛知県小牧市小木南二丁目８８番", "区分": "老人福祉施設", "緯度": 35.2692382, "経度": 136.8952997, "サービス提供地域": "－" }, "geometry": { "type": "Point", "coordinates": [ 136.89529970000001, 35.2692382 ] } },
{ "type": "Feature", "properties": { "URL": "https://www.kaigokensaku.mhlw.go.jp/23/index.php?action_kouhyou_detail_023_kani=true&JigyosyoCd=2372202875-00&ServiceCd=510&Type=search", "名称": "特別養護老人ホームアルメゾンみづほ", "内容2": null, "郵便番号": null, "所在地": "〒494-0003愛知県一宮市三条字野間２６番地１", "区分": "老人福祉施設", "緯度": 35.3137329, "経度": 136.7544098, "サービス提供地域": "－" }, "geometry": { "type": "Point", "coordinates": [ 136.7544098, 35.3137329 ] } },
{ "type": "Feature", "properties": { "URL": "https://www.kaigokensaku.mhlw.go.jp/23/index.php?action_kouhyou_detail_023_kani=true&JigyosyoCd=2373800677-00&ServiceCd=510&Type=search", "名称": "特別養護老人ホーム岩崎あいの郷", "内容2": null, "郵便番号": null, "所在地": "〒485-0017愛知県小牧市岩崎原三丁目２９２番地", "区分": "老人福祉施設", "緯度": 35.3127486, "経度": 136.9255082, "サービス提供地域": "－" }, "geometry": { "type": "Point", "coordinates": [ 136.9255082, 35.3127486 ] } },
{ "type": "Feature", "properties": { "URL": "https://www.kaigokensaku.mhlw.go.jp/23/index.php?action_kouhyou_detail_023_kani=true&JigyosyoCd=2371102381-00&ServiceCd=510&Type=search", "名称": "特別養護老人ホーム東茶屋御苑", "内容2": null, "郵便番号": null, "所在地": "〒455-0851名古屋市港区東茶屋二丁目401番地の1", "区分": "老人福祉施設", "緯度": 35.1057923, "経度": 136.8272696, "サービス提供地域": "－" }, "geometry": { "type": "Point", "coordinates": [ 136.8272696, 35.1057923 ] } },
{ "type": "Feature", "properties": { "URL": "https://www.kaigokensaku.mhlw.go.jp/23/index.php?action_kouhyou_detail_023_kani=true&JigyosyoCd=2372700076-00&ServiceCd=510&Type=search", "名称": "特別養護老人ホーム恵寿荘", "内容2": null, "郵便番号": null, "所在地": "〒496-0026愛知県津島市唐臼町半池７２番地６", "区分": "老人福祉施設", "緯度": 35.1556979, "経度": 136.7492849, "サービス提供地域": "－" }, "geometry": { "type": "Point", "coordinates": [ 136.7492849, 35.1556979 ] } },
{ "type": "Feature", "properties": { "URL": "https://www.kaigokensaku.mhlw.go.jp/23/index.php?action_kouhyou_detail_023_kani=true&JigyosyoCd=2370303311-00&ServiceCd=510&Type=search", "名称": "特別養護老人ホーム　オーネスト名城", "内容2": null, "郵便番号": null, "所在地": "〒462-0846名古屋市北区名城三丁目2番12号", "区分": "老人福祉施設", "緯度": 35.1895019, "経度": 136.9045752, "サービス提供地域": "－" }, "geometry": { "type": "Point", "coordinates": [ 136.904575200000011, 35.1895019 ] } },
{ "type": "Feature", "properties": { "URL": "https://www.kaigokensaku.mhlw.go.jp/23/index.php?action_kouhyou_detail_023_kani=true&JigyosyoCd=2371003084-00&ServiceCd=510&Type=search", "名称": "特別養護老人ホームオーネスト千の音", "内容2": null, "郵便番号": null, "所在地": "〒454-0971名古屋市中川区冨田町大字千音寺字下川西８３３番地 オーネスト千の音", "区分": "老人福祉施設", "緯度": 34.8301986, "経度": 135.4173955, "サービス提供地域": "－" }, "geometry": { "type": "Point", "coordinates": [ 135.4173955, 34.8301986 ] } },
{ "type": "Feature", "properties": { "URL": "https://www.kaigokensaku.mhlw.go.jp/23/index.php?action_kouhyou_detail_023_kani=true&JigyosyoCd=2371000957-00&ServiceCd=510&Type=search", "名称": "特別養護老人ホーム　オーネスト戸田川", "内容2": null, "郵便番号": null, "所在地": "〒454-0964愛知県名古屋市中川区富永四丁目266番地", "区分": "老人福祉施設", "緯度": 35.1212436, "経度": 136.8052618, "サービス提供地域": "－" }, "geometry": { "type": "Point", "coordinates": [ 136.805261800000011, 35.1212436 ] } },
{ "type": "Feature", "properties": { "URL": "https://www.kaigokensaku.mhlw.go.jp/23/index.php?action_kouhyou_detail_023_kani=true&JigyosyoCd=2370901593-00&ServiceCd=510&Type=search", "名称": "ひびのファミリア", "内容2": null, "郵便番号": null, "所在地": "〒456-0074愛知県名古屋市熱田区比々野町27番地", "区分": "老人福祉施設", "緯度": 35.1341821, "経度": 136.8913047, "サービス提供地域": "－" }, "geometry": { "type": "Point", "coordinates": [ 136.8913047, 35.1341821 ] } },
{ "type": "Feature", "properties": { "URL": "https://www.kaigokensaku.mhlw.go.jp/23/index.php?action_kouhyou_detail_023_kani=true&JigyosyoCd=2370503688-00&ServiceCd=510&Type=search", "名称": "介護老人福祉施設　ジョイフル名駅", "内容2": null, "郵便番号": null, "所在地": "〒450-0002愛知県名古屋市中村区名駅五丁目25番12号", "区分": "老人福祉施設", "緯度": 35.1685233, "経度": 136.8915837, "サービス提供地域": "－" }, "geometry": { "type": "Point", "coordinates": [ 136.891583700000012, 35.1685233 ] } },
{ "type": "Feature", "properties": { "URL": "https://www.kaigokensaku.mhlw.go.jp/23/index.php?action_kouhyou_detail_023_kani=true&JigyosyoCd=2372600193-00&ServiceCd=510&Type=search", "名称": "愛厚ホーム豊川苑", "内容2": null, "郵便番号": null, "所在地": "〒442-0863愛知県豊川市平尾町諏訪下73-1", "区分": "老人福祉施設", "緯度": 34.8568036, "経度": 137.3529296, "サービス提供地域": "－" }, "geometry": { "type": "Point", "coordinates": [ 137.35292960000001, 34.8568036 ] } },
{ "type": "Feature", "properties": { "URL": "https://www.kaigokensaku.mhlw.go.jp/23/index.php?action_kouhyou_detail_023_kani=true&JigyosyoCd=2370801694-00&ServiceCd=510&Type=search", "名称": "特別養護老人ホーム シルバーピアみずほ", "内容2": null, "郵便番号": null, "所在地": "〒467-0852名古屋市瑞穂区明前町15-17", "区分": "老人福祉施設", "緯度": 35.1099338, "経度": 136.9223583, "サービス提供地域": "－" }, "geometry": { "type": "Point", "coordinates": [ 136.922358300000013, 35.1099338 ] } },
{ "type": "Feature", "properties": { "URL": "https://www.kaigokensaku.mhlw.go.jp/23/index.php?action_kouhyou_detail_023_kani=true&JigyosyoCd=2370800068-00&ServiceCd=510&Type=search", "名称": "特別養護老人ホーム　なごやかハウス岳見", "内容2": null, "郵便番号": null, "所在地": "〒467-0043名古屋市瑞穂区岳見町3丁目4番地の1", "区分": "老人福祉施設", "緯度": 35.1264327, "経度": 136.9533217, "サービス提供地域": "－" }, "geometry": { "type": "Point", "coordinates": [ 136.9533217, 35.1264327 ] } },
{ "type": "Feature", "properties": { "URL": "https://www.kaigokensaku.mhlw.go.jp/23/index.php?action_kouhyou_detail_023_kani=true&JigyosyoCd=2377400821-00&ServiceCd=510&Type=search", "名称": "特別養護老人ホームかもだの里（ユニット型）", "内容2": null, "郵便番号": null, "所在地": "〒481-0041愛知県北名古屋市九之坪笹塚１０９番地", "区分": "老人福祉施設", "緯度": 35.237448, "経度": 136.8769438, "サービス提供地域": "－" }, "geometry": { "type": "Point", "coordinates": [ 136.8769438, 35.237448 ] } },
{ "type": "Feature", "properties": { "URL": "https://www.kaigokensaku.mhlw.go.jp/23/index.php?action_kouhyou_detail_023_kani=true&JigyosyoCd=2370503076-00&ServiceCd=510&Type=search", "名称": "特別養護老人ホームアメニティ城西", "内容2": null, "郵便番号": null, "所在地": "〒453-0853愛知県名古屋市中村区牛田通１丁目１番５", "区分": "老人福祉施設", "緯度": 35.1592041, "経度": 136.8651676, "サービス提供地域": "－" }, "geometry": { "type": "Point", "coordinates": [ 136.8651676, 35.1592041 ] } },
{ "type": "Feature", "properties": { "URL": "https://www.kaigokensaku.mhlw.go.jp/23/index.php?action_kouhyou_detail_023_kani=true&JigyosyoCd=2372205217-00&ServiceCd=510&Type=search", "名称": "特別養護老人ホームコムネックスみづほ", "内容2": null, "郵便番号": null, "所在地": "〒493-0005愛知県一宮市木曽川町里小牧字寺東200番地", "区分": "老人福祉施設", "緯度": 35.3522243, "経度": 136.7690109, "サービス提供地域": "－" }, "geometry": { "type": "Point", "coordinates": [ 136.769010900000012, 35.3522243 ] } },
{ "type": "Feature", "properties": { "URL": "https://www.kaigokensaku.mhlw.go.jp/23/index.php?action_kouhyou_detail_023_kani=true&JigyosyoCd=2373601323-00&ServiceCd=510&Type=search", "名称": "特別養護老人ホームジョイフル江南", "内容2": null, "郵便番号": null, "所在地": "〒483-8363愛知県江南市河野町五十間５９番地", "区分": "老人福祉施設", "緯度": 35.3462078, "経度": 136.8392251, "サービス提供地域": "－" }, "geometry": { "type": "Point", "coordinates": [ 136.8392251, 35.3462078 ] } },
{ "type": "Feature", "properties": { "URL": "https://www.kaigokensaku.mhlw.go.jp/23/index.php?action_kouhyou_detail_023_kani=true&JigyosyoCd=2373601331-00&ServiceCd=510&Type=search", "名称": "特別養護老人ホーム第２ジョイフル江南", "内容2": null, "郵便番号": null, "所在地": "〒483-8363江南市河野町五十間51番地", "区分": "老人福祉施設", "緯度": 35.3465232, "経度": 136.8394324, "サービス提供地域": "－" }, "geometry": { "type": "Point", "coordinates": [ 136.8394324, 35.3465232 ] } },
{ "type": "Feature", "properties": { "URL": "https://www.kaigokensaku.mhlw.go.jp/23/index.php?action_kouhyou_detail_023_kani=true&JigyosyoCd=2370802114-00&ServiceCd=510&Type=search", "名称": "特別養護老人ホーム　オーネスト神穂", "内容2": null, "郵便番号": null, "所在地": "〒467-0847愛知県名古屋市瑞穂区神穂町5番10号", "区分": "老人福祉施設", "緯度": 35.1140532, "経度": 136.9243095, "サービス提供地域": "－" }, "geometry": { "type": "Point", "coordinates": [ 136.9243095, 35.1140532 ] } },
{ "type": "Feature", "properties": { "URL": "https://www.kaigokensaku.mhlw.go.jp/23/index.php?action_kouhyou_detail_023_kani=true&JigyosyoCd=2371400173-00&ServiceCd=510&Type=search", "名称": "特別養護老人ホーム　オーネスト鳴海", "内容2": null, "郵便番号": null, "所在地": "〒458-0801名古屋市緑区鳴海町下汐田77番地の3", "区分": "老人福祉施設", "緯度": 35.0727298, "経度": 136.9401041, "サービス提供地域": "－" }, "geometry": { "type": "Point", "coordinates": [ 136.940104100000013, 35.0727298 ] } },
{ "type": "Feature", "properties": { "URL": "https://www.kaigokensaku.mhlw.go.jp/23/index.php?action_kouhyou_detail_023_kani=true&JigyosyoCd=2370403335-00&ServiceCd=510&Type=search", "名称": "特別養護老人ホーム　比良清里苑", "内容2": null, "郵便番号": null, "所在地": "〒452-0802愛知県名古屋市西区比良3丁目121番地の2", "区分": "老人福祉施設", "緯度": 35.2294261, "経度": 136.8980931, "サービス提供地域": "－" }, "geometry": { "type": "Point", "coordinates": [ 136.898093100000011, 35.2294261 ] } },
{ "type": "Feature", "properties": { "URL": "https://www.kaigokensaku.mhlw.go.jp/23/index.php?action_kouhyou_detail_023_kani=true&JigyosyoCd=2372100301-00&ServiceCd=510&Type=search", "名称": "愛厚ホーム岡崎苑", "内容2": null, "郵便番号": null, "所在地": "〒444-3524愛知県岡崎市竜泉寺町字松本３４－６", "区分": "老人福祉施設", "緯度": 34.9011057, "経度": 137.2028772, "サービス提供地域": "－" }, "geometry": { "type": "Point", "coordinates": [ 137.202877199999989, 34.9011057 ] } },
{ "type": "Feature", "properties": { "URL": "https://www.kaigokensaku.mhlw.go.jp/23/index.php?action_kouhyou_detail_023_kani=true&JigyosyoCd=2372104386-00&ServiceCd=510&Type=search", "名称": "愛厚ホーム岡崎苑", "内容2": null, "郵便番号": null, "所在地": "〒444-3524岡崎市竜泉寺町字松本３４番地６", "区分": "老人福祉施設", "緯度": 34.9011057, "経度": 137.2028772, "サービス提供地域": "－" }, "geometry": { "type": "Point", "coordinates": [ 137.202877199999989, 34.9011057 ] } },
{ "type": "Feature", "properties": { "URL": "https://www.kaigokensaku.mhlw.go.jp/23/index.php?action_kouhyou_detail_023_kani=true&JigyosyoCd=2371300134-00&ServiceCd=510&Type=search", "名称": "特別養護老人ホーム　ユートピア第２つくも", "内容2": null, "郵便番号": null, "所在地": "〒463-0807愛知県名古屋市守山区鼓が丘一丁目１１５番地", "区分": "老人福祉施設", "緯度": 35.2290596, "経度": 137.0099297, "サービス提供地域": "－" }, "geometry": { "type": "Point", "coordinates": [ 137.009929699999986, 35.2290596 ] } },
{ "type": "Feature", "properties": { "URL": "https://www.kaigokensaku.mhlw.go.jp/23/index.php?action_kouhyou_detail_023_kani=true&JigyosyoCd=2371302858-00&ServiceCd=510&Type=search", "名称": "特別養護老人ホーム　ユートピア第２つくもユニット", "内容2": null, "郵便番号": null, "所在地": "〒463-0807愛知県名古屋市守山区鼓が丘一丁目１１５番地", "区分": "老人福祉施設", "緯度": 35.2290596, "経度": 137.0099297, "サービス提供地域": "－" }, "geometry": { "type": "Point", "coordinates": [ 137.009929699999986, 35.2290596 ] } },
{ "type": "Feature", "properties": { "URL": "https://www.kaigokensaku.mhlw.go.jp/23/index.php?action_kouhyou_detail_023_kani=true&JigyosyoCd=2371201001-00&ServiceCd=510&Type=search", "名称": "特別養護老人ホームはるかぜ", "内容2": null, "郵便番号": null, "所在地": "〒457-0802名古屋市南区要町４丁目１３番地", "区分": "老人福祉施設", "緯度": 35.0758171, "経度": 136.9239465, "サービス提供地域": "－" }, "geometry": { "type": "Point", "coordinates": [ 136.9239465, 35.0758171 ] } },
{ "type": "Feature", "properties": { "URL": "https://www.kaigokensaku.mhlw.go.jp/23/index.php?action_kouhyou_detail_023_kani=true&JigyosyoCd=2371201985-00&ServiceCd=510&Type=search", "名称": "特別養護老人ホームケアマキス柴田", "内容2": null, "郵便番号": null, "所在地": "〒457-0814柴田本通四丁目15番地", "区分": "老人福祉施設", "緯度": 35.0724012, "経度": 136.9107586, "サービス提供地域": "－" }, "geometry": { "type": "Point", "coordinates": [ 136.9107586, 35.0724012 ] } },
{ "type": "Feature", "properties": { "URL": "https://www.kaigokensaku.mhlw.go.jp/23/index.php?action_kouhyou_detail_023_kani=true&JigyosyoCd=2375700578-00&ServiceCd=510&Type=search", "名称": "特別養護老人ホーム阿久比一期一会荘", "内容2": null, "郵便番号": null, "所在地": "〒470-2212愛知県知多郡阿久比町大字卯坂字桜ヶ丘１９５番地", "区分": "老人福祉施設", "緯度": 34.9335346, "経度": 136.9096577, "サービス提供地域": "－" }, "geometry": { "type": "Point", "coordinates": [ 136.9096577, 34.9335346 ] } },
{ "type": "Feature", "properties": { "URL": "https://www.kaigokensaku.mhlw.go.jp/23/index.php?action_kouhyou_detail_023_kani=true&JigyosyoCd=2370301745-00&ServiceCd=510&Type=search", "名称": "特別養護老人ホーム鳩の丘", "内容2": null, "郵便番号": null, "所在地": "〒462-0025名古屋市北区鳩岡町１丁目７番地２０", "区分": "老人福祉施設", "緯度": 35.2071601, "経度": 136.9130708, "サービス提供地域": "－" }, "geometry": { "type": "Point", "coordinates": [ 136.913070800000014, 35.2071601 ] } },
{ "type": "Feature", "properties": { "URL": "https://www.kaigokensaku.mhlw.go.jp/23/index.php?action_kouhyou_detail_023_kani=true&JigyosyoCd=2375900061-00&ServiceCd=510&Type=search", "名称": "特別養護老人ホームしはとの郷", "内容2": null, "郵便番号": null, "所在地": "〒444-0704愛知県西尾市鳥羽町迎49番地2", "区分": "老人福祉施設", "緯度": 34.7963301, "経度": 137.0977473, "サービス提供地域": "－" }, "geometry": { "type": "Point", "coordinates": [ 137.0977473, 34.7963301 ] } },
{ "type": "Feature", "properties": { "URL": "https://www.kaigokensaku.mhlw.go.jp/23/index.php?action_kouhyou_detail_023_kani=true&JigyosyoCd=2371601952-00&ServiceCd=510&Type=search", "名称": "特別養護老人ホーム　アメニティ天白", "内容2": null, "郵便番号": null, "所在地": "〒468-0026愛知県名古屋市天白区土原二丁目122番地", "区分": "老人福祉施設", "緯度": 35.1178557, "経度": 136.9829325, "サービス提供地域": "－" }, "geometry": { "type": "Point", "coordinates": [ 136.9829325, 35.1178557 ] } },
{ "type": "Feature", "properties": { "URL": "https://www.kaigokensaku.mhlw.go.jp/23/index.php?action_kouhyou_detail_023_kani=true&JigyosyoCd=2371300118-00&ServiceCd=510&Type=search", "名称": "特別養護老人ホーム　瀬古第一マザー園", "内容2": null, "郵便番号": null, "所在地": "〒463-0068名古屋市守山区瀬古２－３０１", "区分": "老人福祉施設", "緯度": 35.2127225, "経度": 136.9345584, "サービス提供地域": "－" }, "geometry": { "type": "Point", "coordinates": [ 136.934558399999986, 35.2127225 ] } },
{ "type": "Feature", "properties": { "URL": "https://www.kaigokensaku.mhlw.go.jp/23/index.php?action_kouhyou_detail_023_kani=true&JigyosyoCd=2373200290-00&ServiceCd=510&Type=search", "名称": "特別養護老人ホームせんねん村", "内容2": null, "郵便番号": null, "所在地": "〒445-0054愛知県西尾市平口町大溝77番地", "区分": "老人福祉施設", "緯度": 34.825646, "経度": 137.0515055, "サービス提供地域": "－" }, "geometry": { "type": "Point", "coordinates": [ 137.0515055, 34.825646 ] } },
{ "type": "Feature", "properties": { "URL": "https://www.kaigokensaku.mhlw.go.jp/23/index.php?action_kouhyou_detail_023_kani=true&JigyosyoCd=2372800819-00&ServiceCd=510&Type=search", "名称": "特別養護老人ホームひまわり", "内容2": null, "郵便番号": null, "所在地": "〒447-0802愛知県碧南市鷲林町４丁目１０９番地1", "区分": "老人福祉施設", "緯度": 34.8832309, "経度": 137.0239342, "サービス提供地域": "－" }, "geometry": { "type": "Point", "coordinates": [ 137.023934200000014, 34.8832309 ] } },
{ "type": "Feature", "properties": { "URL": "https://www.kaigokensaku.mhlw.go.jp/23/index.php?action_kouhyou_detail_023_kani=true&JigyosyoCd=2371300126-00&ServiceCd=510&Type=search", "名称": "特別養護老人ホーム建国ビハーラ", "内容2": null, "郵便番号": null, "所在地": "〒463-0815愛知県名古屋市守山区青葉台２０６番地", "区分": "老人福祉施設", "緯度": 35.225745, "経度": 136.9940205, "サービス提供地域": "－" }, "geometry": { "type": "Point", "coordinates": [ 136.9940205, 35.225745 ] } },
{ "type": "Feature", "properties": { "URL": "https://www.kaigokensaku.mhlw.go.jp/23/index.php?action_kouhyou_detail_023_kani=true&JigyosyoCd=2373700059-00&ServiceCd=510&Type=search", "名称": "特別養護老人ホーム朝日荘", "内容2": null, "郵便番号": null, "所在地": "〒494-0012愛知県一宮市明地字西阿古井１番地", "区分": "老人福祉施設", "緯度": 35.2791078, "経度": 136.7303221, "サービス提供地域": "－" }, "geometry": { "type": "Point", "coordinates": [ 136.7303221, 35.2791078 ] } },
{ "type": "Feature", "properties": { "URL": "https://www.kaigokensaku.mhlw.go.jp/23/index.php?action_kouhyou_detail_023_kani=true&JigyosyoCd=2371303757-00&ServiceCd=510&Type=search", "名称": "特別養護老人ホーム瀬古の家", "内容2": null, "郵便番号": null, "所在地": "〒463-0090瀬古東二丁目２０９－１", "区分": "老人福祉施設", "緯度": 35.209639, "経度": 136.940161, "サービス提供地域": "－" }, "geometry": { "type": "Point", "coordinates": [ 136.940161, 35.209639 ] } },
{ "type": "Feature", "properties": { "URL": "https://www.kaigokensaku.mhlw.go.jp/23/index.php?action_kouhyou_detail_023_kani=true&JigyosyoCd=2374300537-00&ServiceCd=510&Type=search", "名称": "特別養護老人ホーム　知多", "内容2": null, "郵便番号": null, "所在地": "〒478-0034愛知県知多市旭南5丁目31-1", "区分": "老人福祉施設", "緯度": 34.9424848, "経度": 136.8330792, "サービス提供地域": "－" }, "geometry": { "type": "Point", "coordinates": [ 136.833079199999986, 34.9424848 ] } },
{ "type": "Feature", "properties": { "URL": "https://www.kaigokensaku.mhlw.go.jp/23/index.php?action_kouhyou_detail_023_kani=true&JigyosyoCd=2375601552-00&ServiceCd=510&Type=search", "名称": "明範荘特別養護老人ホーム", "内容2": null, "郵便番号": null, "所在地": "〒496-8046愛知県愛西市赤目町山之神　３０番地１", "区分": "老人福祉施設", "緯度": 35.1986932, "経度": 136.6971732, "サービス提供地域": "－" }, "geometry": { "type": "Point", "coordinates": [ 136.6971732, 35.1986932 ] } },
{ "type": "Feature", "properties": { "URL": "https://www.kaigokensaku.mhlw.go.jp/23/index.php?action_kouhyou_detail_023_kani=true&JigyosyoCd=2370900843-00&ServiceCd=510&Type=search", "名称": "グレイスフル熱田", "内容2": null, "郵便番号": null, "所在地": "〒456-0033名古屋市熱田区花表町1番26号", "区分": "老人福祉施設", "緯度": 35.1282986, "経度": 136.9166718, "サービス提供地域": "－" }, "geometry": { "type": "Point", "coordinates": [ 136.916671799999989, 35.1282986 ] } },
{ "type": "Feature", "properties": { "URL": "https://www.kaigokensaku.mhlw.go.jp/23/index.php?action_kouhyou_detail_023_kani=true&JigyosyoCd=2370900512-00&ServiceCd=510&Type=search", "名称": "特別養護老人ホーム　オーネスト熱田の杜", "内容2": null, "郵便番号": null, "所在地": "〒456-0052愛知県名古屋市熱田区二番一丁目5番8号", "区分": "老人福祉施設", "緯度": 35.1257187, "経度": 136.8935157, "サービス提供地域": "－" }, "geometry": { "type": "Point", "coordinates": [ 136.8935157, 35.1257187 ] } },
{ "type": "Feature", "properties": { "URL": "https://www.kaigokensaku.mhlw.go.jp/23/index.php?action_kouhyou_detail_023_kani=true&JigyosyoCd=2372204327-00&ServiceCd=510&Type=search", "名称": "特別養護老人ホーム　西御堂の里 三笠", "内容2": null, "郵便番号": null, "所在地": "〒491-0365愛知県一宮市萩原町西御堂字虫祭1番地１", "区分": "老人福祉施設", "緯度": 35.2630791, "経度": 136.7694172, "サービス提供地域": "－" }, "geometry": { "type": "Point", "coordinates": [ 136.7694172, 35.2630791 ] } },
{ "type": "Feature", "properties": { "URL": "https://www.kaigokensaku.mhlw.go.jp/23/index.php?action_kouhyou_detail_023_kani=true&JigyosyoCd=2373002100-00&ServiceCd=510&Type=search", "名称": "特別養護老人ホームひまわりの街", "内容2": null, "郵便番号": null, "所在地": "〒473-0911愛知県豊田市本町本竜48", "区分": "老人福祉施設", "緯度": 35.0513205, "経度": 137.1188739, "サービス提供地域": "－" }, "geometry": { "type": "Point", "coordinates": [ 137.118873900000011, 35.0513205 ] } },
{ "type": "Feature", "properties": { "URL": "https://www.kaigokensaku.mhlw.go.jp/23/index.php?action_kouhyou_detail_023_kani=true&JigyosyoCd=2374101265-00&ServiceCd=510&Type=search", "名称": "特別養護老人ホームレモンの樹東海", "内容2": null, "郵便番号": null, "所在地": "〒476-0002愛知県東海市名和町南之山10番地の12", "区分": "老人福祉施設", "緯度": 35.0430782, "経度": 136.9126994, "サービス提供地域": "－" }, "geometry": { "type": "Point", "coordinates": [ 136.9126994, 35.0430782 ] } },
{ "type": "Feature", "properties": { "URL": "https://www.kaigokensaku.mhlw.go.jp/23/index.php?action_kouhyou_detail_023_kani=true&JigyosyoCd=2375500093-00&ServiceCd=510&Type=search", "名称": "特別養護老人ホーム寿敬園", "内容2": null, "郵便番号": null, "所在地": "〒490-1302愛知県稲沢市平和町観音堂東海塚26番地", "区分": "老人福祉施設", "緯度": 35.2261315, "経度": 136.755406, "サービス提供地域": "－" }, "geometry": { "type": "Point", "coordinates": [ 136.755406, 35.2261315 ] } },
{ "type": "Feature", "properties": { "URL": "https://www.kaigokensaku.mhlw.go.jp/23/index.php?action_kouhyou_detail_023_kani=true&JigyosyoCd=2370701902-00&ServiceCd=510&Type=search", "名称": "特別養護老人ホーム川名山荘", "内容2": null, "郵便番号": null, "所在地": "〒466-0827愛知県名古屋市昭和区川名山町6番地の7", "区分": "老人福祉施設", "緯度": 35.146005, "経度": 136.9595937, "サービス提供地域": "－" }, "geometry": { "type": "Point", "coordinates": [ 136.9595937, 35.146005 ] } },
{ "type": "Feature", "properties": { "URL": "https://www.kaigokensaku.mhlw.go.jp/23/index.php?action_kouhyou_detail_023_kani=true&JigyosyoCd=2376500050-00&ServiceCd=510&Type=search", "名称": "特別養護老人ホーム穂の国荘", "内容2": null, "郵便番号": null, "所在地": "〒441-1204愛知県豊川市西原町松葉１０－１６", "区分": "老人福祉施設", "緯度": 34.8606723, "経度": 137.3990792, "サービス提供地域": "－" }, "geometry": { "type": "Point", "coordinates": [ 137.399079199999989, 34.8606723 ] } },
{ "type": "Feature", "properties": { "URL": "https://www.kaigokensaku.mhlw.go.jp/23/index.php?action_kouhyou_detail_023_kani=true&JigyosyoCd=2373201181-00&ServiceCd=510&Type=search", "名称": "せんねん村矢曽根", "内容2": null, "郵便番号": null, "所在地": "〒445-0872愛知県西尾市矢曽根町蓮雲寺２９番地１", "区分": "老人福祉施設", "緯度": 34.8569376, "経度": 137.0501862, "サービス提供地域": "－" }, "geometry": { "type": "Point", "coordinates": [ 137.050186200000013, 34.8569376 ] } },
{ "type": "Feature", "properties": { "URL": "https://www.kaigokensaku.mhlw.go.jp/23/index.php?action_kouhyou_detail_023_kani=true&JigyosyoCd=2370601540-00&ServiceCd=510&Type=search", "名称": "介護老人福祉施設　グレイスフル上前津", "内容2": null, "郵便番号": null, "所在地": "〒460-0012千代田2-24-30", "区分": "老人福祉施設", "緯度": 35.1569414, "経度": 136.9104681, "サービス提供地域": "－" }, "geometry": { "type": "Point", "coordinates": [ 136.9104681, 35.1569414 ] } },
{ "type": "Feature", "properties": { "URL": "https://www.kaigokensaku.mhlw.go.jp/23/index.php?action_kouhyou_detail_023_kani=true&JigyosyoCd=2375700214-00&ServiceCd=510&Type=search", "名称": "特別養護老人ホーム武豊福寿園", "内容2": null, "郵便番号": null, "所在地": "〒470-2521愛知県知多郡武豊町大字東大高字鎮守33-2", "区分": "老人福祉施設", "緯度": 34.8334521, "経度": 136.9045429, "サービス提供地域": "－" }, "geometry": { "type": "Point", "coordinates": [ 136.9045429, 34.8334521 ] } },
{ "type": "Feature", "properties": { "URL": "https://www.kaigokensaku.mhlw.go.jp/23/index.php?action_kouhyou_detail_023_kani=true&JigyosyoCd=2374500383-00&ServiceCd=510&Type=search", "名称": "特別養護老人ホーム　アメニティあさひ", "内容2": null, "郵便番号": null, "所在地": "〒488-0085愛知県尾張旭市旭ヶ丘町濁池１１５５番地１８", "区分": "老人福祉施設", "緯度": 35.2267745, "経度": 137.0405358, "サービス提供地域": "－" }, "geometry": { "type": "Point", "coordinates": [ 137.040535799999986, 35.2267745 ] } },
{ "type": "Feature", "properties": { "URL": "https://www.kaigokensaku.mhlw.go.jp/23/index.php?action_kouhyou_detail_023_kani=true&JigyosyoCd=2373400072-00&ServiceCd=510&Type=search", "名称": "特別養護老人ホーム　犬山白寿苑", "内容2": null, "郵便番号": null, "所在地": "〒484-0000愛知県犬山市字洞田30番地の１", "区分": "老人福祉施設", "緯度": 35.3312628, "経度": 136.9671461, "サービス提供地域": "－" }, "geometry": { "type": "Point", "coordinates": [ 136.9671461, 35.3312628 ] } },
{ "type": "Feature", "properties": { "URL": "https://www.kaigokensaku.mhlw.go.jp/23/index.php?action_kouhyou_detail_023_kani=true&JigyosyoCd=2373400965-00&ServiceCd=510&Type=search", "名称": "特別養護老人ホームぬく森・第二", "内容2": null, "郵便番号": null, "所在地": "〒484-0801愛知県犬山市羽黒安戸南一丁目57番地", "区分": "老人福祉施設", "緯度": 35.356637, "経度": 136.9694504, "サービス提供地域": "－" }, "geometry": { "type": "Point", "coordinates": [ 136.9694504, 35.356637 ] } },
{ "type": "Feature", "properties": { "URL": "https://www.kaigokensaku.mhlw.go.jp/23/index.php?action_kouhyou_detail_023_kani=true&JigyosyoCd=2371100138-00&ServiceCd=510&Type=search", "名称": "特別養護老人ホーム幸楽荘", "内容2": null, "郵便番号": null, "所在地": "〒455-0864愛知県名古屋市港区小川一丁目17番地", "区分": "老人福祉施設", "緯度": 35.0981073, "経度": 136.8181618, "サービス提供地域": "－" }, "geometry": { "type": "Point", "coordinates": [ 136.818161800000013, 35.0981073 ] } },
{ "type": "Feature", "properties": { "URL": "https://www.kaigokensaku.mhlw.go.jp/23/index.php?action_kouhyou_detail_023_kani=true&JigyosyoCd=2371600129-00&ServiceCd=510&Type=search", "名称": "特別養護老人ホーム誠和荘", "内容2": null, "郵便番号": null, "所在地": "〒468-0001愛知県名古屋市天白区植田山二丁目１０１番地", "区分": "老人福祉施設", "緯度": 35.1475264, "経度": 136.9864053, "サービス提供地域": "－" }, "geometry": { "type": "Point", "coordinates": [ 136.9864053, 35.1475264 ] } },
{ "type": "Feature", "properties": { "URL": "https://www.kaigokensaku.mhlw.go.jp/23/index.php?action_kouhyou_detail_023_kani=true&JigyosyoCd=2371401205-00&ServiceCd=510&Type=search", "名称": "特別養護老人ホーム　かきつばたの里", "内容2": null, "郵便番号": null, "所在地": "〒458-0848愛知県名古屋市緑区水広三丁目７２１番地 特別養護老人ホーム　かきつばたの里", "区分": "老人福祉施設", "緯度": 35.076468, "経度": 136.9962293, "サービス提供地域": "－" }, "geometry": { "type": "Point", "coordinates": [ 136.99622930000001, 35.076468 ] } },
{ "type": "Feature", "properties": { "URL": "https://www.kaigokensaku.mhlw.go.jp/23/index.php?action_kouhyou_detail_023_kani=true&JigyosyoCd=2374400394-00&ServiceCd=510&Type=search", "名称": "特別養護老人ホーム　ほほえみの里", "内容2": null, "郵便番号": null, "所在地": "〒472-0011愛知県知立市昭和2丁目４－３", "区分": "老人福祉施設", "緯度": 34.9944015, "経度": 137.0629571, "サービス提供地域": "－" }, "geometry": { "type": "Point", "coordinates": [ 137.0629571, 34.9944015 ] } },
{ "type": "Feature", "properties": { "URL": "https://www.kaigokensaku.mhlw.go.jp/23/index.php?action_kouhyou_detail_023_kani=true&JigyosyoCd=2370900090-00&ServiceCd=510&Type=search", "名称": "特別養護老人ホームなごやかハウス横田", "内容2": null, "郵便番号": null, "所在地": "〒456-0022名古屋市熱田区横田二丁目3番35号", "区分": "老人福祉施設", "緯度": 35.1332476, "経度": 136.9088465, "サービス提供地域": "－" }, "geometry": { "type": "Point", "coordinates": [ 136.90884650000001, 35.1332476 ] } },
{ "type": "Feature", "properties": { "URL": "https://www.kaigokensaku.mhlw.go.jp/23/index.php?action_kouhyou_detail_023_kani=true&JigyosyoCd=2372002481-00&ServiceCd=510&Type=search", "名称": "特別養護老人ホーム　喜寿苑", "内容2": null, "郵便番号": null, "所在地": "〒441-0152愛知県豊橋市前芝町加藤381番地２", "区分": "老人福祉施設", "緯度": 34.7794896, "経度": 137.3451156, "サービス提供地域": "－" }, "geometry": { "type": "Point", "coordinates": [ 137.345115600000014, 34.779489600000012 ] } },
{ "type": "Feature", "properties": { "URL": "https://www.kaigokensaku.mhlw.go.jp/23/index.php?action_kouhyou_detail_023_kani=true&JigyosyoCd=2371400165-00&ServiceCd=510&Type=search", "名称": "特別養護老人ホーム楓林花の里", "内容2": null, "郵便番号": null, "所在地": "〒459-8001名古屋市緑区大高町字上蝮池10番地", "区分": "老人福祉施設", "緯度": 35.0581312, "経度": 136.9550452, "サービス提供地域": "－" }, "geometry": { "type": "Point", "coordinates": [ 136.9550452, 35.0581312 ] } },
{ "type": "Feature", "properties": { "URL": "https://www.kaigokensaku.mhlw.go.jp/23/index.php?action_kouhyou_detail_023_kani=true&JigyosyoCd=2371403128-00&ServiceCd=510&Type=search", "名称": "特別養護老人ホーム楓林花の里南館", "内容2": null, "郵便番号": null, "所在地": "〒459-8001大高町字上蝮池10番地", "区分": "老人福祉施設", "緯度": 35.0581312, "経度": 136.9550452, "サービス提供地域": "－" }, "geometry": { "type": "Point", "coordinates": [ 136.9550452, 35.0581312 ] } },
{ "type": "Feature", "properties": { "URL": "https://www.kaigokensaku.mhlw.go.jp/23/index.php?action_kouhyou_detail_023_kani=true&JigyosyoCd=2370200087-00&ServiceCd=510&Type=search", "名称": "特別養護老人ホーム　なごやかハウス出来町", "内容2": null, "郵便番号": null, "所在地": "〒461-0032愛知県名古屋市東区出来町三丁目16番11号", "区分": "老人福祉施設", "緯度": 35.1851771, "経度": 136.9376162, "サービス提供地域": "－" }, "geometry": { "type": "Point", "coordinates": [ 136.9376162, 35.1851771 ] } },
{ "type": "Feature", "properties": { "URL": "https://www.kaigokensaku.mhlw.go.jp/23/index.php?action_kouhyou_detail_023_kani=true&JigyosyoCd=2376000580-00&ServiceCd=510&Type=search", "名称": "特別養護老人ホーム　メリーホーム幸田", "内容2": null, "郵便番号": null, "所在地": "〒444-0124愛知県額田郡幸田町大字深溝字皿入１番１", "区分": "老人福祉施設", "緯度": 34.8372131, "経度": 137.1886456, "サービス提供地域": "－" }, "geometry": { "type": "Point", "coordinates": [ 137.1886456, 34.8372131 ] } },
{ "type": "Feature", "properties": { "URL": "https://www.kaigokensaku.mhlw.go.jp/23/index.php?action_kouhyou_detail_023_kani=true&JigyosyoCd=2376500340-00&ServiceCd=510&Type=search", "名称": "介護老人福祉施設　ジャルダン・リラ", "内容2": null, "郵便番号": null, "所在地": "〒441-0201愛知県豊川市萩町上近久８８番地", "区分": "老人福祉施設", "緯度": 34.8744311, "経度": 137.3340126, "サービス提供地域": "－" }, "geometry": { "type": "Point", "coordinates": [ 137.3340126, 34.8744311 ] } },
{ "type": "Feature", "properties": { "URL": "https://www.kaigokensaku.mhlw.go.jp/23/index.php?action_kouhyou_detail_023_kani=true&JigyosyoCd=2375300114-00&ServiceCd=510&Type=search", "名称": "特別養護老人ホーム 御桜乃里", "内容2": null, "郵便番号": null, "所在地": "〒480-0144愛知県丹羽郡大口町下小口六丁目124番地2", "区分": "老人福祉施設", "緯度": 35.3304909, "経度": 136.9109886, "サービス提供地域": "－" }, "geometry": { "type": "Point", "coordinates": [ 136.9109886, 35.3304909 ] } },
{ "type": "Feature", "properties": { "URL": "https://www.kaigokensaku.mhlw.go.jp/23/index.php?action_kouhyou_detail_023_kani=true&JigyosyoCd=2372301313-00&ServiceCd=510&Type=search", "名称": "特別養護老人ホーム　たんぽぽ菱野の里", "内容2": null, "郵便番号": null, "所在地": "〒489-0937愛知県瀬戸市南菱野町１２８番１", "区分": "老人福祉施設", "緯度": 35.1991893, "経度": 137.074194, "サービス提供地域": "－" }, "geometry": { "type": "Point", "coordinates": [ 137.074194, 35.1991893 ] } },
{ "type": "Feature", "properties": { "URL": "https://www.kaigokensaku.mhlw.go.jp/23/index.php?action_kouhyou_detail_023_kani=true&JigyosyoCd=2373902002-00&ServiceCd=510&Type=search", "名称": "特別養護老人ホーム　稲沢白寿苑", "内容2": null, "郵便番号": null, "所在地": "〒492-8122治郎丸元町３４番地", "区分": "老人福祉施設", "緯度": 35.2629486, "経度": 136.8115888, "サービス提供地域": "－" }, "geometry": { "type": "Point", "coordinates": [ 136.81158880000001, 35.2629486 ] } },
{ "type": "Feature", "properties": { "URL": "https://www.kaigokensaku.mhlw.go.jp/23/index.php?action_kouhyou_detail_023_kani=true&JigyosyoCd=2377500083-00&ServiceCd=510&Type=search", "名称": "特別養護老人ホーム長寿の里・十四山", "内容2": null, "郵便番号": null, "所在地": "〒490-1401愛知県弥富市六條町大崎69番地1", "区分": "老人福祉施設", "緯度": 35.1024891, "経度": 136.7535167, "サービス提供地域": "－" }, "geometry": { "type": "Point", "coordinates": [ 136.7535167, 35.1024891 ] } },
{ "type": "Feature", "properties": { "URL": "https://www.kaigokensaku.mhlw.go.jp/23/index.php?action_kouhyou_detail_023_kani=true&JigyosyoCd=2375600299-00&ServiceCd=510&Type=search", "名称": "愛厚ホーム佐屋苑", "内容2": null, "郵便番号": null, "所在地": "〒496-0921愛知県愛西市大井町浦田面２６８番地６", "区分": "老人福祉施設", "緯度": 35.1447944, "経度": 136.7489811, "サービス提供地域": "－" }, "geometry": { "type": "Point", "coordinates": [ 136.7489811, 35.144794399999988 ] } },
{ "type": "Feature", "properties": { "URL": "https://www.kaigokensaku.mhlw.go.jp/23/index.php?action_kouhyou_detail_023_kani=true&JigyosyoCd=2372200754-00&ServiceCd=510&Type=search", "名称": "一宮市萩の里特別養護老人ホーム", "内容2": null, "郵便番号": null, "所在地": "〒491-0363愛知県一宮市萩原町東宮重字蓮原36－1", "区分": "老人福祉施設", "緯度": 35.2721825, "経度": 136.7789481, "サービス提供地域": "－" }, "geometry": { "type": "Point", "coordinates": [ 136.7789481, 35.2721825 ] } },
{ "type": "Feature", "properties": { "URL": "https://www.kaigokensaku.mhlw.go.jp/23/index.php?action_kouhyou_detail_023_kani=true&JigyosyoCd=2371004462-00&ServiceCd=510&Type=search", "名称": "特別養護老人ホーム　オーネスト堀川", "内容2": null, "郵便番号": null, "所在地": "〒454-0056十一番町4丁目5番地の1", "区分": "老人福祉施設", "緯度": 35.1221306, "経度": 136.8801086, "サービス提供地域": "－" }, "geometry": { "type": "Point", "coordinates": [ 136.8801086, 35.1221306 ] } },
{ "type": "Feature", "properties": { "URL": "https://www.kaigokensaku.mhlw.go.jp/23/index.php?action_kouhyou_detail_023_kani=true&JigyosyoCd=2370201671-00&ServiceCd=510&Type=search", "名称": "特別養護老人ホーム　ジョイフル千種", "内容2": null, "郵便番号": null, "所在地": "〒461-0004愛知県名古屋市東区葵三丁目25番23号", "区分": "老人福祉施設", "緯度": 35.1698218, "経度": 136.9287279, "サービス提供地域": "－" }, "geometry": { "type": "Point", "coordinates": [ 136.928727900000013, 35.1698218 ] } },
{ "type": "Feature", "properties": { "URL": "https://www.kaigokensaku.mhlw.go.jp/23/index.php?action_kouhyou_detail_023_kani=true&JigyosyoCd=2374501118-00&ServiceCd=510&Type=search", "名称": "特別養護老人ホームサンヴェール尾張旭", "内容2": null, "郵便番号": null, "所在地": "〒488-0047愛知県尾張旭市南栄町黒石４８番１", "区分": "老人福祉施設", "緯度": 35.1921132, "経度": 137.0317756, "サービス提供地域": "－" }, "geometry": { "type": "Point", "coordinates": [ 137.0317756, 35.1921132 ] } },
{ "type": "Feature", "properties": { "URL": "https://www.kaigokensaku.mhlw.go.jp/23/index.php?action_kouhyou_detail_023_kani=true&JigyosyoCd=2374900708-00&ServiceCd=510&Type=search", "名称": "特別養護老人ホーム寿老苑", "内容2": null, "郵便番号": null, "所在地": "〒470-0126愛知県日進市赤池町屋下３６０番地", "区分": "老人福祉施設", "緯度": 35.1242451, "経度": 137.0085795, "サービス提供地域": "－" }, "geometry": { "type": "Point", "coordinates": [ 137.0085795, 35.1242451 ] } },
{ "type": "Feature", "properties": { "URL": "https://www.kaigokensaku.mhlw.go.jp/23/index.php?action_kouhyou_detail_023_kani=true&JigyosyoCd=2374300826-00&ServiceCd=510&Type=search", "名称": "特別養護老人ホーム　知多共愛の里", "内容2": null, "郵便番号": null, "所在地": "〒478-0014愛知県知多市西巽が丘二丁目20番地3", "区分": "老人福祉施設", "緯度": 34.9611602, "経度": 136.9053653, "サービス提供地域": "－" }, "geometry": { "type": "Point", "coordinates": [ 136.9053653, 34.9611602 ] } },
{ "type": "Feature", "properties": { "URL": "https://www.kaigokensaku.mhlw.go.jp/23/index.php?action_kouhyou_detail_023_kani=true&JigyosyoCd=2371100120-00&ServiceCd=510&Type=search", "名称": "特別養護老人ホーム　港寿楽苑", "内容2": null, "郵便番号": null, "所在地": "〒455-0066愛知県名古屋市港区寛政町6丁目10番地", "区分": "老人福祉施設", "緯度": 35.1063373, "経度": 136.8595362, "サービス提供地域": "－" }, "geometry": { "type": "Point", "coordinates": [ 136.8595362, 35.1063373 ] } },
{ "type": "Feature", "properties": { "URL": "https://www.kaigokensaku.mhlw.go.jp/23/index.php?action_kouhyou_detail_023_kani=true&JigyosyoCd=2375701360-00&ServiceCd=510&Type=search", "名称": "特別養護老人ホームくすのきの里", "内容2": null, "郵便番号": null, "所在地": "〒470-2309愛知県知多郡武豊町字梨子ノ木475番 特別養護老人ホーム　くすのきの里", "区分": "老人福祉施設", "緯度": 34.8658152, "経度": 136.8962736, "サービス提供地域": "－" }, "geometry": { "type": "Point", "coordinates": [ 136.8962736, 34.8658152 ] } },
{ "type": "Feature", "properties": { "URL": "https://www.kaigokensaku.mhlw.go.jp/23/index.php?action_kouhyou_detail_023_kani=true&JigyosyoCd=2375200611-00&ServiceCd=510&Type=search", "名称": "特別養護老人ホームペガサス春日", "内容2": null, "郵便番号": null, "所在地": "〒452-0962愛知県清須市春日新町１０５番地", "区分": "老人福祉施設", "緯度": 35.226632, "経度": 136.8501203, "サービス提供地域": "－" }, "geometry": { "type": "Point", "coordinates": [ 136.850120299999986, 35.226632 ] } },
{ "type": "Feature", "properties": { "URL": "https://www.kaigokensaku.mhlw.go.jp/23/index.php?action_kouhyou_detail_023_kani=true&JigyosyoCd=2375900376-00&ServiceCd=510&Type=search", "名称": "特別養護老人ホームレジデンス宮崎", "内容2": null, "郵便番号": null, "所在地": "〒444-0513愛知県西尾市吉良町宮崎丸山14番地1", "区分": "老人福祉施設", "緯度": 34.778523, "経度": 137.0865156, "サービス提供地域": "－" }, "geometry": { "type": "Point", "coordinates": [ 137.086515600000013, 34.778523 ] } },
{ "type": "Feature", "properties": { "URL": "https://www.kaigokensaku.mhlw.go.jp/23/index.php?action_kouhyou_detail_023_kani=true&JigyosyoCd=2370300218-00&ServiceCd=510&Type=search", "名称": "特別養護老人ホーム愛生苑", "内容2": null, "郵便番号": null, "所在地": "〒462-0011名古屋市北区五反田町１０８番地２", "区分": "老人福祉施設", "緯度": 35.2270171, "経度": 136.911593, "サービス提供地域": "－" }, "geometry": { "type": "Point", "coordinates": [ 136.911593, 35.2270171 ] } },
{ "type": "Feature", "properties": { "URL": "https://www.kaigokensaku.mhlw.go.jp/23/index.php?action_kouhyou_detail_023_kani=true&JigyosyoCd=2375400088-00&ServiceCd=510&Type=search", "名称": "介護老人福祉施設サンリバー", "内容2": null, "郵便番号": null, "所在地": "〒493-0005愛知県一宮市木曽川町里小牧字笹原１４８番地", "区分": "老人福祉施設", "緯度": 35.3473712, "経度": 136.7609745, "サービス提供地域": "－" }, "geometry": { "type": "Point", "coordinates": [ 136.7609745, 35.3473712 ] } },
{ "type": "Feature", "properties": { "URL": "https://www.kaigokensaku.mhlw.go.jp/23/index.php?action_kouhyou_detail_023_kani=true&JigyosyoCd=2371000221-00&ServiceCd=510&Type=search", "名称": "特別養護老人ホーム第２共愛の里", "内容2": null, "郵便番号": null, "所在地": "〒454-0945愛知県名古屋市中川区下之一色町権野108-6", "区分": "老人福祉施設", "緯度": 35.124054, "経度": 136.8287075, "サービス提供地域": "－" }, "geometry": { "type": "Point", "coordinates": [ 136.8287075, 35.124054 ] } },
{ "type": "Feature", "properties": { "URL": "https://www.kaigokensaku.mhlw.go.jp/23/index.php?action_kouhyou_detail_023_kani=true&JigyosyoCd=2370500502-00&ServiceCd=510&Type=search", "名称": "特別養護老人ホーム　なごやかハウス名楽", "内容2": null, "郵便番号": null, "所在地": "〒453-0024名古屋市中村区名楽町4丁目7番地の18", "区分": "老人福祉施設", "緯度": 35.1696718, "経度": 136.8630442, "サービス提供地域": "－" }, "geometry": { "type": "Point", "coordinates": [ 136.8630442, 35.1696718 ] } },
{ "type": "Feature", "properties": { "URL": "https://www.kaigokensaku.mhlw.go.jp/23/index.php?action_kouhyou_detail_023_kani=true&JigyosyoCd=2371000197-00&ServiceCd=510&Type=search", "名称": "特別養護老人ホーム　松寿苑", "内容2": null, "郵便番号": null, "所在地": "〒454-0925愛知県名古屋市中川区中須町235番地", "区分": "老人福祉施設", "緯度": 35.1365363, "経度": 136.8402216, "サービス提供地域": "－" }, "geometry": { "type": "Point", "coordinates": [ 136.8402216, 35.1365363 ] } },
{ "type": "Feature", "properties": { "URL": "https://www.kaigokensaku.mhlw.go.jp/23/index.php?action_kouhyou_detail_023_kani=true&JigyosyoCd=2371301298-00&ServiceCd=510&Type=search", "名称": "守牧苑", "内容2": null, "郵便番号": null, "所在地": "〒463-0073名古屋市守山区守牧町１２８－５", "区分": "老人福祉施設", "緯度": 35.2005915, "経度": 136.9535297, "サービス提供地域": "－" }, "geometry": { "type": "Point", "coordinates": [ 136.9535297, 35.2005915 ] } },
{ "type": "Feature", "properties": { "URL": "https://www.kaigokensaku.mhlw.go.jp/23/index.php?action_kouhyou_detail_023_kani=true&JigyosyoCd=2373200092-00&ServiceCd=510&Type=search", "名称": "愛厚ホーム西尾苑", "内容2": null, "郵便番号": null, "所在地": "〒445-0082西尾市八ツ面町蔵屋敷１２０番地", "区分": "老人福祉施設", "緯度": 34.878777, "経度": 137.0768561, "サービス提供地域": "－" }, "geometry": { "type": "Point", "coordinates": [ 137.076856099999986, 34.878777 ] } },
{ "type": "Feature", "properties": { "URL": "https://www.kaigokensaku.mhlw.go.jp/23/index.php?action_kouhyou_detail_023_kani=true&JigyosyoCd=2370600179-00&ServiceCd=510&Type=search", "名称": "特別養護老人ホーム　ユートピアつくも", "内容2": null, "郵便番号": null, "所在地": "〒460-0007名古屋市中区新栄三丁目32番17号", "区分": "老人福祉施設", "緯度": 35.1657756, "経度": 136.9241002, "サービス提供地域": "－" }, "geometry": { "type": "Point", "coordinates": [ 136.9241002, 35.1657756 ] } },
{ "type": "Feature", "properties": { "URL": "https://www.kaigokensaku.mhlw.go.jp/23/index.php?action_kouhyou_detail_023_kani=true&JigyosyoCd=2372202107-00&ServiceCd=510&Type=search", "名称": "特別養護老人ホーム葉栗の郷", "内容2": null, "郵便番号": null, "所在地": "〒491-0121愛知県一宮市島村字六反田60", "区分": "老人福祉施設", "緯度": 35.3411557, "経度": 136.811518, "サービス提供地域": "－" }, "geometry": { "type": "Point", "coordinates": [ 136.811518, 35.3411557 ] } },
{ "type": "Feature", "properties": { "URL": "https://www.kaigokensaku.mhlw.go.jp/23/index.php?action_kouhyou_detail_023_kani=true&JigyosyoCd=2373801998-00&ServiceCd=510&Type=search", "名称": "特別養護老人ホーム　幸の郷", "内容2": null, "郵便番号": null, "所在地": "〒485-0023愛知県小牧市大字北外山字掛割８番地１", "区分": "老人福祉施設", "緯度": 35.274301, "経度": 136.9241165, "サービス提供地域": "－" }, "geometry": { "type": "Point", "coordinates": [ 136.9241165, 35.274301 ] } },
{ "type": "Feature", "properties": { "URL": "https://www.kaigokensaku.mhlw.go.jp/23/index.php?action_kouhyou_detail_023_kani=true&JigyosyoCd=2370305118-00&ServiceCd=510&Type=search", "名称": "特別養護老人ホーム　オーネスト紫季桜", "内容2": null, "郵便番号": null, "所在地": "〒462-0012愛知県名古屋市北区楠２丁目８２２番地", "区分": "老人福祉施設", "緯度": 35.2264605, "経度": 136.9204248, "サービス提供地域": "－" }, "geometry": { "type": "Point", "coordinates": [ 136.9204248, 35.2264605 ] } },
{ "type": "Feature", "properties": { "URL": "https://www.kaigokensaku.mhlw.go.jp/23/index.php?action_kouhyou_detail_023_kani=true&JigyosyoCd=2372200226-00&ServiceCd=510&Type=search", "名称": "特別養護老人ホームあいふるの里", "内容2": null, "郵便番号": null, "所在地": "〒491-0115愛知県一宮市浅井町西海戸字余陸寺45番地1", "区分": "老人福祉施設", "緯度": 35.334977, "経度": 136.8281907, "サービス提供地域": "－" }, "geometry": { "type": "Point", "coordinates": [ 136.8281907, 35.334977 ] } },
{ "type": "Feature", "properties": { "URL": "https://www.kaigokensaku.mhlw.go.jp/23/index.php?action_kouhyou_detail_023_kani=true&JigyosyoCd=2373000690-00&ServiceCd=510&Type=search", "名称": "特別養護老人ホームすばる", "内容2": null, "郵便番号": null, "所在地": "〒471-0046愛知県豊田市本新町７丁目５０番地７", "区分": "老人福祉施設", "緯度": 35.0787672, "経度": 137.1161694, "サービス提供地域": "－" }, "geometry": { "type": "Point", "coordinates": [ 137.1161694, 35.0787672 ] } },
{ "type": "Feature", "properties": { "URL": "https://www.kaigokensaku.mhlw.go.jp/23/index.php?action_kouhyou_detail_023_kani=true&JigyosyoCd=2370403954-00&ServiceCd=510&Type=search", "名称": "特別養護老人ホームオーネスト二方の郷", "内容2": null, "郵便番号": null, "所在地": "〒452-0817愛知県名古屋市西区二方町15番地", "区分": "老人福祉施設", "緯度": 35.2249843, "経度": 136.8786862, "サービス提供地域": "－" }, "geometry": { "type": "Point", "coordinates": [ 136.8786862, 35.2249843 ] } },
{ "type": "Feature", "properties": { "URL": "https://www.kaigokensaku.mhlw.go.jp/23/index.php?action_kouhyou_detail_023_kani=true&JigyosyoCd=2370100154-00&ServiceCd=510&Type=search", "名称": "なごやかハウス希望ケ丘", "内容2": null, "郵便番号": null, "所在地": "〒464-0016愛知県名古屋市千種区希望ケ丘二丁目3番9号", "区分": "老人福祉施設", "緯度": 35.1783289, "経度": 136.9690491, "サービス提供地域": "－" }, "geometry": { "type": "Point", "coordinates": [ 136.9690491, 35.1783289 ] } },
{ "type": "Feature", "properties": { "URL": "https://www.kaigokensaku.mhlw.go.jp/23/index.php?action_kouhyou_detail_023_kani=true&JigyosyoCd=2376300121-00&ServiceCd=510&Type=search", "名称": "やまゆり荘", "内容2": null, "郵便番号": null, "所在地": "〒449-0211愛知県北設楽郡東栄町大字中設楽字松久保１番地３", "区分": "老人福祉施設", "緯度": 35.0836546, "経度": 137.683833, "サービス提供地域": "－" }, "geometry": { "type": "Point", "coordinates": [ 137.683833, 35.0836546 ] } },
{ "type": "Feature", "properties": { "URL": "https://www.kaigokensaku.mhlw.go.jp/23/index.php?action_kouhyou_detail_023_kani=true&JigyosyoCd=2371200607-00&ServiceCd=510&Type=search", "名称": "ゆうあいの里大同", "内容2": null, "郵便番号": null, "所在地": "〒457-0818愛知県名古屋市南区白水町２０番地", "区分": "老人福祉施設", "緯度": 35.0756515, "経度": 136.9058141, "サービス提供地域": "－" }, "geometry": { "type": "Point", "coordinates": [ 136.905814099999986, 35.0756515 ] } },
{ "type": "Feature", "properties": { "URL": "https://www.kaigokensaku.mhlw.go.jp/23/index.php?action_kouhyou_detail_023_kani=true&JigyosyoCd=2371602679-00&ServiceCd=510&Type=search", "名称": "ユニット型　特別養護老人ホーム　第二八事苑", "内容2": null, "郵便番号": null, "所在地": "〒468-0072愛知県名古屋市天白区大坪二丁目701番地 第二八事苑", "区分": "老人福祉施設", "緯度": 35.1370119, "経度": 136.9793763, "サービス提供地域": "－" }, "geometry": { "type": "Point", "coordinates": [ 136.979376300000013, 35.1370119 ] } },
{ "type": "Feature", "properties": { "URL": "https://www.kaigokensaku.mhlw.go.jp/23/index.php?action_kouhyou_detail_023_kani=true&JigyosyoCd=2373900063-00&ServiceCd=510&Type=search", "名称": "介護老人福祉施設　大和の里", "内容2": null, "郵便番号": null, "所在地": "〒492-8172愛知県稲沢市六角堂東町一丁目3番地6", "区分": "老人福祉施設", "緯度": 35.2345925, "経度": 136.8306004, "サービス提供地域": "－" }, "geometry": { "type": "Point", "coordinates": [ 136.8306004, 35.2345925 ] } },
{ "type": "Feature", "properties": { "URL": "https://www.kaigokensaku.mhlw.go.jp/23/index.php?action_kouhyou_detail_023_kani=true&JigyosyoCd=2372700795-00&ServiceCd=510&Type=search", "名称": "介護老人福祉施設　第二陽だまりの里", "内容2": null, "郵便番号": null, "所在地": "〒496-0003愛知県津島市寺野町字好土４４番地", "区分": "老人福祉施設", "緯度": 35.1915894, "経度": 136.7735467, "サービス提供地域": "－" }, "geometry": { "type": "Point", "coordinates": [ 136.7735467, 35.191589400000012 ] } },
{ "type": "Feature", "properties": { "URL": "https://www.kaigokensaku.mhlw.go.jp/23/index.php?action_kouhyou_detail_023_kani=true&JigyosyoCd=2372201190-00&ServiceCd=510&Type=search", "名称": "介護老人福祉施設いわと", "内容2": null, "郵便番号": null, "所在地": "〒491-0141愛知県一宮市浅井町黒岩字宮東７番地１", "区分": "老人福祉施設", "緯度": 35.3516993, "経度": 136.836334, "サービス提供地域": "－" }, "geometry": { "type": "Point", "coordinates": [ 136.836334, 35.3516993 ] } },
{ "type": "Feature", "properties": { "URL": "https://www.kaigokensaku.mhlw.go.jp/23/index.php?action_kouhyou_detail_023_kani=true&JigyosyoCd=2373500269-00&ServiceCd=510&Type=search", "名称": "介護老人福祉施設しろやま", "内容2": null, "郵便番号": null, "所在地": "〒479-0003愛知県常滑市金山字屋敷30番地１", "区分": "老人福祉施設", "緯度": 34.9306787, "経度": 136.838244, "サービス提供地域": "－" }, "geometry": { "type": "Point", "coordinates": [ 136.838244, 34.9306787 ] } },
{ "type": "Feature", "properties": { "URL": "https://www.kaigokensaku.mhlw.go.jp/23/index.php?action_kouhyou_detail_023_kani=true&JigyosyoCd=2371500154-00&ServiceCd=510&Type=search", "名称": "名古屋市厚生院", "内容2": null, "郵便番号": null, "所在地": "〒465-8610名古屋市名東区勢子坊二丁目1501番地 名古屋市厚生院", "区分": "老人福祉施設", "緯度": 35.1637439, "経度": 137.0189924, "サービス提供地域": "－" }, "geometry": { "type": "Point", "coordinates": [ 137.0189924, 35.1637439 ] } },
{ "type": "Feature", "properties": { "URL": "https://www.kaigokensaku.mhlw.go.jp/23/index.php?action_kouhyou_detail_023_kani=true&JigyosyoCd=2372300083-00&ServiceCd=510&Type=search", "名称": "愛厚ホーム瀬戸苑", "内容2": null, "郵便番号": null, "所在地": "〒489-0889愛知県瀬戸市原山町１‐１０", "区分": "老人福祉施設", "緯度": 35.2178052, "経度": 137.0921735, "サービス提供地域": "－" }, "geometry": { "type": "Point", "coordinates": [ 137.0921735, 35.2178052 ] } },
{ "type": "Feature", "properties": { "URL": "https://www.kaigokensaku.mhlw.go.jp/23/index.php?action_kouhyou_detail_023_kani=true&JigyosyoCd=2372302717-00&ServiceCd=510&Type=search", "名称": "愛厚ホーム瀬戸苑", "内容2": null, "郵便番号": null, "所在地": "〒489-0889愛知県瀬戸市原山町１-１０", "区分": "老人福祉施設", "緯度": 35.2178052, "経度": 137.0921735, "サービス提供地域": "－" }, "geometry": { "type": "Point", "coordinates": [ 137.0921735, 35.2178052 ] } },
{ "type": "Feature", "properties": { "URL": "https://www.kaigokensaku.mhlw.go.jp/23/index.php?action_kouhyou_detail_023_kani=true&JigyosyoCd=2376300394-00&ServiceCd=510&Type=search", "名称": "愛厚ホーム設楽苑", "内容2": null, "郵便番号": null, "所在地": "〒441-2302愛知県北設楽郡設楽町清崎字沖１３－４ 愛厚ホーム設楽苑（ユニット型施設）", "区分": "老人福祉施設", "緯度": 35.063185, "経度": 137.5494919, "サービス提供地域": "－" }, "geometry": { "type": "Point", "coordinates": [ 137.5494919, 35.063185 ] } },
{ "type": "Feature", "properties": { "URL": "https://www.kaigokensaku.mhlw.go.jp/23/index.php?action_kouhyou_detail_023_kani=true&JigyosyoCd=2376300113-00&ServiceCd=510&Type=search", "名称": "愛厚ホーム設楽苑（多床室型施設）", "内容2": null, "郵便番号": null, "所在地": "〒441-2302愛知県北設楽郡設楽町清崎字沖１3番地4", "区分": "老人福祉施設", "緯度": 37.726504, "経度": 140.4541959, "サービス提供地域": "－" }, "geometry": { "type": "Point", "coordinates": [ 140.4541959, 37.726504 ] } },
{ "type": "Feature", "properties": { "URL": "https://www.kaigokensaku.mhlw.go.jp/23/index.php?action_kouhyou_detail_023_kani=true&JigyosyoCd=2370900660-00&ServiceCd=510&Type=search", "名称": "特別養護老人ホーム 喜多乃郷", "内容2": null, "郵便番号": null, "所在地": "〒456-0053名古屋市熱田区一番二丁目１２番２０号", "区分": "老人福祉施設", "緯度": 35.1236407, "経度": 136.8963533, "サービス提供地域": "－" }, "geometry": { "type": "Point", "coordinates": [ 136.896353299999987, 35.1236407 ] } },
{ "type": "Feature", "properties": { "URL": "https://www.kaigokensaku.mhlw.go.jp/23/index.php?action_kouhyou_detail_023_kani=true&JigyosyoCd=2374500086-00&ServiceCd=510&Type=search", "名称": "特別養護老人ホーム 敬愛園", "内容2": null, "郵便番号": null, "所在地": "〒488-0872愛知県尾張旭市平子町長池上６４４７‐１", "区分": "老人福祉施設", "緯度": 35.2256461, "経度": 137.0225382, "サービス提供地域": "－" }, "geometry": { "type": "Point", "coordinates": [ 137.022538200000014, 35.2256461 ] } },
{ "type": "Feature", "properties": { "URL": "https://www.kaigokensaku.mhlw.go.jp/23/index.php?action_kouhyou_detail_023_kani=true&JigyosyoCd=2371600343-00&ServiceCd=510&Type=search", "名称": "特別養護老人ホーム　　第二八事苑", "内容2": null, "郵便番号": null, "所在地": "〒468-0072愛知県名古屋市天白区大坪二丁目７０１番地 第二八事苑", "区分": "老人福祉施設", "緯度": 35.1370119, "経度": 136.9793763, "サービス提供地域": "－" }, "geometry": { "type": "Point", "coordinates": [ 136.979376300000013, 35.1370119 ] } },
{ "type": "Feature", "properties": { "URL": "https://www.kaigokensaku.mhlw.go.jp/23/index.php?action_kouhyou_detail_023_kani=true&JigyosyoCd=2375700198-00&ServiceCd=510&Type=search", "名称": "特別養護老人ホーム　あい寿の丘", "内容2": null, "郵便番号": null, "所在地": "〒470-3411愛知県知多郡南知多町大字豊丘字中平井14番地1", "区分": "老人福祉施設", "緯度": 34.7252226, "経度": 136.9424778, "サービス提供地域": "－" }, "geometry": { "type": "Point", "coordinates": [ 136.9424778, 34.7252226 ] } },
{ "type": "Feature", "properties": { "URL": "https://www.kaigokensaku.mhlw.go.jp/23/index.php?action_kouhyou_detail_023_kani=true&JigyosyoCd=2372501953-00&ServiceCd=510&Type=search", "名称": "特別養護老人ホーム　あさひが丘", "内容2": null, "郵便番号": null, "所在地": "〒480-0304愛知県春日井市神屋町1306番地1", "区分": "老人福祉施設", "緯度": 35.3033649, "経度": 137.0191634, "サービス提供地域": "－" }, "geometry": { "type": "Point", "coordinates": [ 137.0191634, 35.3033649 ] } },
{ "type": "Feature", "properties": { "URL": "https://www.kaigokensaku.mhlw.go.jp/23/index.php?action_kouhyou_detail_023_kani=true&JigyosyoCd=2373200654-00&ServiceCd=510&Type=search", "名称": "特別養護老人ホーム　いちご", "内容2": null, "郵便番号": null, "所在地": "〒445-0055愛知県西尾市市子町稲荷122番地", "区分": "老人福祉施設", "緯度": 34.8313111, "経度": 137.0378104, "サービス提供地域": "－" }, "geometry": { "type": "Point", "coordinates": [ 137.037810400000012, 34.8313111 ] } },
{ "type": "Feature", "properties": { "URL": "https://www.kaigokensaku.mhlw.go.jp/23/index.php?action_kouhyou_detail_023_kani=true&JigyosyoCd=2372101796-00&ServiceCd=510&Type=search", "名称": "特別養護老人ホーム　くわがい", "内容2": null, "郵便番号": null, "所在地": "〒444-3515愛知県岡崎市桑谷町字西平地45番地", "区分": "老人福祉施設", "緯度": 34.8907371, "経度": 137.2156333, "サービス提供地域": "－" }, "geometry": { "type": "Point", "coordinates": [ 137.2156333, 34.8907371 ] } },
{ "type": "Feature", "properties": { "URL": "https://www.kaigokensaku.mhlw.go.jp/23/index.php?action_kouhyou_detail_023_kani=true&JigyosyoCd=2371100559-00&ServiceCd=510&Type=search", "名称": "特別養護老人ホーム　こすも", "内容2": null, "郵便番号": null, "所在地": "〒455-0021名古屋市港区木場町２番地の125", "区分": "老人福祉施設", "緯度": 35.1045721, "経度": 136.8981764, "サービス提供地域": "－" }, "geometry": { "type": "Point", "coordinates": [ 136.898176400000011, 35.104572100000013 ] } },
{ "type": "Feature", "properties": { "URL": "https://www.kaigokensaku.mhlw.go.jp/23/index.php?action_kouhyou_detail_023_kani=true&JigyosyoCd=2371304664-00&ServiceCd=510&Type=search", "名称": "特別養護老人ホーム　しだみの里", "内容2": null, "郵便番号": null, "所在地": "〒463-0001愛知県名古屋市守山区上志段味東谷2074番3", "区分": "老人福祉施設", "緯度": 35.2512015, "経度": 137.0425946, "サービス提供地域": "－" }, "geometry": { "type": "Point", "coordinates": [ 137.0425946, 35.2512015 ] } },
{ "type": "Feature", "properties": { "URL": "https://www.kaigokensaku.mhlw.go.jp/23/index.php?action_kouhyou_detail_023_kani=true&JigyosyoCd=2372503645-00&ServiceCd=510&Type=search", "名称": "特別養護老人ホーム　しょうなあさひが丘", "内容2": null, "郵便番号": null, "所在地": "〒487-0022春日井市庄名町918番地1", "区分": "老人福祉施設", "緯度": 35.2795949, "経度": 137.0253767, "サービス提供地域": "－" }, "geometry": { "type": "Point", "coordinates": [ 137.02537670000001, 35.2795949 ] } },
{ "type": "Feature", "properties": { "URL": "https://www.kaigokensaku.mhlw.go.jp/23/index.php?action_kouhyou_detail_023_kani=true&JigyosyoCd=2370103059-00&ServiceCd=510&Type=search", "名称": "特別養護老人ホーム　すないの家　千種", "内容2": null, "郵便番号": null, "所在地": "〒464-0004愛知県名古屋市千種区京命１丁目11番13号", "区分": "老人福祉施設", "緯度": 35.1859872, "経度": 136.9831658, "サービス提供地域": "－" }, "geometry": { "type": "Point", "coordinates": [ 136.9831658, 35.1859872 ] } },
{ "type": "Feature", "properties": { "URL": "https://www.kaigokensaku.mhlw.go.jp/23/index.php?action_kouhyou_detail_023_kani=true&JigyosyoCd=2371200227-00&ServiceCd=510&Type=search", "名称": "特別養護老人ホーム　なごやかハウス三条", "内容2": null, "郵便番号": null, "所在地": "〒457-0866名古屋市南区三条二丁目16番42号", "区分": "老人福祉施設", "緯度": 35.1062175, "経度": 136.9042161, "サービス提供地域": "－" }, "geometry": { "type": "Point", "coordinates": [ 136.904216100000014, 35.1062175 ] } },
{ "type": "Feature", "properties": { "URL": "https://www.kaigokensaku.mhlw.go.jp/23/index.php?action_kouhyou_detail_023_kani=true&JigyosyoCd=2371100401-00&ServiceCd=510&Type=search", "名称": "特別養護老人ホーム　なごやかハウス丸池", "内容2": null, "郵便番号": null, "所在地": "〒455-0078名古屋市港区丸池町1丁目3番地", "区分": "老人福祉施設", "緯度": 35.1182076, "経度": 136.8704773, "サービス提供地域": "－" }, "geometry": { "type": "Point", "coordinates": [ 136.8704773, 35.1182076 ] } },
{ "type": "Feature", "properties": { "URL": "https://www.kaigokensaku.mhlw.go.jp/23/index.php?action_kouhyou_detail_023_kani=true&JigyosyoCd=2371400157-00&ServiceCd=510&Type=search", "名称": "特別養護老人ホーム　なごやかハウス滝ノ水", "内容2": null, "郵便番号": null, "所在地": "〒458-0021名古屋市緑区滝ノ水三丁目２１０３番地", "区分": "老人福祉施設", "緯度": 35.0847601, "経度": 136.9784599, "サービス提供地域": "－" }, "geometry": { "type": "Point", "coordinates": [ 136.9784599, 35.0847601 ] } },
{ "type": "Feature", "properties": { "URL": "https://www.kaigokensaku.mhlw.go.jp/23/index.php?action_kouhyou_detail_023_kani=true&JigyosyoCd=2372100335-00&ServiceCd=510&Type=search", "名称": "特別養護老人ホーム　なのはな苑ふくおか", "内容2": null, "郵便番号": null, "所在地": "〒444-0825岡崎市福岡町字四反田２６番地", "区分": "老人福祉施設", "緯度": 34.895793, "経度": 137.1580274, "サービス提供地域": "－" }, "geometry": { "type": "Point", "coordinates": [ 137.1580274, 34.895793 ] } },
{ "type": "Feature", "properties": { "URL": "https://www.kaigokensaku.mhlw.go.jp/23/index.php?action_kouhyou_detail_023_kani=true&JigyosyoCd=2374900344-00&ServiceCd=510&Type=search", "名称": "特別養護老人ホーム　のぞみ", "内容2": null, "郵便番号": null, "所在地": "〒470-0111愛知県日進市米野木町南山９８７－１０４", "区分": "老人福祉施設", "緯度": 35.1327897, "経度": 137.0860914, "サービス提供地域": "－" }, "geometry": { "type": "Point", "coordinates": [ 137.086091399999987, 35.1327897 ] } },
{ "type": "Feature", "properties": { "URL": "https://www.kaigokensaku.mhlw.go.jp/23/index.php?action_kouhyou_detail_023_kani=true&JigyosyoCd=2373102165-00&ServiceCd=510&Type=search", "名称": "特別養護老人ホーム　ひまわり・安城", "内容2": null, "郵便番号": null, "所在地": "〒446-0052愛知県安城市福釜町下山81番地1 特別養護老人ホーム　ひまわり・安城", "区分": "老人福祉施設", "緯度": 34.9394383, "経度": 137.0382387, "サービス提供地域": "－" }, "geometry": { "type": "Point", "coordinates": [ 137.0382387, 34.9394383 ] } },
{ "type": "Feature", "properties": { "URL": "https://www.kaigokensaku.mhlw.go.jp/23/index.php?action_kouhyou_detail_023_kani=true&JigyosyoCd=2373500046-00&ServiceCd=510&Type=search", "名称": "特別養護老人ホーム　むらさき野苑", "内容2": null, "郵便番号": null, "所在地": "〒479-0023愛知県常滑市字長峰一ノ切17", "区分": "老人福祉施設", "緯度": 34.8902795, "経度": 136.8646563, "サービス提供地域": "－" }, "geometry": { "type": "Point", "coordinates": [ 136.8646563, 34.8902795 ] } },
{ "type": "Feature", "properties": { "URL": "https://www.kaigokensaku.mhlw.go.jp/23/index.php?action_kouhyou_detail_023_kani=true&JigyosyoCd=2370503860-00&ServiceCd=510&Type=search", "名称": "特別養護老人ホーム　アカデミックケアホーム太閤", "内容2": null, "郵便番号": null, "所在地": "〒453-0029愛知県名古屋市中村区日吉町２２番地の２", "区分": "老人福祉施設", "緯度": 35.1720099, "経度": 136.8655803, "サービス提供地域": "－" }, "geometry": { "type": "Point", "coordinates": [ 136.8655803, 35.1720099 ] } },
{ "type": "Feature", "properties": { "URL": "https://www.kaigokensaku.mhlw.go.jp/23/index.php?action_kouhyou_detail_023_kani=true&JigyosyoCd=2372102794-00&ServiceCd=510&Type=search", "名称": "特別養護老人ホーム　アルクオーレ岡崎大平", "内容2": null, "郵便番号": null, "所在地": "〒444-0007愛知県岡崎市大平町字古渕25番地", "区分": "老人福祉施設", "緯度": 34.9377379, "経度": 137.1871909, "サービス提供地域": "－" }, "geometry": { "type": "Point", "coordinates": [ 137.1871909, 34.9377379 ] } },
{ "type": "Feature", "properties": { "URL": "https://www.kaigokensaku.mhlw.go.jp/23/index.php?action_kouhyou_detail_023_kani=true&JigyosyoCd=2375000524-00&ServiceCd=510&Type=search", "名称": "特別養護老人ホーム　イースト・ヴィレッジ", "内容2": null, "郵便番号": null, "所在地": "〒470-0162愛知県愛知郡東郷町大字春木字下鏡田446-1104", "区分": "老人福祉施設", "緯度": 35.0959324, "経度": 137.0310503, "サービス提供地域": "－" }, "geometry": { "type": "Point", "coordinates": [ 137.0310503, 35.0959324 ] } },
{ "type": "Feature", "properties": { "URL": "https://www.kaigokensaku.mhlw.go.jp/23/index.php?action_kouhyou_detail_023_kani=true&JigyosyoCd=2370902021-00&ServiceCd=510&Type=search", "名称": "特別養護老人ホーム　オーネストひびの大宝", "内容2": null, "郵便番号": null, "所在地": "〒456-0062愛知県名古屋市熱田区大宝一丁目1番3号", "区分": "老人福祉施設", "緯度": 35.1337125, "経度": 136.8938188, "サービス提供地域": "－" }, "geometry": { "type": "Point", "coordinates": [ 136.8938188, 35.1337125 ] } },
{ "type": "Feature", "properties": { "URL": "https://www.kaigokensaku.mhlw.go.jp/23/index.php?action_kouhyou_detail_023_kani=true&JigyosyoCd=2370402907-00&ServiceCd=510&Type=search", "名称": "特別養護老人ホーム　オーネスト名西", "内容2": null, "郵便番号": null, "所在地": "〒451-0064愛知県名古屋市西区名西二丁目38番52号 オーネスト名西", "区分": "老人福祉施設", "緯度": 35.1894787, "経度": 136.8804991, "サービス提供地域": "－" }, "geometry": { "type": "Point", "coordinates": [ 136.8804991, 35.1894787 ] } },
{ "type": "Feature", "properties": { "URL": "https://www.kaigokensaku.mhlw.go.jp/23/index.php?action_kouhyou_detail_023_kani=true&JigyosyoCd=2372206322-00&ServiceCd=510&Type=search", "名称": "特別養護老人ホーム　ガーデンハウス今伊勢", "内容2": null, "郵便番号": null, "所在地": "〒491-0051愛知県一宮市今伊勢町馬寄字御祭田2番地1", "区分": "老人福祉施設", "緯度": 35.3227305, "経度": 136.7826196, "サービス提供地域": "－" }, "geometry": { "type": "Point", "coordinates": [ 136.7826196, 35.3227305 ] } },
{ "type": "Feature", "properties": { "URL": "https://www.kaigokensaku.mhlw.go.jp/23/index.php?action_kouhyou_detail_023_kani=true&JigyosyoCd=2371100153-00&ServiceCd=510&Type=search", "名称": "特別養護老人ホーム　サービスネットワーク南陽", "内容2": null, "郵便番号": null, "所在地": "〒455-0863名古屋市港区新茶屋１丁目１７０１", "区分": "老人福祉施設", "緯度": 35.1093007, "経度": 136.8077896, "サービス提供地域": "－" }, "geometry": { "type": "Point", "coordinates": [ 136.8077896, 35.1093007 ] } },
{ "type": "Feature", "properties": { "URL": "https://www.kaigokensaku.mhlw.go.jp/23/index.php?action_kouhyou_detail_023_kani=true&JigyosyoCd=2372900866-00&ServiceCd=510&Type=search", "名称": "特別養護老人ホーム　シルバーピアかりや", "内容2": null, "郵便番号": null, "所在地": "〒448-0813愛知県刈谷市小垣江町白沢４５番地", "区分": "老人福祉施設", "緯度": 34.9587416, "経度": 137.0094431, "サービス提供地域": "－" }, "geometry": { "type": "Point", "coordinates": [ 137.0094431, 34.9587416 ] } },
{ "type": "Feature", "properties": { "URL": "https://www.kaigokensaku.mhlw.go.jp/23/index.php?action_kouhyou_detail_023_kani=true&JigyosyoCd=2372800074-00&ServiceCd=510&Type=search", "名称": "特別養護老人ホーム　シルバーピアみどり苑", "内容2": null, "郵便番号": null, "所在地": "〒447-0083愛知県碧南市油渕町３丁目５０番地", "区分": "老人福祉施設", "緯度": 34.9068523, "経度": 137.0094024, "サービス提供地域": "－" }, "geometry": { "type": "Point", "coordinates": [ 137.0094024, 34.9068523 ] } },
{ "type": "Feature", "properties": { "URL": "https://www.kaigokensaku.mhlw.go.jp/23/index.php?action_kouhyou_detail_023_kani=true&JigyosyoCd=2375701196-00&ServiceCd=510&Type=search", "名称": "特別養護老人ホーム　メドック東浦", "内容2": null, "郵便番号": null, "所在地": "〒470-2102愛知県知多郡東浦町大字緒川字猪伏釜１１０番地", "区分": "老人福祉施設", "緯度": 34.9816329, "経度": 136.9550769, "サービス提供地域": "－" }, "geometry": { "type": "Point", "coordinates": [ 136.9550769, 34.9816329 ] } },
{ "type": "Feature", "properties": { "URL": "https://www.kaigokensaku.mhlw.go.jp/23/index.php?action_kouhyou_detail_023_kani=true&JigyosyoCd=2374400097-00&ServiceCd=510&Type=search", "名称": "特別養護老人ホーム　ヴィラトピア知立", "内容2": null, "郵便番号": null, "所在地": "〒472-0022愛知県知立市山屋敷町富士塚１番地３３６", "区分": "老人福祉施設", "緯度": 35.0112014, "経度": 137.0593787, "サービス提供地域": "－" }, "geometry": { "type": "Point", "coordinates": [ 137.0593787, 35.0112014 ] } },
{ "type": "Feature", "properties": { "URL": "https://www.kaigokensaku.mhlw.go.jp/23/index.php?action_kouhyou_detail_023_kani=true&JigyosyoCd=2373300769-00&ServiceCd=510&Type=search", "名称": "特別養護老人ホーム　五井眺海園", "内容2": null, "郵便番号": null, "所在地": "〒443-0003蒲郡市五井町五反田7番地1", "区分": "老人福祉施設", "緯度": 34.8355528, "経度": 137.2467761, "サービス提供地域": "－" }, "geometry": { "type": "Point", "coordinates": [ 137.2467761, 34.8355528 ] } },
{ "type": "Feature", "properties": { "URL": "https://www.kaigokensaku.mhlw.go.jp/23/index.php?action_kouhyou_detail_023_kani=true&JigyosyoCd=2371600111-00&ServiceCd=510&Type=search", "名称": "特別養護老人ホーム　八事苑", "内容2": null, "郵便番号": null, "所在地": "〒468-0072愛知県名古屋市天白区大坪二丁目801番地", "区分": "老人福祉施設", "緯度": 35.137576, "経度": 136.9802637, "サービス提供地域": "－" }, "geometry": { "type": "Point", "coordinates": [ 136.9802637, 35.137576 ] } },
{ "type": "Feature", "properties": { "URL": "https://www.kaigokensaku.mhlw.go.jp/23/index.php?action_kouhyou_detail_023_kani=true&JigyosyoCd=2371000213-00&ServiceCd=510&Type=search", "名称": "特別養護老人ホーム　共愛の里", "内容2": null, "郵便番号": null, "所在地": "〒454-0945名古屋市中川区下之一色町字権野108-4", "区分": "老人福祉施設", "緯度": 35.1243927, "経度": 136.8286248, "サービス提供地域": "－" }, "geometry": { "type": "Point", "coordinates": [ 136.8286248, 35.1243927 ] } },
{ "type": "Feature", "properties": { "URL": "https://www.kaigokensaku.mhlw.go.jp/23/index.php?action_kouhyou_detail_023_kani=true&JigyosyoCd=2371202033-00&ServiceCd=510&Type=search", "名称": "特別養護老人ホーム　内田橋清凉苑", "内容2": null, "郵便番号": null, "所在地": "〒457-0861愛知県名古屋市南区明治一丁目6番9号", "区分": "老人福祉施設", "緯度": 35.1159504, "経度": 136.906034, "サービス提供地域": "－" }, "geometry": { "type": "Point", "coordinates": [ 136.906034, 35.1159504 ] } },
{ "type": "Feature", "properties": { "URL": "https://www.kaigokensaku.mhlw.go.jp/23/index.php?action_kouhyou_detail_023_kani=true&JigyosyoCd=2371600525-00&ServiceCd=510&Type=search", "名称": "特別養護老人ホーム　千寿乃里", "内容2": null, "郵便番号": null, "所在地": "〒468-0015愛知県名古屋市天白区原三丁目1905番地", "区分": "老人福祉施設", "緯度": 35.1200728, "経度": 136.9909502, "サービス提供地域": "－" }, "geometry": { "type": "Point", "coordinates": [ 136.990950199999986, 35.1200728 ] } },
{ "type": "Feature", "properties": { "URL": "https://www.kaigokensaku.mhlw.go.jp/23/index.php?action_kouhyou_detail_023_kani=true&JigyosyoCd=2370400067-00&ServiceCd=510&Type=search", "名称": "特別養護老人ホーム　山田清里苑", "内容2": null, "郵便番号": null, "所在地": "〒452-0806愛知県名古屋市西区五才美町２１１番地", "区分": "老人福祉施設", "緯度": 35.2191883, "経度": 136.8885014, "サービス提供地域": "－" }, "geometry": { "type": "Point", "coordinates": [ 136.8885014, 35.2191883 ] } },
{ "type": "Feature", "properties": { "URL": "https://www.kaigokensaku.mhlw.go.jp/23/index.php?action_kouhyou_detail_023_kani=true&JigyosyoCd=2374700553-00&ServiceCd=510&Type=search", "名称": "特別養護老人ホーム　岩倉一期一会荘花むすび", "内容2": null, "郵便番号": null, "所在地": "〒482-0017愛知県岩倉市北島町七反田15番地", "区分": "老人福祉施設", "緯度": 35.2778488, "経度": 136.8559157, "サービス提供地域": "－" }, "geometry": { "type": "Point", "coordinates": [ 136.8559157, 35.2778488 ] } },
{ "type": "Feature", "properties": { "URL": "https://www.kaigokensaku.mhlw.go.jp/23/index.php?action_kouhyou_detail_023_kani=true&JigyosyoCd=2372800470-00&ServiceCd=510&Type=search", "名称": "特別養護老人ホーム　川口結いの家", "内容2": null, "郵便番号": null, "所在地": "〒447-0823愛知県碧南市川口町1丁目178番地１", "区分": "老人福祉施設", "緯度": 34.8396549, "経度": 136.9748911, "サービス提供地域": "－" }, "geometry": { "type": "Point", "coordinates": [ 136.9748911, 34.8396549 ] } },
{ "type": "Feature", "properties": { "URL": "https://www.kaigokensaku.mhlw.go.jp/23/index.php?action_kouhyou_detail_023_kani=true&JigyosyoCd=2374200133-00&ServiceCd=510&Type=search", "名称": "特別養護老人ホーム　愛厚ホーム大府苑", "内容2": null, "郵便番号": null, "所在地": "〒474-0038愛知県大府市森岡町七丁目４０８番地", "区分": "老人福祉施設", "緯度": 34.999701, "経度": 136.9543261, "サービス提供地域": "－" }, "geometry": { "type": "Point", "coordinates": [ 136.9543261, 34.999701 ] } },
{ "type": "Feature", "properties": { "URL": "https://www.kaigokensaku.mhlw.go.jp/23/index.php?action_kouhyou_detail_023_kani=true&JigyosyoCd=2375000110-00&ServiceCd=510&Type=search", "名称": "特別養護老人ホーム　愛知たいようの杜　ハモリー館", "内容2": null, "郵便番号": null, "所在地": "〒480-1148愛知県長久手市根嶽1201", "区分": "老人福祉施設", "緯度": 35.1630165, "経度": 137.0233513, "サービス提供地域": "－" }, "geometry": { "type": "Point", "coordinates": [ 137.0233513, 35.1630165 ] } },
{ "type": "Feature", "properties": { "URL": "https://www.kaigokensaku.mhlw.go.jp/23/index.php?action_kouhyou_detail_023_kani=true&JigyosyoCd=2375001043-00&ServiceCd=510&Type=search", "名称": "特別養護老人ホーム　愛知たいようの杜　杜っと館", "内容2": null, "郵便番号": null, "所在地": "〒480-1148愛知県長久手市根嶽1201", "区分": "老人福祉施設", "緯度": 35.1630165, "経度": 137.0233513, "サービス提供地域": "－" }, "geometry": { "type": "Point", "coordinates": [ 137.0233513, 35.1630165 ] } },
{ "type": "Feature", "properties": { "URL": "https://www.kaigokensaku.mhlw.go.jp/23/index.php?action_kouhyou_detail_023_kani=true&JigyosyoCd=2375700180-00&ServiceCd=510&Type=search", "名称": "特別養護老人ホーム　東和荘", "内容2": null, "郵便番号": null, "所在地": "〒470-2103愛知県知多郡東浦町大字石浜字飛山池上41番地", "区分": "老人福祉施設", "緯度": 34.957619, "経度": 136.9579414, "サービス提供地域": "－" }, "geometry": { "type": "Point", "coordinates": [ 136.95794140000001, 34.957619 ] } },
{ "type": "Feature", "properties": { "URL": "https://www.kaigokensaku.mhlw.go.jp/23/index.php?action_kouhyou_detail_023_kani=true&JigyosyoCd=2374100721-00&ServiceCd=510&Type=search", "名称": "特別養護老人ホーム　東海福寿園", "内容2": null, "郵便番号": null, "所在地": "〒477-0033愛知県東海市中ノ池３丁目１番地の９", "区分": "老人福祉施設", "緯度": 34.9982453, "経度": 136.898625, "サービス提供地域": "－" }, "geometry": { "type": "Point", "coordinates": [ 136.898625, 34.9982453 ] } },
{ "type": "Feature", "properties": { "URL": "https://www.kaigokensaku.mhlw.go.jp/23/index.php?action_kouhyou_detail_023_kani=true&JigyosyoCd=2373301270-00&ServiceCd=510&Type=search", "名称": "特別養護老人ホーム　楓の杜", "内容2": null, "郵便番号": null, "所在地": "〒443-0007愛知県蒲郡市神ノ郷町下向山35番地", "区分": "老人福祉施設", "緯度": 34.845211, "経度": 137.221563, "サービス提供地域": "－" }, "geometry": { "type": "Point", "coordinates": [ 137.221563, 34.845211 ] } },
{ "type": "Feature", "properties": { "URL": "https://www.kaigokensaku.mhlw.go.jp/23/index.php?action_kouhyou_detail_023_kani=true&JigyosyoCd=2371500162-00&ServiceCd=510&Type=search", "名称": "特別養護老人ホーム　極楽苑", "内容2": null, "郵便番号": null, "所在地": "〒465-0064名古屋市名東区大針一丁目265番地", "区分": "老人福祉施設", "緯度": 35.1551895, "経度": 137.0238512, "サービス提供地域": "－" }, "geometry": { "type": "Point", "coordinates": [ 137.0238512, 35.1551895 ] } },
{ "type": "Feature", "properties": { "URL": "https://www.kaigokensaku.mhlw.go.jp/23/index.php?action_kouhyou_detail_023_kani=true&JigyosyoCd=2372000287-00&ServiceCd=510&Type=search", "名称": "特別養護老人ホーム　永生苑豊橋", "内容2": null, "郵便番号": null, "所在地": "〒440-0081愛知県豊橋市大村町字花次８３", "区分": "老人福祉施設", "緯度": 34.7947485, "経度": 137.3871391, "サービス提供地域": "－" }, "geometry": { "type": "Point", "coordinates": [ 137.387139100000013, 34.7947485 ] } },
{ "type": "Feature", "properties": { "URL": "https://www.kaigokensaku.mhlw.go.jp/23/index.php?action_kouhyou_detail_023_kani=true&JigyosyoCd=2372000295-00&ServiceCd=510&Type=search", "名称": "特別養護老人ホーム　王寿園", "内容2": null, "郵便番号": null, "所在地": "〒441-3213愛知県豊橋市小松原町字浜４１番地", "区分": "老人福祉施設", "緯度": 34.6691284, "経度": 137.4382172, "サービス提供地域": "－" }, "geometry": { "type": "Point", "coordinates": [ 137.4382172, 34.6691284 ] } },
{ "type": "Feature", "properties": { "URL": "https://www.kaigokensaku.mhlw.go.jp/23/index.php?action_kouhyou_detail_023_kani=true&JigyosyoCd=2372400149-00&ServiceCd=510&Type=search", "名称": "特別養護老人ホーム　瑞光の里", "内容2": null, "郵便番号": null, "所在地": "〒475-0934愛知県半田市椎ノ木町一丁目６９番地", "区分": "老人福祉施設", "緯度": 34.8843837, "経度": 136.8802221, "サービス提供地域": "－" }, "geometry": { "type": "Point", "coordinates": [ 136.8802221, 34.8843837 ] } },
{ "type": "Feature", "properties": { "URL": "https://www.kaigokensaku.mhlw.go.jp/23/index.php?action_kouhyou_detail_023_kani=true&JigyosyoCd=2372401402-00&ServiceCd=510&Type=search", "名称": "特別養護老人ホーム　瑞光の里ユニット型", "内容2": null, "郵便番号": null, "所在地": "〒475-0934愛知県半田市椎ノ木町一丁目６９番地", "区分": "老人福祉施設", "緯度": 34.8843837, "経度": 136.8802221, "サービス提供地域": "－" }, "geometry": { "type": "Point", "coordinates": [ 136.8802221, 34.8843837 ] } },
{ "type": "Feature", "properties": { "URL": "https://www.kaigokensaku.mhlw.go.jp/23/index.php?action_kouhyou_detail_023_kani=true&JigyosyoCd=2372601142-00&ServiceCd=510&Type=search", "名称": "特別養護老人ホーム　秋桜の里", "内容2": null, "郵便番号": null, "所在地": "〒442-0006愛知県豊川市三蔵子町北浦4番地", "区分": "老人福祉施設", "緯度": 34.8453972, "経度": 137.3821093, "サービス提供地域": "－" }, "geometry": { "type": "Point", "coordinates": [ 137.3821093, 34.8453972 ] } },
{ "type": "Feature", "properties": { "URL": "https://www.kaigokensaku.mhlw.go.jp/23/index.php?action_kouhyou_detail_023_kani=true&JigyosyoCd=2373002233-00&ServiceCd=510&Type=search", "名称": "特別養護老人ホーム　笑いの家", "内容2": null, "郵便番号": null, "所在地": "〒444-2212愛知県豊田市滝脇町杉長入23", "区分": "老人福祉施設", "緯度": 35.0396129, "経度": 137.2481878, "サービス提供地域": "－" }, "geometry": { "type": "Point", "coordinates": [ 137.248187800000011, 35.0396129 ] } },
{ "type": "Feature", "properties": { "URL": "https://www.kaigokensaku.mhlw.go.jp/23/index.php?action_kouhyou_detail_023_kani=true&JigyosyoCd=2372400669-00&ServiceCd=510&Type=search", "名称": "特別養護老人ホーム　第二瑞光の里", "内容2": null, "郵便番号": null, "所在地": "〒475-0914半田市土井山町二丁目１０５番地", "区分": "老人福祉施設", "緯度": 34.8984505, "経度": 136.905351, "サービス提供地域": "－" }, "geometry": { "type": "Point", "coordinates": [ 136.905351, 34.8984505 ] } },
{ "type": "Feature", "properties": { "URL": "https://www.kaigokensaku.mhlw.go.jp/23/index.php?action_kouhyou_detail_023_kani=true&JigyosyoCd=2370801868-00&ServiceCd=510&Type=search", "名称": "特別養護老人ホーム　美保岐の丘", "内容2": null, "郵便番号": null, "所在地": "〒467-0027愛知県名古屋市瑞穂区田辺通一丁目21番地", "区分": "老人福祉施設", "緯度": 35.1356229, "経度": 136.9446764, "サービス提供地域": "－" }, "geometry": { "type": "Point", "coordinates": [ 136.9446764, 35.1356229 ] } },
{ "type": "Feature", "properties": { "URL": "https://www.kaigokensaku.mhlw.go.jp/23/index.php?action_kouhyou_detail_023_kani=true&JigyosyoCd=2373300124-00&ServiceCd=510&Type=search", "名称": "特別養護老人ホーム　蒲郡眺海園", "内容2": null, "郵便番号": null, "所在地": "〒443-0038愛知県蒲郡市拾石町浅岡１－７ 蒲郡眺海園", "区分": "老人福祉施設", "緯度": 34.8140025, "経度": 137.198499, "サービス提供地域": "－" }, "geometry": { "type": "Point", "coordinates": [ 137.198499, 34.8140025 ] } },
{ "type": "Feature", "properties": { "URL": "https://www.kaigokensaku.mhlw.go.jp/23/index.php?action_kouhyou_detail_023_kani=true&JigyosyoCd=2372004669-00&ServiceCd=510&Type=search", "名称": "特別養護老人ホーム　谷川王寿園", "内容2": null, "郵便番号": null, "所在地": "〒441-3106愛知県豊橋市中原町字西荒神11", "区分": "老人福祉施設", "緯度": 34.7284651, "経度": 137.4711713, "サービス提供地域": "－" }, "geometry": { "type": "Point", "coordinates": [ 137.4711713, 34.7284651 ] } },
{ "type": "Feature", "properties": { "URL": "https://www.kaigokensaku.mhlw.go.jp/23/index.php?action_kouhyou_detail_023_kani=true&JigyosyoCd=2374800098-00&ServiceCd=510&Type=search", "名称": "特別養護老人ホーム　豊明苑", "内容2": null, "郵便番号": null, "所在地": "〒470-1166愛知県豊明市栄町大根1-143", "区分": "老人福祉施設", "緯度": 35.0469983, "経度": 136.9795162, "サービス提供地域": "－" }, "geometry": { "type": "Point", "coordinates": [ 136.9795162, 35.0469983 ] } },
{ "type": "Feature", "properties": { "URL": "https://www.kaigokensaku.mhlw.go.jp/23/index.php?action_kouhyou_detail_023_kani=true&JigyosyoCd=2373000229-00&ServiceCd=510&Type=search", "名称": "特別養護老人ホーム　豊田福寿園", "内容2": null, "郵便番号": null, "所在地": "〒470-0376愛知県豊田市高町東山７－４６", "区分": "老人福祉施設", "緯度": 35.1319949, "経度": 137.1752885, "サービス提供地域": "－" }, "geometry": { "type": "Point", "coordinates": [ 137.1752885, 35.1319949 ] } },
{ "type": "Feature", "properties": { "URL": "https://www.kaigokensaku.mhlw.go.jp/23/index.php?action_kouhyou_detail_023_kani=true&JigyosyoCd=2376500456-00&ServiceCd=510&Type=search", "名称": "特別養護老人ホームあおい", "内容2": null, "郵便番号": null, "所在地": "〒441-0101豊川市宿町金山93番地", "区分": "老人福祉施設", "緯度": 34.8046639, "経度": 137.362805, "サービス提供地域": "－" }, "geometry": { "type": "Point", "coordinates": [ 137.362805, 34.8046639 ] } },
{ "type": "Feature", "properties": { "URL": "https://www.kaigokensaku.mhlw.go.jp/23/index.php?action_kouhyou_detail_023_kani=true&JigyosyoCd=2370901965-00&ServiceCd=510&Type=search", "名称": "特別養護老人ホームあつたファミリア", "内容2": null, "郵便番号": null, "所在地": "〒456-0058愛知県名古屋市熱田区六番一丁目1番5号", "区分": "老人福祉施設", "緯度": 35.1262693, "経度": 136.8892663, "サービス提供地域": "－" }, "geometry": { "type": "Point", "coordinates": [ 136.8892663, 35.1262693 ] } },
{ "type": "Feature", "properties": { "URL": "https://www.kaigokensaku.mhlw.go.jp/23/index.php?action_kouhyou_detail_023_kani=true&JigyosyoCd=2374400733-00&ServiceCd=510&Type=search", "名称": "特別養護老人ホームかおん", "内容2": null, "郵便番号": null, "所在地": "〒472-0026愛知県知立市上重原町蔵福寺１６２", "区分": "老人福祉施設", "緯度": 34.9972695, "経度": 137.0365958, "サービス提供地域": "－" }, "geometry": { "type": "Point", "coordinates": [ 137.036595799999986, 34.9972695 ] } },