{
"type": "FeatureCollection",
"name": "geo_老人保健施設",
"crs": { "type": "name", "properties": { "name": "urn:ogc:def:crs:OGC:1.3:CRS84" } },
"features": [
{ "type": "Feature", "properties": { "URL": "https://www.kaigokensaku.mhlw.go.jp/23/index.php?action_kouhyou_detail_023_kani=true&JigyosyoCd=2355780038-00&ServiceCd=520&Type=search", "名称": "介護老人保健施設　榊原", "内容2": null, "郵便番号": null, "所在地": "〒470-2531愛知県知多郡武豊町大字冨貴字西側108番地５", "区分": "老人保健施設", "緯度": 34.8257879, "経度": 136.9068131, "サービス提供地域": "－" }, "geometry": { "type": "Point", "coordinates": [ 136.9068131, 34.8257879 ] } },
{ "type": "Feature", "properties": { "URL": "https://www.kaigokensaku.mhlw.go.jp/23/index.php?action_kouhyou_detail_023_kani=true&JigyosyoCd=2370701787-00&ServiceCd=520&Type=search", "名称": "介護老人保健施設いつきの里石川橋", "内容2": null, "郵便番号": null, "所在地": "〒466-0842名古屋市昭和区檀渓通5丁目26番地", "区分": "老人保健施設", "緯度": 35.1384044, "経度": 136.9451484, "サービス提供地域": "－" }, "geometry": { "type": "Point", "coordinates": [ 136.9451484, 35.1384044 ] } },
{ "type": "Feature", "properties": { "URL": "https://www.kaigokensaku.mhlw.go.jp/23/index.php?action_kouhyou_detail_023_kani=true&JigyosyoCd=2351280017-00&ServiceCd=520&Type=search", "名称": "老人保健施設シルピス大磯", "内容2": null, "郵便番号": null, "所在地": "〒457-0043名古屋市南区戸部町三丁目５５番地", "区分": "老人保健施設", "緯度": 35.1007607, "経度": 136.930168, "サービス提供地域": "－" }, "geometry": { "type": "Point", "coordinates": [ 136.930168, 35.1007607 ] } },
{ "type": "Feature", "properties": { "URL": "https://www.kaigokensaku.mhlw.go.jp/23/index.php?action_kouhyou_detail_023_kani=true&JigyosyoCd=2357280011-00&ServiceCd=520&Type=search", "名称": "介護老人保健施設ハレルヤ園", "内容2": null, "郵便番号": null, "所在地": "〒496-0911愛知県愛西市西保町北川原179-145", "区分": "老人保健施設", "緯度": 35.1444914, "経度": 136.7099153, "サービス提供地域": "－" }, "geometry": { "type": "Point", "coordinates": [ 136.7099153, 35.1444914 ] } },
{ "type": "Feature", "properties": { "URL": "https://www.kaigokensaku.mhlw.go.jp/23/index.php?action_kouhyou_detail_023_kani=true&JigyosyoCd=2352780049-00&ServiceCd=520&Type=search", "名称": "ユニット型介護老人保健施設第２六寿苑", "内容2": null, "郵便番号": null, "所在地": "〒496-0033愛知県津島市杁前町５丁目３１番地１", "区分": "老人保健施設", "緯度": 35.1656348, "経度": 136.7459791, "サービス提供地域": "－" }, "geometry": { "type": "Point", "coordinates": [ 136.7459791, 35.1656348 ] } },
{ "type": "Feature", "properties": { "URL": "https://www.kaigokensaku.mhlw.go.jp/23/index.php?action_kouhyou_detail_023_kani=true&JigyosyoCd=2353080027-00&ServiceCd=520&Type=search", "名称": "老人保健施設ウェルビー", "内容2": null, "郵便番号": null, "所在地": "〒471-0078愛知県四郷町宮下河原38-1", "区分": "老人保健施設", "緯度": 35.1274641, "経度": 137.1611933, "サービス提供地域": "－" }, "geometry": { "type": "Point", "coordinates": [ 137.1611933, 35.1274641 ] } },
{ "type": "Feature", "properties": { "URL": "https://www.kaigokensaku.mhlw.go.jp/23/index.php?action_kouhyou_detail_023_kani=true&JigyosyoCd=2352780056-00&ServiceCd=520&Type=search", "名称": "介護老人保健施設第２六寿苑", "内容2": null, "郵便番号": null, "所在地": "〒496-0033愛知県津島市杁前町５丁目３１番地１", "区分": "老人保健施設", "緯度": 35.1656348, "経度": 136.7459791, "サービス提供地域": "－" }, "geometry": { "type": "Point", "coordinates": [ 136.7459791, 35.1656348 ] } },
{ "type": "Feature", "properties": { "URL": "https://www.kaigokensaku.mhlw.go.jp/23/index.php?action_kouhyou_detail_023_kani=true&JigyosyoCd=2354280006-00&ServiceCd=520&Type=search", "名称": "介護老人保健施設　ルミナス大府", "内容2": null, "郵便番号": null, "所在地": "〒474-0037愛知県大府市半月町三丁目290番地", "区分": "老人保健施設", "緯度": 34.9971466, "経度": 136.9428249, "サービス提供地域": "－" }, "geometry": { "type": "Point", "coordinates": [ 136.9428249, 34.9971466 ] } },
{ "type": "Feature", "properties": { "URL": "https://www.kaigokensaku.mhlw.go.jp/23/index.php?action_kouhyou_detail_023_kani=true&JigyosyoCd=2353980010-00&ServiceCd=520&Type=search", "名称": "医療法人回精会　稲沢老人保健施設第２憩の泉", "内容2": null, "郵便番号": null, "所在地": "〒492-8143愛知県稲沢市駅前２丁目２５番１５号", "区分": "老人保健施設", "緯度": 35.2501481, "経度": 136.8219993, "サービス提供地域": "－" }, "geometry": { "type": "Point", "coordinates": [ 136.821999299999987, 35.2501481 ] } },
{ "type": "Feature", "properties": { "URL": "https://www.kaigokensaku.mhlw.go.jp/23/index.php?action_kouhyou_detail_023_kani=true&JigyosyoCd=2353980002-00&ServiceCd=520&Type=search", "名称": "医療法人回精会　稲沢老人保健施設第１憩の泉", "内容2": null, "郵便番号": null, "所在地": "〒492-8143愛知県稲沢市駅前２丁目２７番３号", "区分": "老人保健施設", "緯度": 35.2498021, "経度": 136.8208876, "サービス提供地域": "－" }, "geometry": { "type": "Point", "coordinates": [ 136.8208876, 35.2498021 ] } },
{ "type": "Feature", "properties": { "URL": "https://www.kaigokensaku.mhlw.go.jp/23/index.php?action_kouhyou_detail_023_kani=true&JigyosyoCd=2350780025-00&ServiceCd=520&Type=search", "名称": "介護老人保健施設タキガワアリア", "内容2": null, "郵便番号": null, "所在地": "〒466-0827川名山町6番地の4", "区分": "老人保健施設", "緯度": 35.1461528, "経度": 136.9606215, "サービス提供地域": "－" }, "geometry": { "type": "Point", "coordinates": [ 136.9606215, 35.1461528 ] } },
{ "type": "Feature", "properties": { "URL": "https://www.kaigokensaku.mhlw.go.jp/23/index.php?action_kouhyou_detail_023_kani=true&JigyosyoCd=2350680027-00&ServiceCd=520&Type=search", "名称": "介護老人保健施設セントラーレ", "内容2": null, "郵便番号": null, "所在地": "〒460-0022名古屋市中区金山五丁目8番1号", "区分": "老人保健施設", "緯度": 35.1463283, "経度": 136.9100387, "サービス提供地域": "－" }, "geometry": { "type": "Point", "coordinates": [ 136.9100387, 35.1463283 ] } },
{ "type": "Feature", "properties": { "URL": "https://www.kaigokensaku.mhlw.go.jp/23/index.php?action_kouhyou_detail_023_kani=true&JigyosyoCd=2354380004-00&ServiceCd=520&Type=search", "名称": "老人保健施設　　知多苑", "内容2": null, "郵便番号": null, "所在地": "〒478-0041愛知県知多市日長字上種廻間６１番１", "区分": "老人保健施設", "緯度": 34.958984, "経度": 136.8549041, "サービス提供地域": "－" }, "geometry": { "type": "Point", "coordinates": [ 136.8549041, 34.958984 ] } },
{ "type": "Feature", "properties": { "URL": "https://www.kaigokensaku.mhlw.go.jp/23/index.php?action_kouhyou_detail_023_kani=true&JigyosyoCd=2355980018-00&ServiceCd=520&Type=search", "名称": "介護老人保健施設らくらく一色", "内容2": null, "郵便番号": null, "所在地": "〒444-0403愛知県西尾市一色町松木島丸山54番地", "区分": "老人保健施設", "緯度": 34.7938822, "経度": 137.0420395, "サービス提供地域": "－" }, "geometry": { "type": "Point", "coordinates": [ 137.042039499999987, 34.7938822 ] } },
{ "type": "Feature", "properties": { "URL": "https://www.kaigokensaku.mhlw.go.jp/23/index.php?action_kouhyou_detail_023_kani=true&JigyosyoCd=2356480000-00&ServiceCd=520&Type=search", "名称": "介護老人保健施設　鳳来ケアセンター", "内容2": null, "郵便番号": null, "所在地": "〒441-1621愛知県新城市下吉田字下田18番地の3", "区分": "老人保健施設", "緯度": 34.9101032, "経度": 137.604733, "サービス提供地域": "－" }, "geometry": { "type": "Point", "coordinates": [ 137.604733, 34.9101032 ] } },
{ "type": "Feature", "properties": { "URL": "https://www.kaigokensaku.mhlw.go.jp/23/index.php?action_kouhyou_detail_023_kani=true&JigyosyoCd=2352280040-00&ServiceCd=520&Type=search", "名称": "医療法人尾張健友会　介護老人保健施設ちあき", "内容2": null, "郵便番号": null, "所在地": "〒491-0821愛知県一宮市丹陽町重吉字新田裏東切1077-1 介護老人保健施設ちあき", "区分": "老人保健施設", "緯度": 35.288082, "経度": 136.8466369, "サービス提供地域": "－" }, "geometry": { "type": "Point", "coordinates": [ 136.8466369, 35.288082 ] } },
{ "type": "Feature", "properties": { "URL": "https://www.kaigokensaku.mhlw.go.jp/23/index.php?action_kouhyou_detail_023_kani=true&JigyosyoCd=2352580050-00&ServiceCd=520&Type=search", "名称": "介護老人保健施設エスペラル東春", "内容2": null, "郵便番号": null, "所在地": "〒486-0911愛知県春日井市西高山町３丁目６番地の１２", "区分": "老人保健施設", "緯度": 35.2551671, "経度": 136.9497759, "サービス提供地域": "－" }, "geometry": { "type": "Point", "coordinates": [ 136.9497759, 35.2551671 ] } },
{ "type": "Feature", "properties": { "URL": "https://www.kaigokensaku.mhlw.go.jp/23/index.php?action_kouhyou_detail_023_kani=true&JigyosyoCd=2352280065-00&ServiceCd=520&Type=search", "名称": "介護老人保健施設サザン一宮", "内容2": null, "郵便番号": null, "所在地": "〒491-0013愛知県一宮市北小渕字道上55-番地1", "区分": "老人保健施設", "緯度": 35.3041309, "経度": 136.8299004, "サービス提供地域": "－" }, "geometry": { "type": "Point", "coordinates": [ 136.829900400000014, 35.3041309 ] } },
{ "type": "Feature", "properties": { "URL": "https://www.kaigokensaku.mhlw.go.jp/23/index.php?action_kouhyou_detail_023_kani=true&JigyosyoCd=2355680022-00&ServiceCd=520&Type=search", "名称": "介護老人保健施設セーヌ蟹江", "内容2": null, "郵便番号": null, "所在地": "〒497-0036愛知県海部郡蟹江町須成西七丁目９０番地１", "区分": "老人保健施設", "緯度": 35.1405031, "経度": 136.784423, "サービス提供地域": "－" }, "geometry": { "type": "Point", "coordinates": [ 136.784423, 35.1405031 ] } },
{ "type": "Feature", "properties": { "URL": "https://www.kaigokensaku.mhlw.go.jp/23/index.php?action_kouhyou_detail_023_kani=true&JigyosyoCd=2352280008-00&ServiceCd=520&Type=search", "名称": "老人保健施設アウン", "内容2": null, "郵便番号": null, "所在地": "〒491-0101愛知県一宮市浅井町尾関字同者165", "区分": "老人保健施設", "緯度": 35.3497808, "経度": 136.8324737, "サービス提供地域": "－" }, "geometry": { "type": "Point", "coordinates": [ 136.8324737, 35.3497808 ] } },
{ "type": "Feature", "properties": { "URL": "https://www.kaigokensaku.mhlw.go.jp/23/index.php?action_kouhyou_detail_023_kani=true&JigyosyoCd=2353480003-00&ServiceCd=520&Type=search", "名称": "老人保健施設フローレンス犬山", "内容2": null, "郵便番号": null, "所在地": "〒484-0888愛知県犬山市大字羽黒新田字下蝉屋7-1", "区分": "老人保健施設", "緯度": 35.3460008, "経度": 136.9488503, "サービス提供地域": "－" }, "geometry": { "type": "Point", "coordinates": [ 136.9488503, 35.3460008 ] } },
{ "type": "Feature", "properties": { "URL": "https://www.kaigokensaku.mhlw.go.jp/23/index.php?action_kouhyou_detail_023_kani=true&JigyosyoCd=2355080009-00&ServiceCd=520&Type=search", "名称": "老人保健施設　和合の里", "内容2": null, "郵便番号": null, "所在地": "〒470-0162愛知県愛知郡東郷町大字春木字白土１－３９５", "区分": "老人保健施設", "緯度": 35.1053339, "経度": 137.0315319, "サービス提供地域": "－" }, "geometry": { "type": "Point", "coordinates": [ 137.0315319, 35.1053339 ] } },
{ "type": "Feature", "properties": { "URL": "https://www.kaigokensaku.mhlw.go.jp/23/index.php?action_kouhyou_detail_023_kani=true&JigyosyoCd=2352980003-00&ServiceCd=520&Type=search", "名称": "介護老人保健施設　ハビリス 一ツ木", "内容2": null, "郵便番号": null, "所在地": "〒448-0003愛知県刈谷市一ツ木町4丁目41番地4", "区分": "老人保健施設", "緯度": 35.0139623, "経度": 137.0230184, "サービス提供地域": "－" }, "geometry": { "type": "Point", "coordinates": [ 137.023018400000012, 35.0139623 ] } },
{ "type": "Feature", "properties": { "URL": "https://www.kaigokensaku.mhlw.go.jp/23/index.php?action_kouhyou_detail_023_kani=true&JigyosyoCd=2355280013-00&ServiceCd=520&Type=search", "名称": "老人保健施設洋洋園", "内容2": null, "郵便番号": null, "所在地": "〒481-0039愛知県北名古屋市法成寺松の木４７番地", "区分": "老人保健施設", "緯度": 35.2548293, "経度": 136.8600222, "サービス提供地域": "－" }, "geometry": { "type": "Point", "coordinates": [ 136.8600222, 35.2548293 ] } },
{ "type": "Feature", "properties": { "URL": "https://www.kaigokensaku.mhlw.go.jp/23/index.php?action_kouhyou_detail_023_kani=true&JigyosyoCd=2354880003-00&ServiceCd=520&Type=search", "名称": "豊明老人保健施設", "内容2": null, "郵便番号": null, "所在地": "〒470-1101愛知県豊明市沓掛町桟敷30－7", "区分": "老人保健施設", "緯度": 35.0829228, "経度": 137.0207475, "サービス提供地域": "－" }, "geometry": { "type": "Point", "coordinates": [ 137.0207475, 35.0829228 ] } },
{ "type": "Feature", "properties": { "URL": "https://www.kaigokensaku.mhlw.go.jp/23/index.php?action_kouhyou_detail_023_kani=true&JigyosyoCd=2352780007-00&ServiceCd=520&Type=search", "名称": "老人保健施設　第一アメニティつしま", "内容2": null, "郵便番号": null, "所在地": "〒496-0045愛知県津島市東柳原町3丁目47-1", "区分": "老人保健施設", "緯度": 35.1792553, "経度": 136.7375173, "サービス提供地域": "－" }, "geometry": { "type": "Point", "coordinates": [ 136.7375173, 35.1792553 ] } },
{ "type": "Feature", "properties": { "URL": "https://www.kaigokensaku.mhlw.go.jp/23/index.php?action_kouhyou_detail_023_kani=true&JigyosyoCd=2352680025-00&ServiceCd=520&Type=search", "名称": "医療法人啓仁会　介護老人保健施設　たんぽぽ", "内容2": null, "郵便番号": null, "所在地": "〒442-0851愛知県豊川市野口町道下３１番地", "区分": "老人保健施設", "緯度": 34.8295404, "経度": 137.3569236, "サービス提供地域": "－" }, "geometry": { "type": "Point", "coordinates": [ 137.356923599999988, 34.8295404 ] } },
{ "type": "Feature", "properties": { "URL": "https://www.kaigokensaku.mhlw.go.jp/23/index.php?action_kouhyou_detail_023_kani=true&JigyosyoCd=2352580019-00&ServiceCd=520&Type=search", "名称": "介護老人保健施設　メディコ春日井", "内容2": null, "郵便番号": null, "所在地": "〒480-0305愛知県春日井市坂下町5丁目1221番１", "区分": "老人保健施設", "緯度": 35.2871514, "経度": 137.0263032, "サービス提供地域": "－" }, "geometry": { "type": "Point", "coordinates": [ 137.0263032, 35.2871514 ] } },
{ "type": "Feature", "properties": { "URL": "https://www.kaigokensaku.mhlw.go.jp/23/index.php?action_kouhyou_detail_023_kani=true&JigyosyoCd=2353180017-00&ServiceCd=520&Type=search", "名称": "介護老人保健施設あおみ", "内容2": null, "郵便番号": null, "所在地": "〒446-8602愛知県安城市安城町東広畔28番地", "区分": "老人保健施設", "緯度": 34.9392967, "経度": 137.0786431, "サービス提供地域": "－" }, "geometry": { "type": "Point", "coordinates": [ 137.0786431, 34.9392967 ] } },
{ "type": "Feature", "properties": { "URL": "https://www.kaigokensaku.mhlw.go.jp/23/index.php?action_kouhyou_detail_023_kani=true&JigyosyoCd=2353880012-00&ServiceCd=520&Type=search", "名称": "老人保健施設　こまきの森", "内容2": null, "郵便番号": null, "所在地": "〒485-0075愛知県小牧市大字三ツ渕１９４５番地１", "区分": "老人保健施設", "緯度": 35.3032455, "経度": 136.8925049, "サービス提供地域": "－" }, "geometry": { "type": "Point", "coordinates": [ 136.8925049, 35.3032455 ] } },
{ "type": "Feature", "properties": { "URL": "https://www.kaigokensaku.mhlw.go.jp/23/index.php?action_kouhyou_detail_023_kani=true&JigyosyoCd=2355780012-00&ServiceCd=520&Type=search", "名称": "老人保健施設サンバーデン", "内容2": null, "郵便番号": null, "所在地": "〒470-3235愛知県知多郡美浜町大字野間字新前田１７９番地の４", "区分": "老人保健施設", "緯度": 34.7682013, "経度": 136.8525352, "サービス提供地域": "－" }, "geometry": { "type": "Point", "coordinates": [ 136.8525352, 34.7682013 ] } },
{ "type": "Feature", "properties": { "URL": "https://www.kaigokensaku.mhlw.go.jp/23/index.php?action_kouhyou_detail_023_kani=true&JigyosyoCd=2357580014-00&ServiceCd=520&Type=search", "名称": "介護老人保健施設　ペジーブル弥富", "内容2": null, "郵便番号": null, "所在地": "〒490-1405愛知県弥富市神戸二丁目５３番地", "区分": "老人保健施設", "緯度": 35.1003148, "経度": 136.7712186, "サービス提供地域": "－" }, "geometry": { "type": "Point", "coordinates": [ 136.7712186, 35.1003148 ] } },
{ "type": "Feature", "properties": { "URL": "https://www.kaigokensaku.mhlw.go.jp/23/index.php?action_kouhyou_detail_023_kani=true&JigyosyoCd=2353080035-00&ServiceCd=520&Type=search", "名称": "老人保健施設かずえの郷", "内容2": null, "郵便番号": null, "所在地": "〒470-1216愛知県豊田市和会町東郷148番地", "区分": "老人保健施設", "緯度": 35.0034372, "経度": 137.1139079, "サービス提供地域": "－" }, "geometry": { "type": "Point", "coordinates": [ 137.113907899999987, 35.0034372 ] } },
{ "type": "Feature", "properties": { "URL": "https://www.kaigokensaku.mhlw.go.jp/23/index.php?action_kouhyou_detail_023_kani=true&JigyosyoCd=2353080068-00&ServiceCd=520&Type=search", "名称": "ユニット型介護老人保健施設さなげ", "内容2": null, "郵便番号": null, "所在地": "〒470-0343愛知県豊田市浄水町原山1番地54", "区分": "老人保健施設", "緯度": 35.1249124, "経度": 137.1470917, "サービス提供地域": "－" }, "geometry": { "type": "Point", "coordinates": [ 137.1470917, 35.1249124 ] } },
{ "type": "Feature", "properties": { "URL": "https://www.kaigokensaku.mhlw.go.jp/23/index.php?action_kouhyou_detail_023_kani=true&JigyosyoCd=2353080043-00&ServiceCd=520&Type=search", "名称": "介護老人保健施設さなげ", "内容2": null, "郵便番号": null, "所在地": "〒470-0343愛知県豊田市浄水町原山1番地54", "区分": "老人保健施設", "緯度": 35.1249124, "経度": 137.1470917, "サービス提供地域": "－" }, "geometry": { "type": "Point", "coordinates": [ 137.1470917, 35.1249124 ] } },
{ "type": "Feature", "properties": { "URL": "https://www.kaigokensaku.mhlw.go.jp/23/index.php?action_kouhyou_detail_023_kani=true&JigyosyoCd=2351280033-00&ServiceCd=520&Type=search", "名称": "名南介護老人保健施設かたらいの里", "内容2": null, "郵便番号": null, "所在地": "〒457-0841愛知県名古屋市南区豊田五丁目１５番１８号", "区分": "老人保健施設", "緯度": 35.1014663, "経度": 136.9151428, "サービス提供地域": "－" }, "geometry": { "type": "Point", "coordinates": [ 136.915142800000012, 35.1014663 ] } },
{ "type": "Feature", "properties": { "URL": "https://www.kaigokensaku.mhlw.go.jp/23/index.php?action_kouhyou_detail_023_kani=true&JigyosyoCd=2355680006-00&ServiceCd=520&Type=search", "名称": "四季の里", "内容2": null, "郵便番号": null, "所在地": "〒490-1144愛知県海部郡大治町大字西條字柳原３７－１", "区分": "老人保健施設", "緯度": 35.1864715, "経度": 136.8132146, "サービス提供地域": "－" }, "geometry": { "type": "Point", "coordinates": [ 136.8132146, 35.1864715 ] } },
{ "type": "Feature", "properties": { "URL": "https://www.kaigokensaku.mhlw.go.jp/23/index.php?action_kouhyou_detail_023_kani=true&JigyosyoCd=2355780020-00&ServiceCd=520&Type=search", "名称": "社会福祉法人愛光園　老人保健施設相生", "内容2": null, "郵便番号": null, "所在地": "〒470-2102愛知県知多郡東浦町緒川東米田１６", "区分": "老人保健施設", "緯度": 34.9789877, "経度": 136.9381255, "サービス提供地域": "－" }, "geometry": { "type": "Point", "coordinates": [ 136.938125500000012, 34.9789877 ] } },
{ "type": "Feature", "properties": { "URL": "https://www.kaigokensaku.mhlw.go.jp/23/index.php?action_kouhyou_detail_023_kani=true&JigyosyoCd=2354880011-00&ServiceCd=520&Type=search", "名称": "豊明第二老人保健施設", "内容2": null, "郵便番号": null, "所在地": "〒470-1101愛知県豊明市沓掛町城塚1番地", "区分": "老人保健施設", "緯度": 35.0718866, "経度": 137.0176874, "サービス提供地域": "－" }, "geometry": { "type": "Point", "coordinates": [ 137.0176874, 35.0718866 ] } },
{ "type": "Feature", "properties": { "URL": "https://www.kaigokensaku.mhlw.go.jp/23/index.php?action_kouhyou_detail_023_kani=true&JigyosyoCd=2352480038-00&ServiceCd=520&Type=search", "名称": "介護老人保健施設　結生", "内容2": null, "郵便番号": null, "所在地": "〒475-0828半田市瑞穂町10丁目１７番地の２", "区分": "老人保健施設", "緯度": 34.8908104, "経度": 136.9435699, "サービス提供地域": "－" }, "geometry": { "type": "Point", "coordinates": [ 136.9435699, 34.8908104 ] } },
{ "type": "Feature", "properties": { "URL": "https://www.kaigokensaku.mhlw.go.jp/23/index.php?action_kouhyou_detail_023_kani=true&JigyosyoCd=2352580043-00&ServiceCd=520&Type=search", "名称": "介護老人保健施設　グレイスフル春日井", "内容2": null, "郵便番号": null, "所在地": "〒486-0802愛知県春日井市桃山町字北山5079-16 介護老人保健施設　グレイスフル春日井", "区分": "老人保健施設", "緯度": 35.2842418, "経度": 136.9659941, "サービス提供地域": "－" }, "geometry": { "type": "Point", "coordinates": [ 136.965994099999989, 35.2842418 ] } },
{ "type": "Feature", "properties": { "URL": "https://www.kaigokensaku.mhlw.go.jp/23/index.php?action_kouhyou_detail_023_kani=true&JigyosyoCd=2352480012-00&ServiceCd=520&Type=search", "名称": "医療法人宏友会　老人保健施設ゆうゆうの里", "内容2": null, "郵便番号": null, "所在地": "〒475-0006愛知県半田市南大矢知町２－２１－１", "区分": "老人保健施設", "緯度": 34.9264378, "経度": 136.9410522, "サービス提供地域": "－" }, "geometry": { "type": "Point", "coordinates": [ 136.9410522, 34.9264378 ] } },
{ "type": "Feature", "properties": { "URL": "https://www.kaigokensaku.mhlw.go.jp/23/index.php?action_kouhyou_detail_023_kani=true&JigyosyoCd=2355680014-00&ServiceCd=520&Type=search", "名称": "老人保健施設　七宝園", "内容2": null, "郵便番号": null, "所在地": "〒497-0012愛知県あま市七宝町下田矢倉下1433番地", "区分": "老人保健施設", "緯度": 35.1732692, "経度": 136.7843716, "サービス提供地域": "－" }, "geometry": { "type": "Point", "coordinates": [ 136.784371599999986, 35.1732692 ] } },
{ "type": "Feature", "properties": { "URL": "https://www.kaigokensaku.mhlw.go.jp/23/index.php?action_kouhyou_detail_023_kani=true&JigyosyoCd=2353980028-00&ServiceCd=520&Type=search", "名称": "介護老人保健施設　ベストライフ祖父江", "内容2": null, "郵便番号": null, "所在地": "〒495-0033愛知県稲沢市祖父江町四貫東堤外1201-70", "区分": "老人保健施設", "緯度": 35.2487146, "経度": 136.7063962, "サービス提供地域": "－" }, "geometry": { "type": "Point", "coordinates": [ 136.7063962, 35.2487146 ] } },
{ "type": "Feature", "properties": { "URL": "https://www.kaigokensaku.mhlw.go.jp/23/index.php?action_kouhyou_detail_023_kani=true&JigyosyoCd=2350380065-00&ServiceCd=520&Type=search", "名称": "リハビリパーク黒川", "内容2": null, "郵便番号": null, "所在地": "〒462-0853愛知県名古屋市北区志賀本通1丁目35番", "区分": "老人保健施設", "緯度": 35.1967706, "経度": 136.91743, "サービス提供地域": "－" }, "geometry": { "type": "Point", "coordinates": [ 136.91743, 35.1967706 ] } },
{ "type": "Feature", "properties": { "URL": "https://www.kaigokensaku.mhlw.go.jp/23/index.php?action_kouhyou_detail_023_kani=true&JigyosyoCd=2352480020-00&ServiceCd=520&Type=search", "名称": "小規模介護老人保健施設ゆうハウス", "内容2": null, "郵便番号": null, "所在地": "〒475-0005愛知県半田市横川町２－６８", "区分": "老人保健施設", "緯度": 34.9260155, "経度": 136.9432799, "サービス提供地域": "－" }, "geometry": { "type": "Point", "coordinates": [ 136.9432799, 34.9260155 ] } },
{ "type": "Feature", "properties": { "URL": "https://www.kaigokensaku.mhlw.go.jp/23/index.php?action_kouhyou_detail_023_kani=true&JigyosyoCd=2355380003-00&ServiceCd=520&Type=search", "名称": "老人保健施設ゆとり", "内容2": null, "郵便番号": null, "所在地": "〒480-0103愛知県丹羽郡扶桑町大字柏森字寺裏47番地", "区分": "老人保健施設", "緯度": 35.3512667, "経度": 136.9019996, "サービス提供地域": "－" }, "geometry": { "type": "Point", "coordinates": [ 136.901999600000011, 35.3512667 ] } },
{ "type": "Feature", "properties": { "URL": "https://www.kaigokensaku.mhlw.go.jp/23/index.php?action_kouhyou_detail_023_kani=true&JigyosyoCd=2351580044-00&ServiceCd=520&Type=search", "名称": "介護老人保健施設ひきやま", "内容2": null, "郵便番号": null, "所在地": "〒465-0002愛知県名古屋市名東区引山一丁目802番地", "区分": "老人保健施設", "緯度": 35.1901738, "経度": 136.9981625, "サービス提供地域": "－" }, "geometry": { "type": "Point", "coordinates": [ 136.9981625, 35.1901738 ] } },
{ "type": "Feature", "properties": { "URL": "https://www.kaigokensaku.mhlw.go.jp/23/index.php?action_kouhyou_detail_023_kani=true&JigyosyoCd=2350480006-00&ServiceCd=520&Type=search", "名称": "老人保健施設　ハートフルライフ西城", "内容2": null, "郵便番号": null, "所在地": "〒451-0024愛知県名古屋市西区秩父通2-36", "区分": "老人保健施設", "緯度": 35.1973968, "経度": 136.8941159, "サービス提供地域": "－" }, "geometry": { "type": "Point", "coordinates": [ 136.8941159, 35.1973968 ] } },
{ "type": "Feature", "properties": { "URL": "https://www.kaigokensaku.mhlw.go.jp/23/index.php?action_kouhyou_detail_023_kani=true&JigyosyoCd=2351080052-00&ServiceCd=520&Type=search", "名称": "ユニット型サテライト型小規模介護老人保健施設　シンセーロ", "内容2": null, "郵便番号": null, "所在地": "〒454-0963愛知県名古屋市中川区水里三丁目231番地", "区分": "老人保健施設", "緯度": 35.1275944, "経度": 136.8072994, "サービス提供地域": "－" }, "geometry": { "type": "Point", "coordinates": [ 136.8072994, 35.1275944 ] } },
{ "type": "Feature", "properties": { "URL": "https://www.kaigokensaku.mhlw.go.jp/23/index.php?action_kouhyou_detail_023_kani=true&JigyosyoCd=2351080086-00&ServiceCd=520&Type=search", "名称": "ユニット老健　華", "内容2": null, "郵便番号": null, "所在地": "〒454-0983愛知県名古屋市中川区東春田二丁目192番地", "区分": "老人保健施設", "緯度": 35.1411998, "経度": 136.8173454, "サービス提供地域": "－" }, "geometry": { "type": "Point", "coordinates": [ 136.8173454, 35.1411998 ] } },
{ "type": "Feature", "properties": { "URL": "https://www.kaigokensaku.mhlw.go.jp/23/index.php?action_kouhyou_detail_023_kani=true&JigyosyoCd=2352180042-00&ServiceCd=520&Type=search", "名称": "医療法人　鉄友会　介護老人保健施設さくらの里", "内容2": null, "郵便番号": null, "所在地": "〒444-0921愛知県岡崎市中岡崎町2番地25", "区分": "老人保健施設", "緯度": 34.9575713, "経度": 137.1547832, "サービス提供地域": "－" }, "geometry": { "type": "Point", "coordinates": [ 137.1547832, 34.9575713 ] } },
{ "type": "Feature", "properties": { "URL": "https://www.kaigokensaku.mhlw.go.jp/23/index.php?action_kouhyou_detail_023_kani=true&JigyosyoCd=2351680026-00&ServiceCd=520&Type=search", "名称": "医療法人並木会　介護老人保健施設メディコ平針", "内容2": null, "郵便番号": null, "所在地": "〒468-0013名古屋市天白区荒池二丁目1201番地", "区分": "老人保健施設", "緯度": 35.1167592, "経度": 137.0142654, "サービス提供地域": "－" }, "geometry": { "type": "Point", "coordinates": [ 137.0142654, 35.1167592 ] } },
{ "type": "Feature", "properties": { "URL": "https://www.kaigokensaku.mhlw.go.jp/23/index.php?action_kouhyou_detail_023_kani=true&JigyosyoCd=2351080045-00&ServiceCd=520&Type=search", "名称": "医療法人開生会　老人保健施設ラベンダー", "内容2": null, "郵便番号": null, "所在地": "〒454-0965愛知県名古屋市中川区福島一丁目148番地", "区分": "老人保健施設", "緯度": 35.1224494, "経度": 136.8001634, "サービス提供地域": "－" }, "geometry": { "type": "Point", "coordinates": [ 136.8001634, 35.1224494 ] } },
{ "type": "Feature", "properties": { "URL": "https://www.kaigokensaku.mhlw.go.jp/23/index.php?action_kouhyou_detail_023_kani=true&JigyosyoCd=2354580009-00&ServiceCd=520&Type=search", "名称": "介護老人保健施設　清風苑", "内容2": null, "郵便番号": null, "所在地": "〒488-0833愛知県尾張旭市東印場町二反田２８２番地の２", "区分": "老人保健施設", "緯度": 35.2065991, "経度": 137.0286983, "サービス提供地域": "－" }, "geometry": { "type": "Point", "coordinates": [ 137.0286983, 35.2065991 ] } },
{ "type": "Feature", "properties": { "URL": "https://www.kaigokensaku.mhlw.go.jp/23/index.php?action_kouhyou_detail_023_kani=true&JigyosyoCd=2352180018-00&ServiceCd=520&Type=search", "名称": "三田介護老人保健施設", "内容2": null, "郵便番号": null, "所在地": "〒444-0011愛知県岡崎市欠町字三田々北通１３番地１", "区分": "老人保健施設", "緯度": 34.9539899, "経度": 137.1886253, "サービス提供地域": "－" }, "geometry": { "type": "Point", "coordinates": [ 137.188625300000012, 34.9539899 ] } },
{ "type": "Feature", "properties": { "URL": "https://www.kaigokensaku.mhlw.go.jp/23/index.php?action_kouhyou_detail_023_kani=true&JigyosyoCd=2351480013-00&ServiceCd=520&Type=search", "名称": "ひかり老人保健施設", "内容2": null, "郵便番号": null, "所在地": "〒458-0813愛知県名古屋市緑区藤塚三丁目2802番地", "区分": "老人保健施設", "緯度": 35.0950077, "経度": 137.0199231, "サービス提供地域": "－" }, "geometry": { "type": "Point", "coordinates": [ 137.0199231, 35.0950077 ] } },
{ "type": "Feature", "properties": { "URL": "https://www.kaigokensaku.mhlw.go.jp/23/index.php?action_kouhyou_detail_023_kani=true&JigyosyoCd=2350580037-00&ServiceCd=520&Type=search", "名称": "介護老人保健施設　第II四季の里", "内容2": null, "郵便番号": null, "所在地": "〒453-0841名古屋市中村区稲葉地町7丁目2番地の3", "区分": "老人保健施設", "緯度": 35.1641517, "経度": 136.8458412, "サービス提供地域": "－" }, "geometry": { "type": "Point", "coordinates": [ 136.8458412, 35.1641517 ] } },
{ "type": "Feature", "properties": { "URL": "https://www.kaigokensaku.mhlw.go.jp/23/index.php?action_kouhyou_detail_023_kani=true&JigyosyoCd=2352780023-00&ServiceCd=520&Type=search", "名称": "老人保健施設　六寿苑", "内容2": null, "郵便番号": null, "所在地": "〒496-0072愛知県津島市南新開町１丁目１１２番地１", "区分": "老人保健施設", "緯度": 35.1676677, "経度": 136.7497383, "サービス提供地域": "－" }, "geometry": { "type": "Point", "coordinates": [ 136.7497383, 35.1676677 ] } },
{ "type": "Feature", "properties": { "URL": "https://www.kaigokensaku.mhlw.go.jp/23/index.php?action_kouhyou_detail_023_kani=true&JigyosyoCd=2353780006-00&ServiceCd=520&Type=search", "名称": "泰玄会老人保健施設", "内容2": null, "郵便番号": null, "所在地": "〒494-0007愛知県一宮市小信中島字仁井西５６番地３", "区分": "老人保健施設", "緯度": 35.3092643, "経度": 136.7519993, "サービス提供地域": "－" }, "geometry": { "type": "Point", "coordinates": [ 136.7519993, 35.3092643 ] } },
{ "type": "Feature", "properties": { "URL": "https://www.kaigokensaku.mhlw.go.jp/23/index.php?action_kouhyou_detail_023_kani=true&JigyosyoCd=2351080060-00&ServiceCd=520&Type=search", "名称": "介護老人保健施設　雅", "内容2": null, "郵便番号": null, "所在地": "〒454-0983愛知県名古屋市中川区東春田二丁目190番地", "区分": "老人保健施設", "緯度": 35.1411583, "経度": 136.8170014, "サービス提供地域": "－" }, "geometry": { "type": "Point", "coordinates": [ 136.8170014, 35.1411583 ] } },
{ "type": "Feature", "properties": { "URL": "https://www.kaigokensaku.mhlw.go.jp/23/index.php?action_kouhyou_detail_023_kani=true&JigyosyoCd=2350880007-00&ServiceCd=520&Type=search", "名称": "老人保健施設瑞穂", "内容2": null, "郵便番号": null, "所在地": "〒467-0846愛知県名古屋市瑞穂区荒崎町６－２９", "区分": "老人保健施設", "緯度": 35.1124972, "経度": 136.9241253, "サービス提供地域": "－" }, "geometry": { "type": "Point", "coordinates": [ 136.924125299999986, 35.1124972 ] } },
{ "type": "Feature", "properties": { "URL": "https://www.kaigokensaku.mhlw.go.jp/23/index.php?action_kouhyou_detail_023_kani=true&JigyosyoCd=2351180019-00&ServiceCd=520&Type=search", "名称": "老人保健施設ケア・サポート新茶屋", "内容2": null, "郵便番号": null, "所在地": "〒455-0863愛知県名古屋市港区新茶屋三丁目901番地", "区分": "老人保健施設", "緯度": 35.0999357, "経度": 136.8146334, "サービス提供地域": "－" }, "geometry": { "type": "Point", "coordinates": [ 136.8146334, 35.0999357 ] } },
{ "type": "Feature", "properties": { "URL": "https://www.kaigokensaku.mhlw.go.jp/23/index.php?action_kouhyou_detail_023_kani=true&JigyosyoCd=2350380057-00&ServiceCd=520&Type=search", "名称": "介護老人保健施設　アーチスト", "内容2": null, "郵便番号": null, "所在地": "〒462-0825愛知県名古屋市北区大曽根二丁目8番10号", "区分": "老人保健施設", "緯度": 35.1900531, "経度": 136.9308512, "サービス提供地域": "－" }, "geometry": { "type": "Point", "coordinates": [ 136.9308512, 35.1900531 ] } },
{ "type": "Feature", "properties": { "URL": "https://www.kaigokensaku.mhlw.go.jp/23/index.php?action_kouhyou_detail_023_kani=true&JigyosyoCd=2350580086-00&ServiceCd=520&Type=search", "名称": "介護老人保健施設　ジョイフル名駅", "内容2": null, "郵便番号": null, "所在地": "〒450-0002愛知県名古屋市中村区名駅五丁目25番12号", "区分": "老人保健施設", "緯度": 35.1685233, "経度": 136.8915837, "サービス提供地域": "－" }, "geometry": { "type": "Point", "coordinates": [ 136.891583700000012, 35.1685233 ] } },
{ "type": "Feature", "properties": { "URL": "https://www.kaigokensaku.mhlw.go.jp/23/index.php?action_kouhyou_detail_023_kani=true&JigyosyoCd=2350180010-00&ServiceCd=520&Type=search", "名称": "国家公務員共済組合連合会　東海病院　介護老人保健施設　ちよだ", "内容2": null, "郵便番号": null, "所在地": "〒464-8512愛知県名古屋市千種区千代田橋一丁目1番1号", "区分": "老人保健施設", "緯度": 35.1870446, "経度": 136.96658, "サービス提供地域": "－" }, "geometry": { "type": "Point", "coordinates": [ 136.96658, 35.1870446 ] } },
{ "type": "Feature", "properties": { "URL": "https://www.kaigokensaku.mhlw.go.jp/23/index.php?action_kouhyou_detail_023_kani=true&JigyosyoCd=2355280005-00&ServiceCd=520&Type=search", "名称": "満天星", "内容2": null, "郵便番号": null, "所在地": "〒452-0011愛知県清須市西枇杷島町城並2-14", "区分": "老人保健施設", "緯度": 35.2062844, "経度": 136.8721423, "サービス提供地域": "－" }, "geometry": { "type": "Point", "coordinates": [ 136.8721423, 35.2062844 ] } },
{ "type": "Feature", "properties": { "URL": "https://www.kaigokensaku.mhlw.go.jp/23/index.php?action_kouhyou_detail_023_kani=true&JigyosyoCd=2352280016-00&ServiceCd=520&Type=search", "名称": "介護老人保健施設　ピエタ", "内容2": null, "郵便番号": null, "所在地": "〒491-0103愛知県一宮市浅井町前野字薬師裏５３番地", "区分": "老人保健施設", "緯度": 35.3455164, "経度": 136.8340632, "サービス提供地域": "－" }, "geometry": { "type": "Point", "coordinates": [ 136.8340632, 35.3455164 ] } },
{ "type": "Feature", "properties": { "URL": "https://www.kaigokensaku.mhlw.go.jp/23/index.php?action_kouhyou_detail_023_kani=true&JigyosyoCd=2350780009-00&ServiceCd=520&Type=search", "名称": "老人保健施設　ヴィラかわな", "内容2": null, "郵便番号": null, "所在地": "〒466-0807名古屋市昭和区山花町54番地1", "区分": "老人保健施設", "緯度": 35.1503816, "経度": 136.9513501, "サービス提供地域": "－" }, "geometry": { "type": "Point", "coordinates": [ 136.951350100000013, 35.1503816 ] } },
{ "type": "Feature", "properties": { "URL": "https://www.kaigokensaku.mhlw.go.jp/23/index.php?action_kouhyou_detail_023_kani=true&JigyosyoCd=2351380007-00&ServiceCd=520&Type=search", "名称": "介護老人保健施設　メディコ守山", "内容2": null, "郵便番号": null, "所在地": "〒463-0803名古屋市守山区日の後301番地", "区分": "老人保健施設", "緯度": 35.2369344, "経度": 137.0116309, "サービス提供地域": "－" }, "geometry": { "type": "Point", "coordinates": [ 137.0116309, 35.2369344 ] } },
{ "type": "Feature", "properties": { "URL": "https://www.kaigokensaku.mhlw.go.jp/23/index.php?action_kouhyou_detail_023_kani=true&JigyosyoCd=2350580045-00&ServiceCd=520&Type=search", "名称": "介護老人保健施設　はっ田", "内容2": null, "郵便番号": null, "所在地": "〒453-0856愛知県名古屋市中村区並木二丁目３５４番地", "区分": "老人保健施設", "緯度": 35.1494911, "経度": 136.8523516, "サービス提供地域": "－" }, "geometry": { "type": "Point", "coordinates": [ 136.8523516, 35.1494911 ] } },
{ "type": "Feature", "properties": { "URL": "https://www.kaigokensaku.mhlw.go.jp/23/index.php?action_kouhyou_detail_023_kani=true&JigyosyoCd=2350380008-00&ServiceCd=520&Type=search", "名称": "介護老人保健施設　サン・くすのき", "内容2": null, "郵便番号": null, "所在地": "〒462-0011愛知県名古屋市北区五反田町111番地", "区分": "老人保健施設", "緯度": 35.2263457, "経度": 136.911924, "サービス提供地域": "－" }, "geometry": { "type": "Point", "coordinates": [ 136.911924, 35.2263457 ] } },
{ "type": "Feature", "properties": { "URL": "https://www.kaigokensaku.mhlw.go.jp/23/index.php?action_kouhyou_detail_023_kani=true&JigyosyoCd=2350380032-00&ServiceCd=520&Type=search", "名称": "介護老人保健施設　シンセーロ会所", "内容2": null, "郵便番号": null, "所在地": "〒462-0061名古屋市北区会所町８６番", "区分": "老人保健施設", "緯度": 35.2394494, "経度": 136.907235, "サービス提供地域": "－" }, "geometry": { "type": "Point", "coordinates": [ 136.907235, 35.2394494 ] } },
{ "type": "Feature", "properties": { "URL": "https://www.kaigokensaku.mhlw.go.jp/23/index.php?action_kouhyou_detail_023_kani=true&JigyosyoCd=2350680019-00&ServiceCd=520&Type=search", "名称": "介護老人保健施設メディケア栄", "内容2": null, "郵便番号": null, "所在地": "〒460-0008愛知県名古屋市中区栄五丁目7番25号", "区分": "老人保健施設", "緯度": 35.1651082, "経度": 136.9144354, "サービス提供地域": "－" }, "geometry": { "type": "Point", "coordinates": [ 136.9144354, 35.1651082 ] } },
{ "type": "Feature", "properties": { "URL": "https://www.kaigokensaku.mhlw.go.jp/23/index.php?action_kouhyou_detail_023_kani=true&JigyosyoCd=2351080011-00&ServiceCd=520&Type=search", "名称": "医療法人　親和会　老人保健施設　松和苑", "内容2": null, "郵便番号": null, "所在地": "〒454-0957名古屋市中川区かの里三丁目901番地", "区分": "老人保健施設", "緯度": 35.1285903, "経度": 136.8151878, "サービス提供地域": "－" }, "geometry": { "type": "Point", "coordinates": [ 136.8151878, 35.1285903 ] } },
{ "type": "Feature", "properties": { "URL": "https://www.kaigokensaku.mhlw.go.jp/23/index.php?action_kouhyou_detail_023_kani=true&JigyosyoCd=2351180001-00&ServiceCd=520&Type=search", "名称": "医療法人東樹会あずま老人保健施設", "内容2": null, "郵便番号": null, "所在地": "〒455-0014愛知県名古屋市港区港楽三丁目１４番１１号", "区分": "老人保健施設", "緯度": 35.102249, "経度": 136.8843181, "サービス提供地域": "－" }, "geometry": { "type": "Point", "coordinates": [ 136.8843181, 35.102249 ] } },
{ "type": "Feature", "properties": { "URL": "https://www.kaigokensaku.mhlw.go.jp/23/index.php?action_kouhyou_detail_023_kani=true&JigyosyoCd=2352780015-00&ServiceCd=520&Type=search", "名称": "老人保健施設　第二アメニティつしま", "内容2": null, "郵便番号": null, "所在地": "〒496-0045愛知県津島市東柳原町３丁目４５番地", "区分": "老人保健施設", "緯度": 35.1792757, "経度": 136.7371052, "サービス提供地域": "－" }, "geometry": { "type": "Point", "coordinates": [ 136.7371052, 35.1792757 ] } },
{ "type": "Feature", "properties": { "URL": "https://www.kaigokensaku.mhlw.go.jp/23/index.php?action_kouhyou_detail_023_kani=true&JigyosyoCd=2355780004-00&ServiceCd=520&Type=search", "名称": "介護老人保健施設　メディコ阿久比", "内容2": null, "郵便番号": null, "所在地": "〒470-2211愛知県知多郡阿久比町大字草木字盗人ヶ脇15-1", "区分": "老人保健施設", "緯度": 34.9460391, "経度": 136.9032544, "サービス提供地域": "－" }, "geometry": { "type": "Point", "coordinates": [ 136.9032544, 34.9460391 ] } },
{ "type": "Feature", "properties": { "URL": "https://www.kaigokensaku.mhlw.go.jp/23/index.php?action_kouhyou_detail_023_kani=true&JigyosyoCd=2351380056-00&ServiceCd=520&Type=search", "名称": "ユニット型介護老人保健施設　ウエルネスきっこ", "内容2": null, "郵便番号": null, "所在地": "〒463-0808愛知県名古屋市守山区花咲台二丁目101番地の1", "区分": "老人保健施設", "緯度": 35.2327786, "経度": 137.0098961, "サービス提供地域": "－" }, "geometry": { "type": "Point", "coordinates": [ 137.0098961, 35.2327786 ] } },
{ "type": "Feature", "properties": { "URL": "https://www.kaigokensaku.mhlw.go.jp/23/index.php?action_kouhyou_detail_023_kani=true&JigyosyoCd=2351380049-00&ServiceCd=520&Type=search", "名称": "介護老人保健施設ウエルネスきっこ", "内容2": null, "郵便番号": null, "所在地": "〒463-0808愛知県名古屋市守山区花咲台二丁目101番地の1", "区分": "老人保健施設", "緯度": 35.2327786, "経度": 137.0098961, "サービス提供地域": "－" }, "geometry": { "type": "Point", "coordinates": [ 137.0098961, 35.2327786 ] } },
{ "type": "Feature", "properties": { "URL": "https://www.kaigokensaku.mhlw.go.jp/23/index.php?action_kouhyou_detail_023_kani=true&JigyosyoCd=2353580000-00&ServiceCd=520&Type=search", "名称": "医療法人　健幸会　老人保健施設　さざんかの丘", "内容2": null, "郵便番号": null, "所在地": "〒479-0015愛知県常滑市字大窯１１４番地の２", "区分": "老人保健施設", "緯度": 34.8933825, "経度": 136.8709761, "サービス提供地域": "－" }, "geometry": { "type": "Point", "coordinates": [ 136.8709761, 34.8933825 ] } },
{ "type": "Feature", "properties": { "URL": "https://www.kaigokensaku.mhlw.go.jp/23/index.php?action_kouhyou_detail_023_kani=true&JigyosyoCd=2352180067-00&ServiceCd=520&Type=search", "名称": "滝町介護老人保健施設", "内容2": null, "郵便番号": null, "所在地": "〒444-3173岡崎市滝町字十楽72番地", "区分": "老人保健施設", "緯度": 34.9920677, "経度": 137.1893729, "サービス提供地域": "－" }, "geometry": { "type": "Point", "coordinates": [ 137.1893729, 34.9920677 ] } },
{ "type": "Feature", "properties": { "URL": "https://www.kaigokensaku.mhlw.go.jp/23/index.php?action_kouhyou_detail_023_kani=true&JigyosyoCd=2356680013-00&ServiceCd=520&Type=search", "名称": "介護老人保健施設　　伊良湖ケアセンター", "内容2": null, "郵便番号": null, "所在地": "〒441-3611愛知県田原市石神町森下１１番地１", "区分": "老人保健施設", "緯度": 34.6403012, "経度": 137.1357077, "サービス提供地域": "－" }, "geometry": { "type": "Point", "coordinates": [ 137.135707700000012, 34.6403012 ] } },
{ "type": "Feature", "properties": { "URL": "https://www.kaigokensaku.mhlw.go.jp/23/index.php?action_kouhyou_detail_023_kani=true&JigyosyoCd=2352080051-00&ServiceCd=520&Type=search", "名称": "介護老人保健施設　豊橋ケアセンター", "内容2": null, "郵便番号": null, "所在地": "〒441-1111愛知県豊橋市嵩山町字松田５５番地", "区分": "老人保健施設", "緯度": 34.8005002, "経度": 137.4808381, "サービス提供地域": "－" }, "geometry": { "type": "Point", "coordinates": [ 137.4808381, 34.8005002 ] } },
{ "type": "Feature", "properties": { "URL": "https://www.kaigokensaku.mhlw.go.jp/23/index.php?action_kouhyou_detail_023_kani=true&JigyosyoCd=2353280007-00&ServiceCd=520&Type=search", "名称": "にしお老人保健施設　彩り", "内容2": null, "郵便番号": null, "所在地": "〒445-0026愛知県西尾市江原町西柄12", "区分": "老人保健施設", "緯度": 34.868017, "経度": 137.0915167, "サービス提供地域": "－" }, "geometry": { "type": "Point", "coordinates": [ 137.0915167, 34.868017 ] } },
{ "type": "Feature", "properties": { "URL": "https://www.kaigokensaku.mhlw.go.jp/23/index.php?action_kouhyou_detail_023_kani=true&JigyosyoCd=2352480046-00&ServiceCd=520&Type=search", "名称": "介護老人保健施設LA・LA・LA　ﾕﾆｯﾄ型", "内容2": null, "郵便番号": null, "所在地": "〒475-0856愛知県半田市更生町一丁目123-13", "区分": "老人保健施設", "緯度": 34.8922168, "経度": 136.9267177, "サービス提供地域": "－" }, "geometry": { "type": "Point", "coordinates": [ 136.926717700000012, 34.8922168 ] } },
{ "type": "Feature", "properties": { "URL": "https://www.kaigokensaku.mhlw.go.jp/23/index.php?action_kouhyou_detail_023_kani=true&JigyosyoCd=2351380015-00&ServiceCd=520&Type=search", "名称": "老人保健施設　ウエルネス守山", "内容2": null, "郵便番号": null, "所在地": "〒463-0057愛知県名古屋市守山区中新４番３１号", "区分": "老人保健施設", "緯度": 35.1969586, "経度": 136.9715605, "サービス提供地域": "－" }, "geometry": { "type": "Point", "coordinates": [ 136.97156050000001, 35.196958599999988 ] } },
{ "type": "Feature", "properties": { "URL": "https://www.kaigokensaku.mhlw.go.jp/23/index.php?action_kouhyou_detail_023_kani=true&JigyosyoCd=2356680005-00&ServiceCd=520&Type=search", "名称": "ＪＡ愛知厚生連あつみの郷介護老人保健施設", "内容2": null, "郵便番号": null, "所在地": "〒441-3421愛知県田原市田原町築出３５番地１", "区分": "老人保健施設", "緯度": 34.671691, "経度": 137.2713908, "サービス提供地域": "－" }, "geometry": { "type": "Point", "coordinates": [ 137.2713908, 34.671691 ] } },
{ "type": "Feature", "properties": { "URL": "https://www.kaigokensaku.mhlw.go.jp/23/index.php?action_kouhyou_detail_023_kani=true&JigyosyoCd=2350580060-00&ServiceCd=520&Type=search", "名称": "介護老人保健施設　福の里　花乃邸", "内容2": null, "郵便番号": null, "所在地": "〒453-0816愛知県名古屋市中村区京田町3丁目60番地", "区分": "老人保健施設", "緯度": 35.1597355, "経度": 136.8655635, "サービス提供地域": "－" }, "geometry": { "type": "Point", "coordinates": [ 136.8655635, 35.1597355 ] } },
{ "type": "Feature", "properties": { "URL": "https://www.kaigokensaku.mhlw.go.jp/23/index.php?action_kouhyou_detail_023_kani=true&JigyosyoCd=2351280058-00&ServiceCd=520&Type=search", "名称": "老健あんき", "内容2": null, "郵便番号": null, "所在地": "〒457-0064愛知県名古屋市南区星崎一丁目１２３番地", "区分": "老人保健施設", "緯度": 35.082016, "経度": 136.9349396, "サービス提供地域": "－" }, "geometry": { "type": "Point", "coordinates": [ 136.9349396, 35.082016 ] } },
{ "type": "Feature", "properties": { "URL": "https://www.kaigokensaku.mhlw.go.jp/23/index.php?action_kouhyou_detail_023_kani=true&JigyosyoCd=2352980011-00&ServiceCd=520&Type=search", "名称": "介護老人保健施設かりや", "内容2": null, "郵便番号": null, "所在地": "〒448-0813愛知県刈谷市小垣江町新庄３３番地", "区分": "老人保健施設", "緯度": 34.9741446, "経度": 137.0025751, "サービス提供地域": "－" }, "geometry": { "type": "Point", "coordinates": [ 137.0025751, 34.9741446 ] } },
{ "type": "Feature", "properties": { "URL": "https://www.kaigokensaku.mhlw.go.jp/23/index.php?action_kouhyou_detail_023_kani=true&JigyosyoCd=2351380031-00&ServiceCd=520&Type=search", "名称": "介護老人保健施設　あまこだ", "内容2": null, "郵便番号": null, "所在地": "〒463-0037愛知県名古屋市守山区天子田二丁目1613番地", "区分": "老人保健施設", "緯度": 35.1995797, "経度": 137.004389, "サービス提供地域": "－" }, "geometry": { "type": "Point", "coordinates": [ 137.004389, 35.1995797 ] } },
{ "type": "Feature", "properties": { "URL": "https://www.kaigokensaku.mhlw.go.jp/23/index.php?action_kouhyou_detail_023_kani=true&JigyosyoCd=2350380073-00&ServiceCd=520&Type=search", "名称": "メデケアド寿", "内容2": null, "郵便番号": null, "所在地": "〒462-0031愛知県名古屋市北区米が瀬町135番地1", "区分": "老人保健施設", "緯度": 35.2113188, "経度": 136.9283682, "サービス提供地域": "－" }, "geometry": { "type": "Point", "coordinates": [ 136.9283682, 35.2113188 ] } },
{ "type": "Feature", "properties": { "URL": "https://www.kaigokensaku.mhlw.go.jp/23/index.php?action_kouhyou_detail_023_kani=true&JigyosyoCd=2353280015-00&ServiceCd=520&Type=search", "名称": "米津老人保健施設", "内容2": null, "郵便番号": null, "所在地": "〒445-0803愛知県西尾市桜町４丁目３１番地", "区分": "老人保健施設", "緯度": 34.8813243, "経度": 137.0618793, "サービス提供地域": "－" }, "geometry": { "type": "Point", "coordinates": [ 137.061879299999987, 34.8813243 ] } },
{ "type": "Feature", "properties": { "URL": "https://www.kaigokensaku.mhlw.go.jp/23/index.php?action_kouhyou_detail_023_kani=true&JigyosyoCd=2351080078-00&ServiceCd=520&Type=search", "名称": "介護老人保健施設　千音寺", "内容2": null, "郵便番号": null, "所在地": "〒454-0971愛知県名古屋市中川区千音寺五丁目301番地", "区分": "老人保健施設", "緯度": 35.1547768, "経度": 136.811361, "サービス提供地域": "－" }, "geometry": { "type": "Point", "coordinates": [ 136.811361, 35.1547768 ] } },
{ "type": "Feature", "properties": { "URL": "https://www.kaigokensaku.mhlw.go.jp/23/index.php?action_kouhyou_detail_023_kani=true&JigyosyoCd=2351580010-00&ServiceCd=520&Type=search", "名称": "介護老人保健施設　星ヶ丘アメニティクラブ", "内容2": null, "郵便番号": null, "所在地": "〒465-0071名古屋市名東区西山台701番地", "区分": "老人保健施設", "緯度": 35.1534012, "経度": 136.9996166, "サービス提供地域": "－" }, "geometry": { "type": "Point", "coordinates": [ 136.9996166, 35.1534012 ] } },
{ "type": "Feature", "properties": { "URL": "https://www.kaigokensaku.mhlw.go.jp/23/index.php?action_kouhyou_detail_023_kani=true&JigyosyoCd=2351580002-00&ServiceCd=520&Type=search", "名称": "名東老人保健施設", "内容2": null, "郵便番号": null, "所在地": "〒465-0064名古屋市名東区大針3-118", "区分": "老人保健施設", "緯度": 35.148362, "経度": 137.0160052, "サービス提供地域": "－" }, "geometry": { "type": "Point", "coordinates": [ 137.0160052, 35.148362 ] } },
{ "type": "Feature", "properties": { "URL": "https://www.kaigokensaku.mhlw.go.jp/23/index.php?action_kouhyou_detail_023_kani=true&JigyosyoCd=2350480014-00&ServiceCd=520&Type=search", "名称": "介護老人保健施設　第二ハートフルライフ西城", "内容2": null, "郵便番号": null, "所在地": "〒451-0024愛知県名古屋市西区秩父通1-38", "区分": "老人保健施設", "緯度": 35.1974582, "経度": 136.8973427, "サービス提供地域": "－" }, "geometry": { "type": "Point", "coordinates": [ 136.8973427, 35.1974582 ] } },
{ "type": "Feature", "properties": { "URL": "https://www.kaigokensaku.mhlw.go.jp/23/index.php?action_kouhyou_detail_023_kani=true&JigyosyoCd=2350180002-00&ServiceCd=520&Type=search", "名称": "介護老人保健施設　メディカルホーム大久手", "内容2": null, "郵便番号": null, "所在地": "〒464-0854愛知県名古屋市千種区大久手町5-5-1", "区分": "老人保健施設", "緯度": 35.1621071, "経度": 136.9369351, "サービス提供地域": "－" }, "geometry": { "type": "Point", "coordinates": [ 136.9369351, 35.1621071 ] } },
{ "type": "Feature", "properties": { "URL": "https://www.kaigokensaku.mhlw.go.jp/23/index.php?action_kouhyou_detail_023_kani=true&JigyosyoCd=2350180028-00&ServiceCd=520&Type=search", "名称": "医療法人　純正会　介護老人保健施設　太陽", "内容2": null, "郵便番号": null, "所在地": "〒464-0858愛知県名古屋市千種区千種二丁目22番1号", "区分": "老人保健施設", "緯度": 35.1629889, "経度": 136.9246027, "サービス提供地域": "－" }, "geometry": { "type": "Point", "coordinates": [ 136.9246027, 35.162988899999988 ] } },
{ "type": "Feature", "properties": { "URL": "https://www.kaigokensaku.mhlw.go.jp/23/index.php?action_kouhyou_detail_023_kani=true&JigyosyoCd=2353680024-00&ServiceCd=520&Type=search", "名称": "介護老人保健施設フラワーコート江南", "内容2": null, "郵便番号": null, "所在地": "〒483-8363愛知県江南市河野町五十間４番地", "区分": "老人保健施設", "緯度": 35.3468922, "経度": 136.8384285, "サービス提供地域": "－" }, "geometry": { "type": "Point", "coordinates": [ 136.8384285, 35.3468922 ] } },
{ "type": "Feature", "properties": { "URL": "https://www.kaigokensaku.mhlw.go.jp/23/index.php?action_kouhyou_detail_023_kani=true&JigyosyoCd=2353180009-00&ServiceCd=520&Type=search", "名称": "医療法人安祥会　安城老人保健施設", "内容2": null, "郵便番号": null, "所在地": "〒446-0021愛知県安城市法連町8番地1 安城老人保健施設", "区分": "老人保健施設", "緯度": 34.9552391, "経度": 137.0933023, "サービス提供地域": "－" }, "geometry": { "type": "Point", "coordinates": [ 137.0933023, 34.9552391 ] } },
{ "type": "Feature", "properties": { "URL": "https://www.kaigokensaku.mhlw.go.jp/23/index.php?action_kouhyou_detail_023_kani=true&JigyosyoCd=2353680016-00&ServiceCd=520&Type=search", "名称": "介護老人保健施設はじまり", "内容2": null, "郵便番号": null, "所在地": "〒483-8259愛知県江南市上奈良町旭28番地", "区分": "老人保健施設", "緯度": 35.3305554, "経度": 136.8604891, "サービス提供地域": "－" }, "geometry": { "type": "Point", "coordinates": [ 136.8604891, 35.3305554 ] } },
{ "type": "Feature", "properties": { "URL": "https://www.kaigokensaku.mhlw.go.jp/23/index.php?action_kouhyou_detail_023_kani=true&JigyosyoCd=2352480004-00&ServiceCd=520&Type=search", "名称": "介護老人保健施設　LA・LA・LA", "内容2": null, "郵便番号": null, "所在地": "〒475-0856愛知県半田市更生町一丁目123-13", "区分": "老人保健施設", "緯度": 34.8922168, "経度": 136.9267177, "サービス提供地域": "－" }, "geometry": { "type": "Point", "coordinates": [ 136.926717700000012, 34.8922168 ] } },
{ "type": "Feature", "properties": { "URL": "https://www.kaigokensaku.mhlw.go.jp/23/index.php?action_kouhyou_detail_023_kani=true&JigyosyoCd=2351680034-00&ServiceCd=520&Type=search", "名称": "医療法人玉光会　天白老人保健施設", "内容2": null, "郵便番号": null, "所在地": "〒468-0055名古屋市天白区池場2丁目１０１番地", "区分": "老人保健施設", "緯度": 35.1223673, "経度": 136.9778535, "サービス提供地域": "－" }, "geometry": { "type": "Point", "coordinates": [ 136.9778535, 35.1223673 ] } },
{ "type": "Feature", "properties": { "URL": "https://www.kaigokensaku.mhlw.go.jp/23/index.php?action_kouhyou_detail_023_kani=true&JigyosyoCd=2352580027-00&ServiceCd=520&Type=search", "名称": "特定医療法人晴和会　老人保健施設　忘れな草", "内容2": null, "郵便番号": null, "所在地": "〒487-0001愛知県春日井市細野町３２４６－３６８", "区分": "老人保健施設", "緯度": 35.2997817, "経度": 137.0567716, "サービス提供地域": "－" }, "geometry": { "type": "Point", "coordinates": [ 137.0567716, 35.2997817 ] } },
{ "type": "Feature", "properties": { "URL": "https://www.kaigokensaku.mhlw.go.jp/23/index.php?action_kouhyou_detail_023_kani=true&JigyosyoCd=2352280057-00&ServiceCd=520&Type=search", "名称": "医療法人泰玄会　介護老人保健施設みなみ", "内容2": null, "郵便番号": null, "所在地": "〒494-0014愛知県一宮市上祖父江字小稲葉１番地", "区分": "老人保健施設", "緯度": 35.2745025, "経度": 136.718896, "サービス提供地域": "－" }, "geometry": { "type": "Point", "coordinates": [ 136.718896, 35.2745025 ] } },
{ "type": "Feature", "properties": { "URL": "https://www.kaigokensaku.mhlw.go.jp/23/index.php?action_kouhyou_detail_023_kani=true&JigyosyoCd=2353180041-00&ServiceCd=520&Type=search", "名称": "介護老人保健施設さとまち", "内容2": null, "郵便番号": null, "所在地": "〒446-0001愛知県安城市里町畑下62番地", "区分": "老人保健施設", "緯度": 34.9974964, "経度": 137.0838078, "サービス提供地域": "－" }, "geometry": { "type": "Point", "coordinates": [ 137.083807799999988, 34.9974964 ] } },
{ "type": "Feature", "properties": { "URL": "https://www.kaigokensaku.mhlw.go.jp/23/index.php?action_kouhyou_detail_023_kani=true&JigyosyoCd=2353180058-00&ServiceCd=520&Type=search", "名称": "介護老人保健施設ユニットさとまち", "内容2": null, "郵便番号": null, "所在地": "〒446-0001愛知県安城市里町畑下62番地", "区分": "老人保健施設", "緯度": 34.9974964, "経度": 137.0838078, "サービス提供地域": "－" }, "geometry": { "type": "Point", "coordinates": [ 137.083807799999988, 34.9974964 ] } },
{ "type": "Feature", "properties": { "URL": "https://www.kaigokensaku.mhlw.go.jp/23/index.php?action_kouhyou_detail_023_kani=true&JigyosyoCd=2353380005-00&ServiceCd=520&Type=search", "名称": "医療法人北辰会　老人保健施設　みらいあ", "内容2": null, "郵便番号": null, "所在地": "〒443-0035愛知県蒲郡市栄町11-13", "区分": "老人保健施設", "緯度": 34.8235001, "経度": 137.2176381, "サービス提供地域": "－" }, "geometry": { "type": "Point", "coordinates": [ 137.217638099999988, 34.8235001 ] } },
{ "type": "Feature", "properties": { "URL": "https://www.kaigokensaku.mhlw.go.jp/23/index.php?action_kouhyou_detail_023_kani=true&JigyosyoCd=2350980005-00&ServiceCd=520&Type=search", "名称": "みなと医療生活協同組合介護老人保健施設あつたの森", "内容2": null, "郵便番号": null, "所在地": "〒456-0057名古屋市熱田区五番町３番１６号", "区分": "老人保健施設", "緯度": 35.1176205, "経度": 136.8899297, "サービス提供地域": "－" }, "geometry": { "type": "Point", "coordinates": [ 136.88992970000001, 35.1176205 ] } },
{ "type": "Feature", "properties": { "URL": "https://www.kaigokensaku.mhlw.go.jp/23/index.php?action_kouhyou_detail_023_kani=true&JigyosyoCd=2351280066-00&ServiceCd=520&Type=search", "名称": "セントラル内田橋", "内容2": null, "郵便番号": null, "所在地": "〒457-0862愛知県名古屋市南区内田橋一丁目４番２４号", "区分": "老人保健施設", "緯度": 35.1149876, "経度": 136.9062119, "サービス提供地域": "－" }, "geometry": { "type": "Point", "coordinates": [ 136.906211899999988, 35.1149876 ] } },
{ "type": "Feature", "properties": { "URL": "https://www.kaigokensaku.mhlw.go.jp/23/index.php?action_kouhyou_detail_023_kani=true&JigyosyoCd=2353080019-00&ServiceCd=520&Type=search", "名称": "トヨタ自動車健康保険組合　老人保健施設　ジョイステイ", "内容2": null, "郵便番号": null, "所在地": "〒471-0821愛知県豊田市平和町１丁目１番地", "区分": "老人保健施設", "緯度": 35.0576439, "経度": 137.1752432, "サービス提供地域": "－" }, "geometry": { "type": "Point", "coordinates": [ 137.175243200000011, 35.0576439 ] } },
{ "type": "Feature", "properties": { "URL": "https://www.kaigokensaku.mhlw.go.jp/23/index.php?action_kouhyou_detail_023_kani=true&JigyosyoCd=2352580001-00&ServiceCd=520&Type=search", "名称": "パーム春日井", "内容2": null, "郵便番号": null, "所在地": "〒486-0844愛知県春日井市鳥居松町2-308", "区分": "老人保健施設", "緯度": 35.2419073, "経度": 136.9710283, "サービス提供地域": "－" }, "geometry": { "type": "Point", "coordinates": [ 136.9710283, 35.2419073 ] } },
{ "type": "Feature", "properties": { "URL": "https://www.kaigokensaku.mhlw.go.jp/23/index.php?action_kouhyou_detail_023_kani=true&JigyosyoCd=2353480029-00&ServiceCd=520&Type=search", "名称": "ユニット型　介護老人保健施設　ほほえみ", "内容2": null, "郵便番号": null, "所在地": "〒484-0064愛知県犬山市大字前原西三丁目３１番１", "区分": "老人保健施設", "緯度": 35.3634648, "経度": 136.9600517, "サービス提供地域": "－" }, "geometry": { "type": "Point", "coordinates": [ 136.9600517, 35.3634648 ] } },
{ "type": "Feature", "properties": { "URL": "https://www.kaigokensaku.mhlw.go.jp/23/index.php?action_kouhyou_detail_023_kani=true&JigyosyoCd=2350880023-00&ServiceCd=520&Type=search", "名称": "ユニット型介護老人保健施設　セントラル堀田", "内容2": null, "郵便番号": null, "所在地": "〒467-0828名古屋市瑞穂区田光町1丁目4番地", "区分": "老人保健施設", "緯度": 35.1241768, "経度": 136.9215432, "サービス提供地域": "－" }, "geometry": { "type": "Point", "coordinates": [ 136.9215432, 35.1241768 ] } },
{ "type": "Feature", "properties": { "URL": "https://www.kaigokensaku.mhlw.go.jp/23/index.php?action_kouhyou_detail_023_kani=true&JigyosyoCd=2356180006-00&ServiceCd=520&Type=search", "名称": "三好老人保健施設", "内容2": null, "郵便番号": null, "所在地": "〒470-0207愛知県みよし市福谷町下り松４２－１", "区分": "老人保健施設", "緯度": 35.1300935, "経度": 137.1106077, "サービス提供地域": "－" }, "geometry": { "type": "Point", "coordinates": [ 137.1106077, 35.1300935 ] } },
{ "type": "Feature", "properties": { "URL": "https://www.kaigokensaku.mhlw.go.jp/23/index.php?action_kouhyou_detail_023_kani=true&JigyosyoCd=2350580029-00&ServiceCd=520&Type=search", "名称": "介護老人保健施設　　　　白社苑", "内容2": null, "郵便番号": null, "所在地": "〒453-0041愛知県名古屋市中村区本陣通6丁目22番地", "区分": "老人保健施設", "緯度": 35.1775831, "経度": 136.8486401, "サービス提供地域": "－" }, "geometry": { "type": "Point", "coordinates": [ 136.848640100000011, 35.1775831 ] } },
{ "type": "Feature", "properties": { "URL": "https://www.kaigokensaku.mhlw.go.jp/23/index.php?action_kouhyou_detail_023_kani=true&JigyosyoCd=2350980013-00&ServiceCd=520&Type=search", "名称": "介護老人保健施設　かなやま", "内容2": null, "郵便番号": null, "所在地": "〒456-0004愛知県名古屋市熱田区桜田町９番３号", "区分": "老人保健施設", "緯度": 35.1407139, "経度": 136.9074947, "サービス提供地域": "－" }, "geometry": { "type": "Point", "coordinates": [ 136.9074947, 35.1407139 ] } },
{ "type": "Feature", "properties": { "URL": "https://www.kaigokensaku.mhlw.go.jp/23/index.php?action_kouhyou_detail_023_kani=true&JigyosyoCd=2353480011-00&ServiceCd=520&Type=search", "名称": "介護老人保健施設　ほほえみ", "内容2": null, "郵便番号": null, "所在地": "〒484-0064愛知県犬山市大字前原西三丁目３１番１", "区分": "老人保健施設", "緯度": 35.3634648, "経度": 136.9600517, "サービス提供地域": "－" }, "geometry": { "type": "Point", "coordinates": [ 136.9600517, 35.3634648 ] } },
{ "type": "Feature", "properties": { "URL": "https://www.kaigokensaku.mhlw.go.jp/23/index.php?action_kouhyou_detail_023_kani=true&JigyosyoCd=2352080069-00&ServiceCd=520&Type=search", "名称": "介護老人保健施設　みのり", "内容2": null, "郵便番号": null, "所在地": "〒440-0081愛知県豊橋市大村町字山所77番地", "区分": "老人保健施設", "緯度": 34.7888649, "経度": 137.3920115, "サービス提供地域": "－" }, "geometry": { "type": "Point", "coordinates": [ 137.3920115, 34.7888649 ] } },
{ "type": "Feature", "properties": { "URL": "https://www.kaigokensaku.mhlw.go.jp/23/index.php?action_kouhyou_detail_023_kani=true&JigyosyoCd=2354780005-00&ServiceCd=520&Type=search", "名称": "介護老人保健施設　るるどの泉", "内容2": null, "郵便番号": null, "所在地": "〒482-0003愛知県岩倉市曽野町郷前３番地", "区分": "老人保健施設", "緯度": 35.2690648, "経度": 136.8782968, "サービス提供地域": "－" }, "geometry": { "type": "Point", "coordinates": [ 136.878296799999987, 35.2690648 ] } },
{ "type": "Feature", "properties": { "URL": "https://www.kaigokensaku.mhlw.go.jp/23/index.php?action_kouhyou_detail_023_kani=true&JigyosyoCd=2355280021-00&ServiceCd=520&Type=search", "名称": "介護老人保健施設　るるどの泉北名古屋", "内容2": null, "郵便番号": null, "所在地": "〒481-0006愛知県北名古屋市熊之庄宮地97番地", "区分": "老人保健施設", "緯度": 35.2611613, "経度": 136.8877029, "サービス提供地域": "－" }, "geometry": { "type": "Point", "coordinates": [ 136.8877029, 35.2611613 ] } },
{ "type": "Feature", "properties": { "URL": "https://www.kaigokensaku.mhlw.go.jp/23/index.php?action_kouhyou_detail_023_kani=true&JigyosyoCd=2354280014-00&ServiceCd=520&Type=search", "名称": "介護老人保健施設　キュア北崎", "内容2": null, "郵便番号": null, "所在地": "〒474-0002愛知県大府市北崎町5-55", "区分": "老人保健施設", "緯度": 35.0362971, "経度": 136.9850468, "サービス提供地域": "－" }, "geometry": { "type": "Point", "coordinates": [ 136.9850468, 35.0362971 ] } },
{ "type": "Feature", "properties": { "URL": "https://www.kaigokensaku.mhlw.go.jp/23/index.php?action_kouhyou_detail_023_kani=true&JigyosyoCd=2374201065-00&ServiceCd=520&Type=search", "名称": "介護老人保健施設　キュア北崎（ユニット型）", "内容2": null, "郵便番号": null, "所在地": "〒474-0002愛知県大府市北崎町5丁目55番地", "区分": "老人保健施設", "緯度": 35.0362971, "経度": 136.9850468, "サービス提供地域": "－" }, "geometry": { "type": "Point", "coordinates": [ 136.9850468, 35.0362971 ] } },
{ "type": "Feature", "properties": { "URL": "https://www.kaigokensaku.mhlw.go.jp/23/index.php?action_kouhyou_detail_023_kani=true&JigyosyoCd=2350880015-00&ServiceCd=520&Type=search", "名称": "介護老人保健施設　セントラル堀田", "内容2": null, "郵便番号": null, "所在地": "〒467-0828愛知県名古屋市瑞穂区田光町一丁目４番地", "区分": "老人保健施設", "緯度": 35.1241768, "経度": 136.9215432, "サービス提供地域": "－" }, "geometry": { "type": "Point", "coordinates": [ 136.9215432, 35.1241768 ] } },
{ "type": "Feature", "properties": { "URL": "https://www.kaigokensaku.mhlw.go.jp/23/index.php?action_kouhyou_detail_023_kani=true&JigyosyoCd=2351680042-00&ServiceCd=520&Type=search", "名称": "介護老人保健施設　リハビリス井の森", "内容2": null, "郵便番号": null, "所在地": "〒468-0047愛知県名古屋市天白区井の森町18", "区分": "老人保健施設", "緯度": 35.1070765, "経度": 136.9526525, "サービス提供地域": "－" }, "geometry": { "type": "Point", "coordinates": [ 136.9526525, 35.1070765 ] } },
{ "type": "Feature", "properties": { "URL": "https://www.kaigokensaku.mhlw.go.jp/23/index.php?action_kouhyou_detail_023_kani=true&JigyosyoCd=2354980050-00&ServiceCd=520&Type=search", "名称": "介護老人保健施設　リハビリス日進", "内容2": null, "郵便番号": null, "所在地": "〒470-0115愛知県日進市折戸町梨子ノ木28-650", "区分": "老人保健施設", "緯度": 35.1228867, "経度": 137.0548488, "サービス提供地域": "－" }, "geometry": { "type": "Point", "coordinates": [ 137.0548488, 35.1228867 ] } },
{ "type": "Feature", "properties": { "URL": "https://www.kaigokensaku.mhlw.go.jp/23/index.php?action_kouhyou_detail_023_kani=true&JigyosyoCd=2355680030-00&ServiceCd=520&Type=search", "名称": "介護老人保健施設　ヴィラとびしま", "内容2": null, "郵便番号": null, "所在地": "〒490-1431愛知県海部郡飛島村大字服岡四丁目１番地１", "区分": "老人保健施設", "緯度": 35.0921376, "経度": 136.7855749, "サービス提供地域": "－" }, "geometry": { "type": "Point", "coordinates": [ 136.7855749, 35.0921376 ] } },
{ "type": "Feature", "properties": { "URL": "https://www.kaigokensaku.mhlw.go.jp/23/index.php?action_kouhyou_detail_023_kani=true&JigyosyoCd=2354180008-00&ServiceCd=520&Type=search", "名称": "介護老人保健施設　東海", "内容2": null, "郵便番号": null, "所在地": "〒476-0011愛知県東海市富木島町八幡南20番地", "区分": "老人保健施設", "緯度": 35.0217593, "経度": 136.9043181, "サービス提供地域": "－" }, "geometry": { "type": "Point", "coordinates": [ 136.904318100000012, 35.0217593 ] } },
{ "type": "Feature", "properties": { "URL": "https://www.kaigokensaku.mhlw.go.jp/23/index.php?action_kouhyou_detail_023_kani=true&JigyosyoCd=2352180034-00&ServiceCd=520&Type=search", "名称": "介護老人保健施設　羽栗の里", "内容2": null, "郵便番号": null, "所在地": "〒444-3514愛知県岡崎市羽栗町字田中　26・27・30番合併地", "区分": "老人保健施設", "緯度": 34.8944109, "経度": 137.2358281, "サービス提供地域": "－" }, "geometry": { "type": "Point", "coordinates": [ 137.2358281, 34.8944109 ] } },
{ "type": "Feature", "properties": { "URL": "https://www.kaigokensaku.mhlw.go.jp/23/index.php?action_kouhyou_detail_023_kani=true&JigyosyoCd=2355080017-00&ServiceCd=520&Type=search", "名称": "介護老人保健施設　葵の園・長久手", "内容2": null, "郵便番号": null, "所在地": "〒480-1103愛知県長久手市岩作高山43番7", "区分": "老人保健施設", "緯度": 35.1912859, "経度": 137.0415789, "サービス提供地域": "－" }, "geometry": { "type": "Point", "coordinates": [ 137.0415789, 35.1912859 ] } },
{ "type": "Feature", "properties": { "URL": "https://www.kaigokensaku.mhlw.go.jp/23/index.php?action_kouhyou_detail_023_kani=true&JigyosyoCd=2357780010-00&ServiceCd=520&Type=search", "名称": "介護老人保健施設　葵の園・長久手", "内容2": null, "郵便番号": null, "所在地": "〒480-1103愛知県長久手市岩作高山43番7", "区分": "老人保健施設", "緯度": 35.1912859, "経度": 137.0415789, "サービス提供地域": "－" }, "geometry": { "type": "Point", "coordinates": [ 137.0415789, 35.1912859 ] } },
{ "type": "Feature", "properties": { "URL": "https://www.kaigokensaku.mhlw.go.jp/23/index.php?action_kouhyou_detail_023_kani=true&JigyosyoCd=2355080025-00&ServiceCd=520&Type=search", "名称": "介護老人保健施設　葵の園・長久手　ユニット型", "内容2": null, "郵便番号": null, "所在地": "〒480-1103愛知県長久手市岩作高山43番7", "区分": "老人保健施設", "緯度": 35.1912859, "経度": 137.0415789, "サービス提供地域": "－" }, "geometry": { "type": "Point", "coordinates": [ 137.0415789, 35.1912859 ] } },
{ "type": "Feature", "properties": { "URL": "https://www.kaigokensaku.mhlw.go.jp/23/index.php?action_kouhyou_detail_023_kani=true&JigyosyoCd=2357780028-00&ServiceCd=520&Type=search", "名称": "介護老人保健施設　葵の園・長久手　ユニット型", "内容2": null, "郵便番号": null, "所在地": "〒480-1103愛知県長久手市岩作高山43番7", "区分": "老人保健施設", "緯度": 35.1912859, "経度": 137.0415789, "サービス提供地域": "－" }, "geometry": { "type": "Point", "coordinates": [ 137.0415789, 35.1912859 ] } },
{ "type": "Feature", "properties": { "URL": "https://www.kaigokensaku.mhlw.go.jp/23/index.php?action_kouhyou_detail_023_kani=true&JigyosyoCd=2355980000-00&ServiceCd=520&Type=search", "名称": "介護老人保健施設　高須ケアガーデン", "内容2": null, "郵便番号": null, "所在地": "〒444-0495愛知県西尾市一色町赤羽上郷中120番地", "区分": "老人保健施設", "緯度": 34.8188292, "経度": 137.0189871, "サービス提供地域": "－" }, "geometry": { "type": "Point", "coordinates": [ 137.0189871, 34.8188292 ] } },
{ "type": "Feature", "properties": { "URL": "https://www.kaigokensaku.mhlw.go.jp/23/index.php?action_kouhyou_detail_023_kani=true&JigyosyoCd=2351180027-00&ServiceCd=520&Type=search", "名称": "介護老人保健施設あんず", "内容2": null, "郵便番号": null, "所在地": "〒455-0874名古屋市港区西福田一丁目636番地", "区分": "老人保健施設", "緯度": 35.1207167, "経度": 136.8113455, "サービス提供地域": "－" }, "geometry": { "type": "Point", "coordinates": [ 136.811345499999987, 35.1207167 ] } },
{ "type": "Feature", "properties": { "URL": "https://www.kaigokensaku.mhlw.go.jp/23/index.php?action_kouhyou_detail_023_kani=true&JigyosyoCd=2353280023-00&ServiceCd=520&Type=search", "名称": "介護老人保健施設いずみ", "内容2": null, "郵便番号": null, "所在地": "〒445-0824愛知県西尾市和泉町１番地８", "区分": "老人保健施設", "緯度": 34.8675573, "経度": 137.0557888, "サービス提供地域": "－" }, "geometry": { "type": "Point", "coordinates": [ 137.055788799999988, 34.8675573 ] } },
{ "type": "Feature", "properties": { "URL": "https://www.kaigokensaku.mhlw.go.jp/23/index.php?action_kouhyou_detail_023_kani=true&JigyosyoCd=2356580007-00&ServiceCd=520&Type=search", "名称": "介護老人保健施設おとわの杜", "内容2": null, "郵便番号": null, "所在地": "〒441-0202愛知県豊川市赤坂町東山12番地の1", "区分": "老人保健施設", "緯度": 34.8548356, "経度": 137.3168157, "サービス提供地域": "－" }, "geometry": { "type": "Point", "coordinates": [ 137.3168157, 34.8548356 ] } },
{ "type": "Feature", "properties": { "URL": "https://www.kaigokensaku.mhlw.go.jp/23/index.php?action_kouhyou_detail_023_kani=true&JigyosyoCd=2355680048-00&ServiceCd=520&Type=search", "名称": "介護老人保健施設かにえ", "内容2": null, "郵便番号": null, "所在地": "〒497-0044愛知県海部郡蟹江町大字蟹江新田字佐屋川東48-1", "区分": "老人保健施設", "緯度": 35.1360507, "経度": 136.7761049, "サービス提供地域": "－" }, "geometry": { "type": "Point", "coordinates": [ 136.7761049, 35.1360507 ] } },
{ "type": "Feature", "properties": { "URL": "https://www.kaigokensaku.mhlw.go.jp/23/index.php?action_kouhyou_detail_023_kani=true&JigyosyoCd=2353280031-00&ServiceCd=520&Type=search", "名称": "介護老人保健施設やまお", "内容2": null, "郵便番号": null, "所在地": "〒445-0072愛知県西尾市徳次町明大寺144番地５", "区分": "老人保健施設", "緯度": 34.8639739, "経度": 137.0724477, "サービス提供地域": "－" }, "geometry": { "type": "Point", "coordinates": [ 137.0724477, 34.8639739 ] } },
{ "type": "Feature", "properties": { "URL": "https://www.kaigokensaku.mhlw.go.jp/23/index.php?action_kouhyou_detail_023_kani=true&JigyosyoCd=2354380012-00&ServiceCd=520&Type=search", "名称": "介護老人保健施設キューオーエル", "内容2": null, "郵便番号": null, "所在地": "〒478-0001愛知県知多市八幡字丸根１００番地", "区分": "老人保健施設", "緯度": 34.9691061, "経度": 136.9038685, "サービス提供地域": "－" }, "geometry": { "type": "Point", "coordinates": [ 136.903868499999987, 34.9691061 ] } },
{ "type": "Feature", "properties": { "URL": "https://www.kaigokensaku.mhlw.go.jp/23/index.php?action_kouhyou_detail_023_kani=true&JigyosyoCd=2354180016-00&ServiceCd=520&Type=search", "名称": "介護老人保健施設サザン東海", "内容2": null, "郵便番号": null, "所在地": "〒477-0032愛知県東海市加木屋町西御嶽40番地の１", "区分": "老人保健施設", "緯度": 34.9897103, "経度": 136.8955997, "サービス提供地域": "－" }, "geometry": { "type": "Point", "coordinates": [ 136.8955997, 34.9897103 ] } },
{ "type": "Feature", "properties": { "URL": "https://www.kaigokensaku.mhlw.go.jp/23/index.php?action_kouhyou_detail_023_kani=true&JigyosyoCd=2351180050-00&ServiceCd=520&Type=search", "名称": "介護老人保健施設トリトン", "内容2": null, "郵便番号": null, "所在地": "〒455-0034西倉町１番14号", "区分": "老人保健施設", "緯度": 35.096788, "経度": 136.8794283, "サービス提供地域": "－" }, "geometry": { "type": "Point", "coordinates": [ 136.8794283, 35.096788 ] } },
{ "type": "Feature", "properties": { "URL": "https://www.kaigokensaku.mhlw.go.jp/23/index.php?action_kouhyou_detail_023_kani=true&JigyosyoCd=2352780031-00&ServiceCd=520&Type=search", "名称": "介護老人保健施設パビリオン", "内容2": null, "郵便番号": null, "所在地": "〒496-0009愛知県津島市葉苅町字綿掛56番地", "区分": "老人保健施設", "緯度": 35.1916092, "経度": 136.7607332, "サービス提供地域": "－" }, "geometry": { "type": "Point", "coordinates": [ 136.7607332, 35.191609199999988 ] } },
{ "type": "Feature", "properties": { "URL": "https://www.kaigokensaku.mhlw.go.jp/23/index.php?action_kouhyou_detail_023_kani=true&JigyosyoCd=2356180014-00&ServiceCd=520&Type=search", "名称": "介護老人保健施設フジオカ", "内容2": null, "郵便番号": null, "所在地": "〒470-0424愛知県豊田市御作町振ケ洞1157-1", "区分": "老人保健施設", "緯度": 35.1811341, "経度": 137.2419206, "サービス提供地域": "－" }, "geometry": { "type": "Point", "coordinates": [ 137.241920599999986, 35.1811341 ] } },
{ "type": "Feature", "properties": { "URL": "https://www.kaigokensaku.mhlw.go.jp/23/index.php?action_kouhyou_detail_023_kani=true&JigyosyoCd=2351480039-00&ServiceCd=520&Type=search", "名称": "介護老人保健施設フジタ", "内容2": null, "郵便番号": null, "所在地": "〒458-0821愛知県名古屋市緑区鳴海町字尾崎山43-640", "区分": "老人保健施設", "緯度": 35.0721063, "経度": 136.9780414, "サービス提供地域": "－" }, "geometry": { "type": "Point", "coordinates": [ 136.9780414, 35.0721063 ] } },
{ "type": "Feature", "properties": { "URL": "https://www.kaigokensaku.mhlw.go.jp/23/index.php?action_kouhyou_detail_023_kani=true&JigyosyoCd=2352180075-00&ServiceCd=520&Type=search", "名称": "介護老人保健施設ヴィラ葵", "内容2": null, "郵便番号": null, "所在地": "〒444-3524愛知県岡崎市竜泉寺町黒土５５番地", "区分": "老人保健施設", "緯度": 34.9091731, "経度": 137.1982421, "サービス提供地域": "－" }, "geometry": { "type": "Point", "coordinates": [ 137.198242099999987, 34.9091731 ] } },
{ "type": "Feature", "properties": { "URL": "https://www.kaigokensaku.mhlw.go.jp/23/index.php?action_kouhyou_detail_023_kani=true&JigyosyoCd=2350480022-00&ServiceCd=520&Type=search", "名称": "介護老人保健施設福の里", "内容2": null, "郵便番号": null, "所在地": "〒451-0043名古屋市西区新道二丁目4番7号", "区分": "老人保健施設", "緯度": 35.1784732, "経度": 136.8891795, "サービス提供地域": "－" }, "geometry": { "type": "Point", "coordinates": [ 136.889179500000012, 35.1784732 ] } },
{ "type": "Feature", "properties": { "URL": "https://www.kaigokensaku.mhlw.go.jp/23/index.php?action_kouhyou_detail_023_kani=true&JigyosyoCd=2352080028-00&ServiceCd=520&Type=search", "名称": "光生会介護老人保健施設赤岩荘", "内容2": null, "郵便番号": null, "所在地": "〒440-0021愛知県豊橋市多米町大門１０", "区分": "老人保健施設", "緯度": 34.7630306, "経度": 137.4459941, "サービス提供地域": "－" }, "geometry": { "type": "Point", "coordinates": [ 137.4459941, 34.7630306 ] } },
{ "type": "Feature", "properties": { "URL": "https://www.kaigokensaku.mhlw.go.jp/23/index.php?action_kouhyou_detail_023_kani=true&JigyosyoCd=2351080029-00&ServiceCd=520&Type=search", "名称": "医療法人　孝慈会　老人保健施設　ラ・ファミリア", "内容2": null, "郵便番号": null, "所在地": "〒454-0935愛知県名古屋市中川区東起町一丁目五番地１", "区分": "老人保健施設", "緯度": 35.1230206, "経度": 136.8412252, "サービス提供地域": "－" }, "geometry": { "type": "Point", "coordinates": [ 136.8412252, 35.1230206 ] } },
{ "type": "Feature", "properties": { "URL": "https://www.kaigokensaku.mhlw.go.jp/23/index.php?action_kouhyou_detail_023_kani=true&JigyosyoCd=2352180059-00&ServiceCd=520&Type=search", "名称": "医療法人　鉄友会　介護老人保健施設　さくら大樹", "内容2": null, "郵便番号": null, "所在地": "〒444-2134愛知県岡崎市大樹寺3丁目9番地１", "区分": "老人保健施設", "緯度": 34.9825359, "経度": 137.1613042, "サービス提供地域": "－" }, "geometry": { "type": "Point", "coordinates": [ 137.161304199999989, 34.982535899999988 ] } },
{ "type": "Feature", "properties": { "URL": "https://www.kaigokensaku.mhlw.go.jp/23/index.php?action_kouhyou_detail_023_kani=true&JigyosyoCd=2352080002-00&ServiceCd=520&Type=search", "名称": "医療法人さわらび会福祉村老人保健施設ジュゲム", "内容2": null, "郵便番号": null, "所在地": "〒441-8124愛知県豊橋市野依町字山中１９番地の１", "区分": "老人保健施設", "緯度": 34.7012038, "経度": 137.3998629, "サービス提供地域": "－" }, "geometry": { "type": "Point", "coordinates": [ 137.399862899999988, 34.7012038 ] } },
{ "type": "Feature", "properties": { "URL": "https://www.kaigokensaku.mhlw.go.jp/23/index.php?action_kouhyou_detail_023_kani=true&JigyosyoCd=2351480005-00&ServiceCd=520&Type=search", "名称": "医療法人コジマ会　介護老人保健施設みどり", "内容2": null, "郵便番号": null, "所在地": "〒458-0816愛知県名古屋市緑区横吹町1907番12", "区分": "老人保健施設", "緯度": 35.083797, "経度": 136.9944465, "サービス提供地域": "－" }, "geometry": { "type": "Point", "coordinates": [ 136.9944465, 35.083797 ] } },
{ "type": "Feature", "properties": { "URL": "https://www.kaigokensaku.mhlw.go.jp/23/index.php?action_kouhyou_detail_023_kani=true&JigyosyoCd=2350680001-00&ServiceCd=520&Type=search", "名称": "医療法人コジマ会　介護老人保健施設丸の内", "内容2": null, "郵便番号": null, "所在地": "〒460-0002愛知県名古屋市中区丸の内一丁目２番６号", "区分": "老人保健施設", "緯度": 35.1771778, "経度": 136.8946145, "サービス提供地域": "－" }, "geometry": { "type": "Point", "coordinates": [ 136.894614499999989, 35.1771778 ] } },
{ "type": "Feature", "properties": { "URL": "https://www.kaigokensaku.mhlw.go.jp/23/index.php?action_kouhyou_detail_023_kani=true&JigyosyoCd=2352880013-00&ServiceCd=520&Type=search", "名称": "医療法人十喜会　老人保健施設向陽", "内容2": null, "郵便番号": null, "所在地": "〒447-0871愛知県碧南市向陽町4丁目31番地", "区分": "老人保健施設", "緯度": 34.8854781, "経度": 136.9965299, "サービス提供地域": "－" }, "geometry": { "type": "Point", "coordinates": [ 136.996529900000013, 34.8854781 ] } },
{ "type": "Feature", "properties": { "URL": "https://www.kaigokensaku.mhlw.go.jp/23/index.php?action_kouhyou_detail_023_kani=true&JigyosyoCd=2353880004-00&ServiceCd=520&Type=search", "名称": "医療法人双寿会　老人保健施設　豊寿苑", "内容2": null, "郵便番号": null, "所在地": "〒485-0029愛知県小牧市中央二丁目185番地", "区分": "老人保健施設", "緯度": 35.2874273, "経度": 136.9288533, "サービス提供地域": "－" }, "geometry": { "type": "Point", "coordinates": [ 136.928853299999986, 35.2874273 ] } },
{ "type": "Feature", "properties": { "URL": "https://www.kaigokensaku.mhlw.go.jp/23/index.php?action_kouhyou_detail_023_kani=true&JigyosyoCd=2351280041-00&ServiceCd=520&Type=search", "名称": "医療法人大仁会 介護老人保健施設 アットホーム宮の渡し", "内容2": null, "郵便番号": null, "所在地": "〒457-0861愛知県名古屋市南区明治一丁目14番56号", "区分": "老人保健施設", "緯度": 35.1132978, "経度": 136.9030802, "サービス提供地域": "－" }, "geometry": { "type": "Point", "coordinates": [ 136.9030802, 35.1132978 ] } },
{ "type": "Feature", "properties": { "URL": "https://www.kaigokensaku.mhlw.go.jp/23/index.php?action_kouhyou_detail_023_kani=true&JigyosyoCd=2352180026-00&ServiceCd=520&Type=search", "名称": "医療法人大朋会 岡崎老人保健施設　スクエアガーデン", "内容2": null, "郵便番号": null, "所在地": "〒444-0813愛知県岡崎市羽根町中田３４", "区分": "老人保健施設", "緯度": 34.9303696, "経度": 137.1589471, "サービス提供地域": "－" }, "geometry": { "type": "Point", "coordinates": [ 137.1589471, 34.9303696 ] } },
{ "type": "Feature", "properties": { "URL": "https://www.kaigokensaku.mhlw.go.jp/23/index.php?action_kouhyou_detail_023_kani=true&JigyosyoCd=2354980001-00&ServiceCd=520&Type=search", "名称": "医療法人財団愛泉会　老人保健施設愛泉館", "内容2": null, "郵便番号": null, "所在地": "〒470-0111愛知県日進市米野木町南山987-44", "区分": "老人保健施設", "緯度": 35.1331476, "経度": 137.0859945, "サービス提供地域": "－" }, "geometry": { "type": "Point", "coordinates": [ 137.0859945, 35.1331476 ] } },
{ "type": "Feature", "properties": { "URL": "https://www.kaigokensaku.mhlw.go.jp/23/index.php?action_kouhyou_detail_023_kani=true&JigyosyoCd=2351280009-00&ServiceCd=520&Type=search", "名称": "大同老人保健施設", "内容2": null, "郵便番号": null, "所在地": "〒457-0818愛知県名古屋市南区白水町40番地2", "区分": "老人保健施設", "緯度": 35.0760829, "経度": 136.9057616, "サービス提供地域": "－" }, "geometry": { "type": "Point", "coordinates": [ 136.9057616, 35.0760829 ] } },
{ "type": "Feature", "properties": { "URL": "https://www.kaigokensaku.mhlw.go.jp/23/index.php?action_kouhyou_detail_023_kani=true&JigyosyoCd=2354080000-00&ServiceCd=520&Type=search", "名称": "新城介護老人保健施設　サマリヤの丘", "内容2": null, "郵便番号": null, "所在地": "〒441-1301愛知県新城市矢部字上ノ川１番地３", "区分": "老人保健施設", "緯度": 34.9161009, "経度": 137.5083316, "サービス提供地域": "－" }, "geometry": { "type": "Point", "coordinates": [ 137.5083316, 34.9161009 ] } },
{ "type": "Feature", "properties": { "URL": "https://www.kaigokensaku.mhlw.go.jp/23/index.php?action_kouhyou_detail_023_kani=true&JigyosyoCd=2354980027-00&ServiceCd=520&Type=search", "名称": "日進老人保健施設", "内容2": null, "郵便番号": null, "所在地": "〒470-0103愛知県日進市北新町二段場９２０－１０", "区分": "老人保健施設", "緯度": 35.1566968, "経度": 137.0579599, "サービス提供地域": "－" }, "geometry": { "type": "Point", "coordinates": [ 137.057959899999986, 35.1566968 ] } },
{ "type": "Feature", "properties": { "URL": "https://www.kaigokensaku.mhlw.go.jp/23/index.php?action_kouhyou_detail_023_kani=true&JigyosyoCd=2350380024-00&ServiceCd=520&Type=search", "名称": "生協わかばの里　介護老人保健施設", "内容2": null, "郵便番号": null, "所在地": "〒462-0831名古屋市北区城東町5丁目114番地", "区分": "老人保健施設", "緯度": 35.1947074, "経度": 136.9211072, "サービス提供地域": "－" }, "geometry": { "type": "Point", "coordinates": [ 136.9211072, 35.194707400000013 ] } },
{ "type": "Feature", "properties": { "URL": "https://www.kaigokensaku.mhlw.go.jp/23/index.php?action_kouhyou_detail_023_kani=true&JigyosyoCd=2350380040-00&ServiceCd=520&Type=search", "名称": "生協わかばの里ユニット型介護老人保健施設", "内容2": null, "郵便番号": null, "所在地": "〒462-0831名古屋市北区城東町5-114", "区分": "老人保健施設", "緯度": 35.1947074, "経度": 136.9211072, "サービス提供地域": "－" }, "geometry": { "type": "Point", "coordinates": [ 136.9211072, 35.194707400000013 ] } },
{ "type": "Feature", "properties": { "URL": "https://www.kaigokensaku.mhlw.go.jp/23/index.php?action_kouhyou_detail_023_kani=true&JigyosyoCd=2354480010-00&ServiceCd=520&Type=search", "名称": "知立老人保健施設", "内容2": null, "郵便番号": null, "所在地": "〒472-0017知立市新林町北林４４番地", "区分": "老人保健施設", "緯度": 34.989182, "経度": 137.0364955, "サービス提供地域": "－" }, "geometry": { "type": "Point", "coordinates": [ 137.0364955, 34.989182 ] } },
{ "type": "Feature", "properties": { "URL": "https://www.kaigokensaku.mhlw.go.jp/23/index.php?action_kouhyou_detail_023_kani=true&JigyosyoCd=2355380011-00&ServiceCd=520&Type=search", "名称": "老人保健施設　さくら荘", "内容2": null, "郵便番号": null, "所在地": "〒480-0127愛知県丹羽郡大口町新宮一丁目96番地", "区分": "老人保健施設", "緯度": 35.2909078, "経度": 136.9337515, "サービス提供地域": "－" }, "geometry": { "type": "Point", "coordinates": [ 136.9337515, 35.2909078 ] } },
{ "type": "Feature", "properties": { "URL": "https://www.kaigokensaku.mhlw.go.jp/23/index.php?action_kouhyou_detail_023_kani=true&JigyosyoCd=2351680018-00&ServiceCd=520&Type=search", "名称": "老人保健施設　しおがま", "内容2": null, "郵便番号": null, "所在地": "〒468-0072愛知県名古屋市天白区大坪二丁目601番地", "区分": "老人保健施設", "緯度": 35.1367322, "経度": 136.9797084, "サービス提供地域": "－" }, "geometry": { "type": "Point", "coordinates": [ 136.9797084, 35.1367322 ] } },
{ "type": "Feature", "properties": { "URL": "https://www.kaigokensaku.mhlw.go.jp/23/index.php?action_kouhyou_detail_023_kani=true&JigyosyoCd=2352380006-00&ServiceCd=520&Type=search", "名称": "老人保健施設　すこやか荘", "内容2": null, "郵便番号": null, "所在地": "〒489-0904愛知県瀬戸市すみれ台４丁目１７番地の７", "区分": "老人保健施設", "緯度": 35.241441, "経度": 137.0756136, "サービス提供地域": "－" }, "geometry": { "type": "Point", "coordinates": [ 137.0756136, 35.241441 ] } },
{ "type": "Feature", "properties": { "URL": "https://www.kaigokensaku.mhlw.go.jp/23/index.php?action_kouhyou_detail_023_kani=true&JigyosyoCd=2351080003-00&ServiceCd=520&Type=search", "名称": "老人保健施設　みず里", "内容2": null, "郵便番号": null, "所在地": "〒454-0963愛知県名古屋市中川区水里１丁目２３番地", "区分": "老人保健施設", "緯度": 35.1297701, "経度": 136.8112211, "サービス提供地域": "－" }, "geometry": { "type": "Point", "coordinates": [ 136.811221100000012, 35.1297701 ] } },
{ "type": "Feature", "properties": { "URL": "https://www.kaigokensaku.mhlw.go.jp/23/index.php?action_kouhyou_detail_023_kani=true&JigyosyoCd=2351680000-00&ServiceCd=520&Type=search", "名称": "老人保健施設　サンタマリア", "内容2": null, "郵便番号": null, "所在地": "〒468-0003愛知県名古屋市天白区鴻の巣一丁目1101番地", "区分": "老人保健施設", "緯度": 35.1427575, "経度": 136.9977298, "サービス提供地域": "－" }, "geometry": { "type": "Point", "coordinates": [ 136.9977298, 35.1427575 ] } },
{ "type": "Feature", "properties": { "URL": "https://www.kaigokensaku.mhlw.go.jp/23/index.php?action_kouhyou_detail_023_kani=true&JigyosyoCd=2352080010-00&ServiceCd=520&Type=search", "名称": "老人保健施設　尽誠苑", "内容2": null, "郵便番号": null, "所在地": "〒441-3102愛知県豊橋市大脇町大脇ノ谷74番54", "区分": "老人保健施設", "緯度": 34.730328, "経度": 137.4544326, "サービス提供地域": "－" }, "geometry": { "type": "Point", "coordinates": [ 137.4544326, 34.730328 ] } },
{ "type": "Feature", "properties": { "URL": "https://www.kaigokensaku.mhlw.go.jp/23/index.php?action_kouhyou_detail_023_kani=true&JigyosyoCd=2352080036-00&ServiceCd=520&Type=search", "名称": "老人保健施設　明陽苑", "内容2": null, "郵便番号": null, "所在地": "〒441-8023愛知県豊橋市八通町６４番地の３", "区分": "老人保健施設", "緯度": 34.7574676, "経度": 137.3799115, "サービス提供地域": "－" }, "geometry": { "type": "Point", "coordinates": [ 137.3799115, 34.7574676 ] } },
{ "type": "Feature", "properties": { "URL": "https://www.kaigokensaku.mhlw.go.jp/23/index.php?action_kouhyou_detail_023_kani=true&JigyosyoCd=2351580028-00&ServiceCd=520&Type=search", "名称": "老人保健施設いのこし", "内容2": null, "郵便番号": null, "所在地": "〒465-0008愛知県名古屋市名東区猪子石原一丁目1501番地", "区分": "老人保健施設", "緯度": 35.1932176, "経度": 136.9909961, "サービス提供地域": "－" }, "geometry": { "type": "Point", "coordinates": [ 136.9909961, 35.1932176 ] } },
{ "type": "Feature", "properties": { "URL": "https://www.kaigokensaku.mhlw.go.jp/23/index.php?action_kouhyou_detail_023_kani=true&JigyosyoCd=2351180043-00&ServiceCd=520&Type=search", "名称": "老人保健施設かいこう", "内容2": null, "郵便番号": null, "所在地": "〒455-0863名古屋市港区新茶屋三丁目915番地", "区分": "老人保健施設", "緯度": 35.0999522, "経度": 136.8139185, "サービス提供地域": "－" }, "geometry": { "type": "Point", "coordinates": [ 136.8139185, 35.0999522 ] } },
{ "type": "Feature", "properties": { "URL": "https://www.kaigokensaku.mhlw.go.jp/23/index.php?action_kouhyou_detail_023_kani=true&JigyosyoCd=2354680007-00&ServiceCd=520&Type=search", "名称": "老人保健施設こもれびの里・高浜", "内容2": null, "郵便番号": null, "所在地": "〒444-1314愛知県高浜市論地町三丁目6番地１６", "区分": "老人保健施設", "緯度": 34.9175445, "経度": 137.0047527, "サービス提供地域": "－" }, "geometry": { "type": "Point", "coordinates": [ 137.004752700000012, 34.9175445 ] } },
{ "type": "Feature", "properties": { "URL": "https://www.kaigokensaku.mhlw.go.jp/23/index.php?action_kouhyou_detail_023_kani=true&JigyosyoCd=2352880005-00&ServiceCd=520&Type=search", "名称": "老人保健施設ひまわり", "内容2": null, "郵便番号": null, "所在地": "〒447-0803愛知県碧南市三角町１丁目７番地１", "区分": "老人保健施設", "緯度": 34.8819318, "経度": 137.0218597, "サービス提供地域": "－" }, "geometry": { "type": "Point", "coordinates": [ 137.0218597, 34.8819318 ] } },
{ "type": "Feature", "properties": { "URL": "https://www.kaigokensaku.mhlw.go.jp/23/index.php?action_kouhyou_detail_023_kani=true&JigyosyoCd=2351180035-00&ServiceCd=520&Type=search", "名称": "老人保健施設みなと", "内容2": null, "郵便番号": null, "所在地": "〒455-0053愛知県名古屋市港区名四町114番地", "区分": "老人保健施設", "緯度": 35.0994926, "経度": 136.8668917, "サービス提供地域": "－" }, "geometry": { "type": "Point", "coordinates": [ 136.8668917, 35.0994926 ] } },
{ "type": "Feature", "properties": { "URL": "https://www.kaigokensaku.mhlw.go.jp/23/index.php?action_kouhyou_detail_023_kani=true&JigyosyoCd=2352280024-00&ServiceCd=520&Type=search", "名称": "老人保健施設やすらぎ", "内容2": null, "郵便番号": null, "所在地": "〒491-0201愛知県一宮市奥町字下口西74番地の1", "区分": "老人保健施設", "緯度": 35.3282804, "経度": 136.7565885, "サービス提供地域": "－" }, "geometry": { "type": "Point", "coordinates": [ 136.7565885, 35.3282804 ] } },
{ "type": "Feature", "properties": { "URL": "https://www.kaigokensaku.mhlw.go.jp/23/index.php?action_kouhyou_detail_023_kani=true&JigyosyoCd=2352080044-00&ServiceCd=520&Type=search", "名称": "老人保健施設ベルヴューハイツ", "内容2": null, "郵便番号": null, "所在地": "〒441-8085愛知県豊橋市青竹町字青竹９６番地", "区分": "老人保健施設", "緯度": 34.762451, "経度": 137.3463953, "サービス提供地域": "－" }, "geometry": { "type": "Point", "coordinates": [ 137.346395300000012, 34.762451 ] } },
{ "type": "Feature", "properties": { "URL": "https://www.kaigokensaku.mhlw.go.jp/23/index.php?action_kouhyou_detail_023_kani=true&JigyosyoCd=2352080077-00&ServiceCd=520&Type=search", "名称": "老人保健施設尽誠苑", "内容2": null, "郵便番号": null, "所在地": "〒441-3102愛知県豊橋市大脇町大脇ノ谷74番54", "区分": "老人保健施設", "緯度": 34.730328, "経度": 137.4544326, "サービス提供地域": "－" }, "geometry": { "type": "Point", "coordinates": [ 137.4544326, 34.730328 ] } },
{ "type": "Feature", "properties": { "URL": "https://www.kaigokensaku.mhlw.go.jp/23/index.php?action_kouhyou_detail_023_kani=true&JigyosyoCd=2352680017-00&ServiceCd=520&Type=search", "名称": "豊川老人保健施設ケアリゾートオリーブ", "内容2": null, "郵便番号": null, "所在地": "〒442-0863愛知県豊川市平尾町諏訪下101番地", "区分": "老人保健施設", "緯度": 34.8540372, "経度": 137.3515851, "サービス提供地域": "－" }, "geometry": { "type": "Point", "coordinates": [ 137.3515851, 34.8540372 ] } },
{ "type": "Feature", "properties": { "URL": "https://www.kaigokensaku.mhlw.go.jp/23/index.php?action_kouhyou_detail_023_kani=true&JigyosyoCd=2353080001-00&ServiceCd=520&Type=search", "名称": "豊田老人保健施設", "内容2": null, "郵便番号": null, "所在地": "〒471-0073愛知県豊田市川田町1-36", "区分": "老人保健施設", "緯度": 35.0967617, "経度": 137.1712817, "サービス提供地域": "－" }, "geometry": { "type": "Point", "coordinates": [ 137.1712817, 35.0967617 ] } },
{ "type": "Feature", "properties": { "URL": "https://www.kaigokensaku.mhlw.go.jp/23/index.php?action_kouhyou_detail_023_kani=true&JigyosyoCd=2353080050-00&ServiceCd=520&Type=search", "名称": "高岡介護老人保健施設", "内容2": null, "郵便番号": null, "所在地": "〒473-0912愛知県豊田市広田町西山７５番地", "区分": "老人保健施設", "緯度": 35.0425285, "経度": 137.1087228, "サービス提供地域": "－" }, "geometry": { "type": "Point", "coordinates": [ 137.10872280000001, 35.0425285 ] } },
{ "type": "Feature", "properties": { "URL": "https://www.kaigokensaku.mhlw.go.jp/23/index.php?action_kouhyou_detail_023_kani=true&JigyosyoCd=2350180036-00&ServiceCd=520&Type=search", "名称": "リハビリパーク千種", "内容2": null, "郵便番号": null, "所在地": "〒464-0850愛知県名古屋市千種区今池１－１６－４", "区分": "老人保健施設", "緯度": 35.168219, "経度": 136.9345778, "サービス提供地域": "－" }, "geometry": { "type": "Point", "coordinates": [ 136.9345778, 35.168219 ] } },
{ "type": "Feature", "properties": { "URL": "https://www.kaigokensaku.mhlw.go.jp/23/index.php?action_kouhyou_detail_023_kani=true&JigyosyoCd=2356380002-00&ServiceCd=520&Type=search", "名称": "介護老人保健施設　豊根ケアセンター", "内容2": null, "郵便番号": null, "所在地": "〒449-0404愛知県北設楽郡豊根村上黒川字長野11番地の5", "区分": "老人保健施設", "緯度": 35.1433753, "経度": 137.6959247, "サービス提供地域": "－" }, "geometry": { "type": "Point", "coordinates": [ 137.6959247, 35.1433753 ] } },
{ "type": "Feature", "properties": { "URL": "https://www.kaigokensaku.mhlw.go.jp/23/index.php?action_kouhyou_detail_023_kani=true&JigyosyoCd=2353380013-00&ServiceCd=520&Type=search", "名称": "医療法人　幸会　介護老人保健施設　五井の里", "内容2": null, "郵便番号": null, "所在地": "〒443-0003愛知県蒲郡市五井町殿海道１１－１", "区分": "老人保健施設", "緯度": 34.8346055, "経度": 137.2429609, "サービス提供地域": "－" }, "geometry": { "type": "Point", "coordinates": [ 137.242960900000014, 34.8346055 ] } }
]
}
