{
"type": "FeatureCollection",
"name": "geo_居宅介護支援",
"crs": { "type": "name", "properties": { "name": "urn:ogc:def:crs:OGC:1.3:CRS84" } },
"features": [
{ "type": "Feature", "properties": { "URL": "https://www.kaigokensaku.mhlw.go.jp/23/index.php?action_kouhyou_detail_023_kani=true&JigyosyoCd=2375201114-00&ServiceCd=430&Type=search", "名称": "ケアプランセンター　ビィンズ", "内容2": null, "郵便番号": null, "所在地": "〒480-0202愛知県西春日井郡豊山町大字豊場字伊勢山３６６番地", "区分": "居宅介護支援", "緯度": 35.24361, "経度": 136.919223, "サービス提供地域": "豊山町、北名古屋市、小牧市、名古屋市中村区、北区、西区。" }, "geometry": { "type": "Point", "coordinates": [ 136.919223, 35.24361 ] } },
{ "type": "Feature", "properties": { "URL": "https://www.kaigokensaku.mhlw.go.jp/23/index.php?action_kouhyou_detail_023_kani=true&JigyosyoCd=2372502118-00&ServiceCd=430&Type=search", "名称": "ペルセウスケアサービス", "内容2": null, "郵便番号": null, "所在地": "〒486-0928愛知県春日井市妙慶町１６４番地", "区分": "居宅介護支援", "緯度": 35.2363558, "経度": 136.9532184, "サービス提供地域": "春日井市・小牧市・北名古屋市・名古屋市・岐阜県多治見市" }, "geometry": { "type": "Point", "coordinates": [ 136.9532184, 35.2363558 ] } },
{ "type": "Feature", "properties": { "URL": "https://www.kaigokensaku.mhlw.go.jp/23/index.php?action_kouhyou_detail_023_kani=true&JigyosyoCd=2371002144-00&ServiceCd=430&Type=search", "名称": "ニチイケアセンターなごや西部", "内容2": null, "郵便番号": null, "所在地": "〒454-0911愛知県名古屋市中川区高畑五丁目226", "区分": "居宅介護支援", "緯度": 35.1441379, "経度": 136.8497147, "サービス提供地域": "名古屋市中川区、中村区、港区、" }, "geometry": { "type": "Point", "coordinates": [ 136.8497147, 35.1441379 ] } },
{ "type": "Feature", "properties": { "URL": "https://www.kaigokensaku.mhlw.go.jp/23/index.php?action_kouhyou_detail_023_kani=true&JigyosyoCd=2372504411-00&ServiceCd=430&Type=search", "名称": "ケアプラン　彩り", "内容2": null, "郵便番号": null, "所在地": "〒486-0833愛知県春日井市上条町5-6 プレセジュール春紀C103", "区分": "居宅介護支援", "緯度": 35.2396963, "経度": 136.9887441, "サービス提供地域": "春日井市" }, "geometry": { "type": "Point", "coordinates": [ 136.9887441, 35.2396963 ] } },
{ "type": "Feature", "properties": { "URL": "https://www.kaigokensaku.mhlw.go.jp/23/index.php?action_kouhyou_detail_023_kani=true&JigyosyoCd=2372505103-00&ServiceCd=430&Type=search", "名称": "ケアプラン　悠", "内容2": null, "郵便番号": null, "所在地": "〒486-0808田楽町１８０４番地７", "区分": "居宅介護支援", "緯度": 35.2769959, "経度": 136.9532167, "サービス提供地域": "名古屋市、北名古屋市、小牧市、春日井市、扶桑町、江南市、犬山市、岩倉市、豊山町" }, "geometry": { "type": "Point", "coordinates": [ 136.953216700000013, 35.2769959 ] } },
{ "type": "Feature", "properties": { "URL": "https://www.kaigokensaku.mhlw.go.jp/23/index.php?action_kouhyou_detail_023_kani=true&JigyosyoCd=2370303998-00&ServiceCd=430&Type=search", "名称": "ケアプラン晴れるや", "内容2": null, "郵便番号": null, "所在地": "〒462-0021名古屋市北区如意二丁目25番地の1", "区分": "居宅介護支援", "緯度": 35.2352362, "経度": 136.9179418, "サービス提供地域": "名古屋市北区、西区、東区" }, "geometry": { "type": "Point", "coordinates": [ 136.9179418, 35.2352362 ] } },
{ "type": "Feature", "properties": { "URL": "https://www.kaigokensaku.mhlw.go.jp/23/index.php?action_kouhyou_detail_023_kani=true&JigyosyoCd=2372500419-00&ServiceCd=430&Type=search", "名称": "ニチイケアセンター春日井", "内容2": null, "郵便番号": null, "所在地": "〒486-0844愛知県春日井市鳥居松町５－７８", "区分": "居宅介護支援", "緯度": 35.2464538, "経度": 136.9739599, "サービス提供地域": "春日井市、小牧市、瀬戸市、尾張旭市" }, "geometry": { "type": "Point", "coordinates": [ 136.973959900000011, 35.2464538 ] } },
{ "type": "Feature", "properties": { "URL": "https://www.kaigokensaku.mhlw.go.jp/23/index.php?action_kouhyou_detail_023_kani=true&JigyosyoCd=2372505046-00&ServiceCd=430&Type=search", "名称": "ケアプラン絆", "内容2": null, "郵便番号": null, "所在地": "〒487-0024愛知県春日井市大留町２丁目８－５ プラザブルーパイン１０２号室", "区分": "居宅介護支援", "緯度": 35.2591767, "経度": 137.0156851, "サービス提供地域": "春日井市" }, "geometry": { "type": "Point", "coordinates": [ 137.015685100000013, 35.2591767 ] } },
{ "type": "Feature", "properties": { "URL": "https://www.kaigokensaku.mhlw.go.jp/23/index.php?action_kouhyou_detail_023_kani=true&JigyosyoCd=2371303633-00&ServiceCd=430&Type=search", "名称": "居宅介護支援事業所　千寿", "内容2": null, "郵便番号": null, "所在地": "〒463-0021大森二丁目2008 梅本コーポラス２Ｂ", "区分": "居宅介護支援", "緯度": 35.2073427, "経度": 136.9945367, "サービス提供地域": "名古屋市守山区、尾張旭市" }, "geometry": { "type": "Point", "coordinates": [ 136.9945367, 35.2073427 ] } },
{ "type": "Feature", "properties": { "URL": "https://www.kaigokensaku.mhlw.go.jp/23/index.php?action_kouhyou_detail_023_kani=true&JigyosyoCd=2374501738-00&ServiceCd=430&Type=search", "名称": "居宅介護支援事業所ルピナス", "内容2": null, "郵便番号": null, "所在地": "〒488-0858愛知県尾張旭市白鳳町二丁目６７番地３", "区分": "居宅介護支援", "緯度": 35.2120733, "経度": 137.0159196, "サービス提供地域": "尾張旭市、瀬戸市、春日井市、犬山市、名古屋市（名東区、守山区、千種区）" }, "geometry": { "type": "Point", "coordinates": [ 137.015919599999989, 35.2120733 ] } },
{ "type": "Feature", "properties": { "URL": "https://www.kaigokensaku.mhlw.go.jp/23/index.php?action_kouhyou_detail_023_kani=true&JigyosyoCd=2372700696-00&ServiceCd=430&Type=search", "名称": "ネットワーク愛知居宅介護支援事業所", "内容2": null, "郵便番号": null, "所在地": "〒496-0025愛知県津島市中一色町西訳30番地", "区分": "居宅介護支援", "緯度": 35.1499459, "経度": 136.7565102, "サービス提供地域": "津島市・愛西市・蟹江町・弥富市・名古屋市" }, "geometry": { "type": "Point", "coordinates": [ 136.7565102, 35.1499459 ] } },
{ "type": "Feature", "properties": { "URL": "https://www.kaigokensaku.mhlw.go.jp/23/index.php?action_kouhyou_detail_023_kani=true&JigyosyoCd=2375300098-00&ServiceCd=430&Type=search", "名称": "居宅介護支援事業所　扶桑苑", "内容2": null, "郵便番号": null, "所在地": "〒480-0101愛知県丹羽郡扶桑町大字山那字番所下８３－５", "区分": "居宅介護支援", "緯度": 35.3736558, "経度": 136.9179857, "サービス提供地域": "扶桑町全般・江南市（中般若町、般若町、和田町、草井町）犬山市（上野、上野新町、木津）" }, "geometry": { "type": "Point", "coordinates": [ 136.9179857, 35.3736558 ] } },
{ "type": "Feature", "properties": { "URL": "https://www.kaigokensaku.mhlw.go.jp/23/index.php?action_kouhyou_detail_023_kani=true&JigyosyoCd=2373800123-00&ServiceCd=430&Type=search", "名称": "介護ステーションひまわり", "内容2": null, "郵便番号": null, "所在地": "〒485-0041愛知県小牧市小牧一丁目135番地", "区分": "居宅介護支援", "緯度": 35.2944435, "経度": 136.9203111, "サービス提供地域": "小牧市，春日井市，岩倉市，犬山市，江南市，大口町，扶桑町，北名古屋市，名古屋市（北区・西区）" }, "geometry": { "type": "Point", "coordinates": [ 136.9203111, 35.2944435 ] } },
{ "type": "Feature", "properties": { "URL": "https://www.kaigokensaku.mhlw.go.jp/23/index.php?action_kouhyou_detail_023_kani=true&JigyosyoCd=2372001392-00&ServiceCd=430&Type=search", "名称": "あい居宅介護支援事業所", "内容2": null, "郵便番号": null, "所在地": "〒440-0021愛知県豊橋市多米町字北脇２番地の３", "区分": "居宅介護支援", "緯度": 34.7621095, "経度": 137.4533489, "サービス提供地域": "豊橋市、湖西市、浜松市三ケ日町" }, "geometry": { "type": "Point", "coordinates": [ 137.4533489, 34.7621095 ] } },
{ "type": "Feature", "properties": { "URL": "https://www.kaigokensaku.mhlw.go.jp/23/index.php?action_kouhyou_detail_023_kani=true&JigyosyoCd=2372205993-00&ServiceCd=430&Type=search", "名称": "ケアプラン　アクア", "内容2": null, "郵便番号": null, "所在地": "〒491-0201愛知県一宮市奥町字内込47番地3 コーポ内込102号", "区分": "居宅介護支援", "緯度": 35.3244699, "経度": 136.7478681, "サービス提供地域": "一宮市、小牧市、江南市、稲沢市、岐阜市、羽島市、羽島郡、各務原市" }, "geometry": { "type": "Point", "coordinates": [ 136.7478681, 35.3244699 ] } },
{ "type": "Feature", "properties": { "URL": "https://www.kaigokensaku.mhlw.go.jp/23/index.php?action_kouhyou_detail_023_kani=true&JigyosyoCd=2372205985-00&ServiceCd=430&Type=search", "名称": "ケアプランおと", "内容2": null, "郵便番号": null, "所在地": "〒491-0022両郷町5丁目51-3 コーポ満寿美104", "区分": "居宅介護支援", "緯度": 35.3160411, "経度": 136.821033, "サービス提供地域": "一宮市、小牧市、江南市、稲沢市、岐阜市、羽島市、各務原市、羽島郡" }, "geometry": { "type": "Point", "coordinates": [ 136.821033, 35.3160411 ] } },
{ "type": "Feature", "properties": { "URL": "https://www.kaigokensaku.mhlw.go.jp/23/index.php?action_kouhyou_detail_023_kani=true&JigyosyoCd=2372003794-00&ServiceCd=430&Type=search", "名称": "ケアプラン・ベスト", "内容2": null, "郵便番号": null, "所在地": "〒440-0853愛知県豊橋市佐藤1丁目19－5 レンタルオフィスK", "区分": "居宅介護支援", "緯度": 34.747855, "経度": 137.4048677, "サービス提供地域": "豊橋市全域" }, "geometry": { "type": "Point", "coordinates": [ 137.404867700000011, 34.747855 ] } },
{ "type": "Feature", "properties": { "URL": "https://www.kaigokensaku.mhlw.go.jp/23/index.php?action_kouhyou_detail_023_kani=true&JigyosyoCd=2376500316-00&ServiceCd=430&Type=search", "名称": "あおいの里", "内容2": null, "郵便番号": null, "所在地": "〒441-0105愛知県豊川市伊奈町縫殿26-208", "区分": "居宅介護支援", "緯度": 34.8003121, "経度": 137.351938, "サービス提供地域": "豊川市南部地域" }, "geometry": { "type": "Point", "coordinates": [ 137.351938, 34.8003121 ] } },
{ "type": "Feature", "properties": { "URL": "https://www.kaigokensaku.mhlw.go.jp/23/index.php?action_kouhyou_detail_023_kani=true&JigyosyoCd=2373600093-00&ServiceCd=430&Type=search", "名称": "介護保険センター　さとう", "内容2": null, "郵便番号": null, "所在地": "〒483-8259愛知県江南市上奈良町緑48", "区分": "居宅介護支援", "緯度": 35.3318244, "経度": 136.8593339, "サービス提供地域": "江南市" }, "geometry": { "type": "Point", "coordinates": [ 136.8593339, 35.3318244 ] } },
{ "type": "Feature", "properties": { "URL": "https://www.kaigokensaku.mhlw.go.jp/23/index.php?action_kouhyou_detail_023_kani=true&JigyosyoCd=2373001730-00&ServiceCd=430&Type=search", "名称": "いなぶ介護支援事業所", "内容2": null, "郵便番号": null, "所在地": "〒441-2521愛知県豊田市桑原町中村５番地", "区分": "居宅介護支援", "緯度": 35.2142839, "経度": 137.5020772, "サービス提供地域": "稲武町、中当町、夏焼町、野入町、大野瀬町、押山町、武節町、桑原町、御所貝津町、川手町、黒田町、小田木町、富永町、明川町、連谷町、大多賀町、平沢町、田津原町（以上　豊田市）　　 北設楽郡設楽町の西納庫地内　　 岐阜県恵那市上矢作町小田子地内　 長野県下伊那郡根羽村の月瀬地内" }, "geometry": { "type": "Point", "coordinates": [ 137.5020772, 35.2142839 ] } },
{ "type": "Feature", "properties": { "URL": "https://www.kaigokensaku.mhlw.go.jp/23/index.php?action_kouhyou_detail_023_kani=true&JigyosyoCd=2374300859-00&ServiceCd=430&Type=search", "名称": "ケアプランセンター助太刀", "内容2": null, "郵便番号": null, "所在地": "〒478-0055愛知県知多市にしの台２丁目３１２番地", "区分": "居宅介護支援", "緯度": 34.9779103, "経度": 136.8748874, "サービス提供地域": "知多市・常滑市・阿久比町・東浦町・半田市・大府市・東海市・刈谷市" }, "geometry": { "type": "Point", "coordinates": [ 136.8748874, 34.9779103 ] } },
{ "type": "Feature", "properties": { "URL": "https://www.kaigokensaku.mhlw.go.jp/23/index.php?action_kouhyou_detail_023_kani=true&JigyosyoCd=2375600067-00&ServiceCd=430&Type=search", "名称": "宝会指定居宅介護支援事業所", "内容2": null, "郵便番号": null, "所在地": "〒497-0012愛知県あま市七宝町下田矢倉下１４３３", "区分": "居宅介護支援", "緯度": 35.1732692, "経度": 136.7843716, "サービス提供地域": "あま市・海部郡大治町・津島市" }, "geometry": { "type": "Point", "coordinates": [ 136.784371599999986, 35.1732692 ] } },
{ "type": "Feature", "properties": { "URL": "https://www.kaigokensaku.mhlw.go.jp/23/index.php?action_kouhyou_detail_023_kani=true&JigyosyoCd=2377601253-00&ServiceCd=430&Type=search", "名称": "清温居宅介護支援事業所", "内容2": null, "郵便番号": null, "所在地": "〒490-1203愛知県あま市木折寺田15番地2", "区分": "居宅介護支援", "緯度": 35.1909974, "経度": 136.7993866, "サービス提供地域": "あま市・津島市・大治町・清須市・名古屋市（中村区）・愛西市" }, "geometry": { "type": "Point", "coordinates": [ 136.7993866, 35.1909974 ] } },
{ "type": "Feature", "properties": { "URL": "https://www.kaigokensaku.mhlw.go.jp/23/index.php?action_kouhyou_detail_023_kani=true&JigyosyoCd=2373902143-00&ServiceCd=430&Type=search", "名称": "ケアプラン おかげ de にっこり", "内容2": null, "郵便番号": null, "所在地": "〒492-8137愛知県稲沢市国府宮４丁目3-12 クリーンレジデンス202号", "区分": "居宅介護支援", "緯度": 35.2554433, "経度": 136.8091492, "サービス提供地域": "稲沢市、岩倉市、一宮市、津島市、清須市、あま市、愛西市、弥富市、蟹江町、名古屋市、小牧市、春日井市、江南市、犬山市、大口町、北名古屋市等" }, "geometry": { "type": "Point", "coordinates": [ 136.8091492, 35.2554433 ] } },
{ "type": "Feature", "properties": { "URL": "https://www.kaigokensaku.mhlw.go.jp/23/index.php?action_kouhyou_detail_023_kani=true&JigyosyoCd=2372100269-00&ServiceCd=430&Type=search", "名称": "居宅介護支援事業所愛厚ホーム岡崎苑", "内容2": null, "郵便番号": null, "所在地": "〒444-3524愛知県岡崎市竜泉寺町字松本３４－６", "区分": "居宅介護支援", "緯度": 34.9011057, "経度": 137.2028772, "サービス提供地域": "岡崎市、幸田町" }, "geometry": { "type": "Point", "coordinates": [ 137.202877199999989, 34.9011057 ] } },
{ "type": "Feature", "properties": { "URL": "https://www.kaigokensaku.mhlw.go.jp/23/index.php?action_kouhyou_detail_023_kani=true&JigyosyoCd=2371200219-00&ServiceCd=430&Type=search", "名称": "指定居宅介護支援センターはるかぜ", "内容2": null, "郵便番号": null, "所在地": "〒457-0845名古屋市南区観音町６丁目２０番地", "区分": "居宅介護支援", "緯度": 35.0987358, "経度": 136.9078798, "サービス提供地域": "南区、港区、瑞穂区" }, "geometry": { "type": "Point", "coordinates": [ 136.907879799999989, 35.0987358 ] } },
{ "type": "Feature", "properties": { "URL": "https://www.kaigokensaku.mhlw.go.jp/23/index.php?action_kouhyou_detail_023_kani=true&JigyosyoCd=2374600357-00&ServiceCd=430&Type=search", "名称": "パートナーケア高浜", "内容2": null, "郵便番号": null, "所在地": "〒444-1335愛知県高浜市芳川町一丁目３番地３８ ルネスフェリーチェ101号室", "区分": "居宅介護支援", "緯度": 34.9410979, "経度": 136.9835992, "サービス提供地域": "高浜市・碧南市・刈谷市・安城市・西尾市" }, "geometry": { "type": "Point", "coordinates": [ 136.983599199999986, 34.9410979 ] } },
{ "type": "Feature", "properties": { "URL": "https://www.kaigokensaku.mhlw.go.jp/23/index.php?action_kouhyou_detail_023_kani=true&JigyosyoCd=2372105631-00&ServiceCd=430&Type=search", "名称": "介護相談 すずらん", "内容2": null, "郵便番号": null, "所在地": "〒444-0204愛知県岡崎市土井町字西善道38番地2", "区分": "居宅介護支援", "緯度": 34.920418, "経度": 137.1400666, "サービス提供地域": "岡崎市、幸田町、西尾市、安城市、豊田市、蒲郡市、高浜市、碧南市、刈谷市、知立市、新城市、豊川市" }, "geometry": { "type": "Point", "coordinates": [ 137.140066600000011, 34.920418 ] } },
{ "type": "Feature", "properties": { "URL": "https://www.kaigokensaku.mhlw.go.jp/23/index.php?action_kouhyou_detail_023_kani=true&JigyosyoCd=2373003736-00&ServiceCd=430&Type=search", "名称": "ケアプランセンター喜楽", "内容2": null, "郵便番号": null, "所在地": "〒471-0034豊田市小坂本町４丁目１－２ ラ・エスペランサＢ棟１０３号室", "区分": "居宅介護支援", "緯度": 35.0852118, "経度": 137.1525068, "サービス提供地域": "豊田市逢妻町、秋葉町、朝日ヶ丘、朝日町、梅坪町、上挙母、栄生町、小川町、大池町、落合町、柿本町、金谷町、川端町、神田町、喜多町、京町、久保町、小坂町、小坂本町、寿町、挙母町、衣ヶ原、栄町、桜町、三軒町、汐見町、下市場町、下林町、樹木町、昭和町、白浜町、新生町、陣中町、新町、神明町、砂町、千足町、太平町、高崎町、高原町、竹生町、田代町、田中町、田町、長興寺、司町、月見町、土橋町、貞宝町、天王町、東新町、常盤町、十塚町、トヨタ町、中島町、錦町、西新町、西町、西山町、日南町、白山町、八幡町、花丘町、東梅坪町、久" }, "geometry": { "type": "Point", "coordinates": [ 137.1525068, 35.0852118 ] } },
{ "type": "Feature", "properties": { "URL": "https://www.kaigokensaku.mhlw.go.jp/23/index.php?action_kouhyou_detail_023_kani=true&JigyosyoCd=2372204103-00&ServiceCd=430&Type=search", "名称": "緑の家　けあぷらん 一宮", "内容2": null, "郵便番号": null, "所在地": "〒491-0862愛知県一宮市緑四丁目10番25号", "区分": "居宅介護支援", "緯度": 35.2994923, "経度": 136.8213121, "サービス提供地域": "一宮市" }, "geometry": { "type": "Point", "coordinates": [ 136.8213121, 35.2994923 ] } },
{ "type": "Feature", "properties": { "URL": "https://www.kaigokensaku.mhlw.go.jp/23/index.php?action_kouhyou_detail_023_kani=true&JigyosyoCd=2370403731-00&ServiceCd=430&Type=search", "名称": "緑の家　けあぷらん 名西", "内容2": null, "郵便番号": null, "所在地": "〒452-0821愛知県名古屋市西区上小田井二丁目101番地 グランドール緑地公園401", "区分": "居宅介護支援", "緯度": 35.2183594, "経度": 136.8790265, "サービス提供地域": "名古屋市西区・北区・中村区、清須市、北名古屋市" }, "geometry": { "type": "Point", "coordinates": [ 136.8790265, 35.2183594 ] } },
{ "type": "Feature", "properties": { "URL": "https://www.kaigokensaku.mhlw.go.jp/23/index.php?action_kouhyou_detail_023_kani=true&JigyosyoCd=2370201721-00&ServiceCd=430&Type=search", "名称": "ケアプランセンター　ねこの手", "内容2": null, "郵便番号": null, "所在地": "〒461-0004愛知県名古屋市東区葵２丁目3番56号 ヘリオ葵103号", "区分": "居宅介護支援", "緯度": 35.1735871, "経度": 136.9257148, "サービス提供地域": "名古屋市全域" }, "geometry": { "type": "Point", "coordinates": [ 136.9257148, 35.173587100000013 ] } },
{ "type": "Feature", "properties": { "URL": "https://www.kaigokensaku.mhlw.go.jp/23/index.php?action_kouhyou_detail_023_kani=true&JigyosyoCd=2373300140-00&ServiceCd=430&Type=search", "名称": "ＪＡ蒲郡市介護センター", "内容2": null, "郵便番号": null, "所在地": "〒443-0058愛知県蒲郡市上本町2番25号", "区分": "居宅介護支援", "緯度": 34.8317102, "経度": 137.2282806, "サービス提供地域": "蒲郡市内" }, "geometry": { "type": "Point", "coordinates": [ 137.2282806, 34.8317102 ] } },
{ "type": "Feature", "properties": { "URL": "https://www.kaigokensaku.mhlw.go.jp/23/index.php?action_kouhyou_detail_023_kani=true&JigyosyoCd=2370802015-00&ServiceCd=430&Type=search", "名称": "ケアプランはーとねっと瑞穂", "内容2": null, "郵便番号": null, "所在地": "〒467-0874愛知県名古屋市瑞穂区太田町3-1-3 サンサーラ宝山313号", "区分": "居宅介護支援", "緯度": 35.1376607, "経度": 136.9213778, "サービス提供地域": "名古屋市内全域" }, "geometry": { "type": "Point", "coordinates": [ 136.921377799999988, 35.1376607 ] } },
{ "type": "Feature", "properties": { "URL": "https://www.kaigokensaku.mhlw.go.jp/23/index.php?action_kouhyou_detail_023_kani=true&JigyosyoCd=2375700024-00&ServiceCd=430&Type=search", "名称": "居宅介護支援事業所　グラシア", "内容2": null, "郵便番号": null, "所在地": "〒470-2105愛知県知多郡東浦町大字藤江字山敷１３９－８", "区分": "居宅介護支援", "緯度": 34.9453232, "経度": 136.9613406, "サービス提供地域": "東浦町全域" }, "geometry": { "type": "Point", "coordinates": [ 136.9613406, 34.9453232 ] } },
{ "type": "Feature", "properties": { "URL": "https://www.kaigokensaku.mhlw.go.jp/23/index.php?action_kouhyou_detail_023_kani=true&JigyosyoCd=2375702426-00&ServiceCd=430&Type=search", "名称": "ケアプランセンターあした葉", "内容2": null, "郵便番号": null, "所在地": "〒470-2401愛知県知多郡美浜町布土字和田180", "区分": "居宅介護支援", "緯度": 34.7978328, "経度": 136.9177143, "サービス提供地域": "美浜町　南知多町　武豊町　阿久比町　半田市　知多市　東海市　東浦町　常滑市" }, "geometry": { "type": "Point", "coordinates": [ 136.9177143, 34.7978328 ] } },
{ "type": "Feature", "properties": { "URL": "https://www.kaigokensaku.mhlw.go.jp/23/index.php?action_kouhyou_detail_023_kani=true&JigyosyoCd=2373601240-00&ServiceCd=430&Type=search", "名称": "医療法人　不動会　なかむら・ファミリー居宅介護支援事業所", "内容2": null, "郵便番号": null, "所在地": "〒483-8418愛知県江南市東野町米野68番地", "区分": "居宅介護支援", "緯度": 35.3342614, "経度": 136.8572595, "サービス提供地域": "江南市　一宮市　扶桑町　大口町" }, "geometry": { "type": "Point", "coordinates": [ 136.8572595, 35.3342614 ] } },
{ "type": "Feature", "properties": { "URL": "https://www.kaigokensaku.mhlw.go.jp/23/index.php?action_kouhyou_detail_023_kani=true&JigyosyoCd=2372104758-00&ServiceCd=430&Type=search", "名称": "みかんの木ケアプランセンター", "内容2": null, "郵便番号": null, "所在地": "〒444-2135愛知県岡崎市大門２丁目１３番地１０ ライフステージ１０６", "区分": "居宅介護支援", "緯度": 34.9879297, "経度": 137.1490513, "サービス提供地域": "岡崎市" }, "geometry": { "type": "Point", "coordinates": [ 137.1490513, 34.9879297 ] } },
{ "type": "Feature", "properties": { "URL": "https://www.kaigokensaku.mhlw.go.jp/23/index.php?action_kouhyou_detail_023_kani=true&JigyosyoCd=2372601951-00&ServiceCd=430&Type=search", "名称": "医療法人啓仁会　居宅介護支援事業所　たんぽぽ", "内容2": null, "郵便番号": null, "所在地": "〒442-0851愛知県豊川市野口町道下３１番地", "区分": "居宅介護支援", "緯度": 34.8295404, "経度": 137.3569236, "サービス提供地域": "豊川市" }, "geometry": { "type": "Point", "coordinates": [ 137.356923599999988, 34.8295404 ] } },
{ "type": "Feature", "properties": { "URL": "https://www.kaigokensaku.mhlw.go.jp/23/index.php?action_kouhyou_detail_023_kani=true&JigyosyoCd=2373200613-00&ServiceCd=430&Type=search", "名称": "ケアプランセンターシルヴィー西尾", "内容2": null, "郵便番号": null, "所在地": "〒444-0301愛知県西尾市田貫町市川原73番地", "区分": "居宅介護支援", "緯度": 34.8702165, "経度": 137.0265137, "サービス提供地域": "西尾市（吉良町、一色町、西幡豆町、東幡豆町、寺部町、鳥羽町、佐久島を除く）・碧南市・高浜市" }, "geometry": { "type": "Point", "coordinates": [ 137.02651370000001, 34.8702165 ] } },
{ "type": "Feature", "properties": { "URL": "https://www.kaigokensaku.mhlw.go.jp/23/index.php?action_kouhyou_detail_023_kani=true&JigyosyoCd=2372600938-00&ServiceCd=430&Type=search", "名称": "ケアプランセンター　あいゆう", "内容2": null, "郵便番号": null, "所在地": "〒442-0826愛知県豊川市牛久保町岸下41", "区分": "居宅介護支援", "緯度": 34.8097285, "経度": 137.3849938, "サービス提供地域": "豊川市、 上記の地域以外は要相談" }, "geometry": { "type": "Point", "coordinates": [ 137.3849938, 34.8097285 ] } },
{ "type": "Feature", "properties": { "URL": "https://www.kaigokensaku.mhlw.go.jp/23/index.php?action_kouhyou_detail_023_kani=true&JigyosyoCd=2375602477-00&ServiceCd=430&Type=search", "名称": "海部南部ケアプラン", "内容2": null, "郵便番号": null, "所在地": "〒497-0058愛知県海部郡蟹江町富吉三丁目２２１ タウニィ鶴正A棟２０３", "区分": "居宅介護支援", "緯度": 35.1236108, "経度": 136.7719711, "サービス提供地域": "蟹江町、弥富市、飛島村、名古屋市、津島市、愛西市、あま市" }, "geometry": { "type": "Point", "coordinates": [ 136.7719711, 35.1236108 ] } },
{ "type": "Feature", "properties": { "URL": "https://www.kaigokensaku.mhlw.go.jp/23/index.php?action_kouhyou_detail_023_kani=true&JigyosyoCd=2374700488-00&ServiceCd=430&Type=search", "名称": "居宅介護支援事業所ひかり", "内容2": null, "郵便番号": null, "所在地": "〒482-0041愛知県岩倉市東町東市場屋敷３０７番地 ドミール旭A棟２０１号", "区分": "居宅介護支援", "緯度": 35.2856424, "経度": 136.8776233, "サービス提供地域": "岩倉市、一宮市、小牧市、北名古屋市、江南市、名古屋市（西区・北区・中村区・中区・東区・千種区・昭和区）" }, "geometry": { "type": "Point", "coordinates": [ 136.87762330000001, 35.2856424 ] } },
{ "type": "Feature", "properties": { "URL": "https://www.kaigokensaku.mhlw.go.jp/23/index.php?action_kouhyou_detail_023_kani=true&JigyosyoCd=2373004437-00&ServiceCd=430&Type=search", "名称": "相談処　げつじんのまど", "内容2": null, "郵便番号": null, "所在地": "〒444-2424愛知県豊田市足助町植田4", "区分": "居宅介護支援", "緯度": 35.1389629, "経度": 137.3302656, "サービス提供地域": "豊田市全般" }, "geometry": { "type": "Point", "coordinates": [ 137.3302656, 35.1389629 ] } },
{ "type": "Feature", "properties": { "URL": "https://www.kaigokensaku.mhlw.go.jp/23/index.php?action_kouhyou_detail_023_kani=true&JigyosyoCd=2374800767-00&ServiceCd=430&Type=search", "名称": "みずのクリニック居宅介護支援事業所みやび", "内容2": null, "郵便番号": null, "所在地": "〒470-1152愛知県豊明市前後町仙人塚1767番地", "区分": "居宅介護支援", "緯度": 35.0545964, "経度": 136.9982216, "サービス提供地域": "豊明市、名古屋市緑区、刈谷市、東郷町、大府市、知立市、みよし市" }, "geometry": { "type": "Point", "coordinates": [ 136.9982216, 35.0545964 ] } },
{ "type": "Feature", "properties": { "URL": "https://www.kaigokensaku.mhlw.go.jp/23/index.php?action_kouhyou_detail_023_kani=true&JigyosyoCd=2373802046-00&ServiceCd=430&Type=search", "名称": "コープあいち福祉サービス小牧居宅", "内容2": null, "郵便番号": null, "所在地": "〒485-0821愛知県小牧市本庄2018-2", "区分": "居宅介護支援", "緯度": 35.3081485, "経度": 136.9597102, "サービス提供地域": "小牧市、犬山市、江南市、岩倉市、大口町、扶桑町" }, "geometry": { "type": "Point", "coordinates": [ 136.959710199999989, 35.3081485 ] } },
{ "type": "Feature", "properties": { "URL": "https://www.kaigokensaku.mhlw.go.jp/23/index.php?action_kouhyou_detail_023_kani=true&JigyosyoCd=2373800594-00&ServiceCd=430&Type=search", "名称": "小牧居宅介護支援事業所デプレ", "内容2": null, "郵便番号": null, "所在地": "〒485-0023愛知県小牧市北外山字桜井807-5番地 小牧クリニック内", "区分": "居宅介護支援", "緯度": 35.2804531, "経度": 136.9248664, "サービス提供地域": "小牧市・春日井市・岩倉市・西春日井郡・北名古屋市・犬山市" }, "geometry": { "type": "Point", "coordinates": [ 136.924866400000013, 35.2804531 ] } },
{ "type": "Feature", "properties": { "URL": "https://www.kaigokensaku.mhlw.go.jp/23/index.php?action_kouhyou_detail_023_kani=true&JigyosyoCd=2372503819-00&ServiceCd=430&Type=search", "名称": "居宅介護支援　すないの家　春日井", "内容2": null, "郵便番号": null, "所在地": "〒486-0803春日井市西山町五丁目5番1", "区分": "居宅介護支援", "緯度": 35.276525, "経度": 136.9794472, "サービス提供地域": "春日井市・名古屋市守山区・北区・西区" }, "geometry": { "type": "Point", "coordinates": [ 136.97944720000001, 35.276525 ] } },
{ "type": "Feature", "properties": { "URL": "https://www.kaigokensaku.mhlw.go.jp/23/index.php?action_kouhyou_detail_023_kani=true&JigyosyoCd=2374800866-00&ServiceCd=430&Type=search", "名称": "れんこん", "内容2": null, "郵便番号": null, "所在地": "〒470-1161愛知県豊明市栄町大原18-18", "区分": "居宅介護支援", "緯度": 35.047926, "経度": 136.9817678, "サービス提供地域": "名古屋市緑区・刈谷市・豊明市" }, "geometry": { "type": "Point", "coordinates": [ 136.9817678, 35.047926 ] } },
{ "type": "Feature", "properties": { "URL": "https://www.kaigokensaku.mhlw.go.jp/23/index.php?action_kouhyou_detail_023_kani=true&JigyosyoCd=2370103372-00&ServiceCd=430&Type=search", "名称": "居宅介護支援事業所　ちえの和", "内容2": null, "郵便番号": null, "所在地": "〒464-0801愛知県名古屋市千種区星ケ丘二丁目３９番地の６ ビラカレッジ６－３０３号室", "区分": "居宅介護支援", "緯度": 35.1649938, "経度": 136.9896365, "サービス提供地域": "名古屋市内全域" }, "geometry": { "type": "Point", "coordinates": [ 136.989636499999989, 35.1649938 ] } },
{ "type": "Feature", "properties": { "URL": "https://www.kaigokensaku.mhlw.go.jp/23/index.php?action_kouhyou_detail_023_kani=true&JigyosyoCd=2371601549-00&ServiceCd=430&Type=search", "名称": "アメニティホーム塩釜", "内容2": null, "郵便番号": null, "所在地": "〒468-0066名古屋市天白区元八事3丁目３２１番地", "区分": "居宅介護支援", "緯度": 35.1274587, "経度": 136.9718884, "サービス提供地域": "天白区　昭和区" }, "geometry": { "type": "Point", "coordinates": [ 136.971888400000012, 35.1274587 ] } },
{ "type": "Feature", "properties": { "URL": "https://www.kaigokensaku.mhlw.go.jp/23/index.php?action_kouhyou_detail_023_kani=true&JigyosyoCd=2372600144-00&ServiceCd=430&Type=search", "名称": "すわケアプランセンター", "内容2": null, "郵便番号": null, "所在地": "〒442-0068愛知県豊川市諏訪2丁目30番地の1", "区分": "居宅介護支援", "緯度": 34.8233714, "経度": 137.3713308, "サービス提供地域": "豊川市" }, "geometry": { "type": "Point", "coordinates": [ 137.37133080000001, 34.8233714 ] } },
{ "type": "Feature", "properties": { "URL": "https://www.kaigokensaku.mhlw.go.jp/23/index.php?action_kouhyou_detail_023_kani=true&JigyosyoCd=2371604055-00&ServiceCd=430&Type=search", "名称": "はっぴーのーと居宅介護支援事業所", "内容2": null, "郵便番号": null, "所在地": "〒468-0039名古屋市天白区西入町165番地", "区分": "居宅介護支援", "緯度": 35.1122952, "経度": 136.977474, "サービス提供地域": "南区、天白区、緑区、港区、中川区、中村区、名東区、千種区、守山区" }, "geometry": { "type": "Point", "coordinates": [ 136.977474, 35.1122952 ] } },
{ "type": "Feature", "properties": { "URL": "https://www.kaigokensaku.mhlw.go.jp/23/index.php?action_kouhyou_detail_023_kani=true&JigyosyoCd=2372700019-00&ServiceCd=430&Type=search", "名称": "恵寿荘居宅介護支援事業所", "内容2": null, "郵便番号": null, "所在地": "〒496-0026愛知県津島市唐臼町半池72番地６", "区分": "居宅介護支援", "緯度": 35.1556979, "経度": 136.7492849, "サービス提供地域": "津島市、愛西市、大治町・あま市・蟹江町" }, "geometry": { "type": "Point", "coordinates": [ 136.7492849, 35.1556979 ] } },
{ "type": "Feature", "properties": { "URL": "https://www.kaigokensaku.mhlw.go.jp/23/index.php?action_kouhyou_detail_023_kani=true&JigyosyoCd=2375601800-00&ServiceCd=430&Type=search", "名称": "プライマリ ケアプランセンター", "内容2": null, "郵便番号": null, "所在地": "〒490-1107あま市森二丁目6-5", "区分": "居宅介護支援", "緯度": 35.2083305, "経度": 136.813182, "サービス提供地域": "あま市、大治町、清須市（その他地域は相談）" }, "geometry": { "type": "Point", "coordinates": [ 136.813182, 35.2083305 ] } },
{ "type": "Feature", "properties": { "URL": "https://www.kaigokensaku.mhlw.go.jp/23/index.php?action_kouhyou_detail_023_kani=true&JigyosyoCd=2373401203-00&ServiceCd=430&Type=search", "名称": "こもれび介護相談室", "内容2": null, "郵便番号": null, "所在地": "〒484-0081愛知県犬山市大字犬山字西馬場先４番地１０", "区分": "居宅介護支援", "緯度": 35.3800321, "経度": 136.9327598, "サービス提供地域": "犬山市、扶桑町、小牧市、可児市、各務原市" }, "geometry": { "type": "Point", "coordinates": [ 136.932759800000014, 35.3800321 ] } },
{ "type": "Feature", "properties": { "URL": "https://www.kaigokensaku.mhlw.go.jp/23/index.php?action_kouhyou_detail_023_kani=true&JigyosyoCd=2374501258-00&ServiceCd=430&Type=search", "名称": "尾張旭ケアセンターそよ風", "内容2": null, "郵便番号": null, "所在地": "〒488-0033愛知県尾張旭市東本地ヶ原町3-6", "区分": "居宅介護支援", "緯度": 35.1979258, "経度": 137.0365353, "サービス提供地域": "尾張旭市、瀬戸市、長久手市、名古屋市全域、春日井市、日進市" }, "geometry": { "type": "Point", "coordinates": [ 137.0365353, 35.1979258 ] } },
{ "type": "Feature", "properties": { "URL": "https://www.kaigokensaku.mhlw.go.jp/23/index.php?action_kouhyou_detail_023_kani=true&JigyosyoCd=2377300591-00&ServiceCd=430&Type=search", "名称": "ケアプランはるひ", "内容2": null, "郵便番号": null, "所在地": "〒452-0901愛知県清須市阿原鴨池76-1", "区分": "居宅介護支援", "緯度": 35.2171558, "経度": 136.8566826, "サービス提供地域": "清須市、北名古屋市、稲沢市、あま市、名古屋市西区" }, "geometry": { "type": "Point", "coordinates": [ 136.8566826, 35.2171558 ] } },
{ "type": "Feature", "properties": { "URL": "https://www.kaigokensaku.mhlw.go.jp/23/index.php?action_kouhyou_detail_023_kani=true&JigyosyoCd=2372901153-00&ServiceCd=430&Type=search", "名称": "はじめやケアセンター", "内容2": null, "郵便番号": null, "所在地": "〒448-0861半城土北町三丁目204番地", "区分": "居宅介護支援", "緯度": 34.9838224, "経度": 137.0242904, "サービス提供地域": "刈谷市、高浜市、安城市、知立市、大府市、東浦町" }, "geometry": { "type": "Point", "coordinates": [ 137.024290400000012, 34.9838224 ] } },
{ "type": "Feature", "properties": { "URL": "https://www.kaigokensaku.mhlw.go.jp/23/index.php?action_kouhyou_detail_023_kani=true&JigyosyoCd=2372901872-00&ServiceCd=430&Type=search", "名称": "ケアプランでん", "内容2": null, "郵便番号": null, "所在地": "〒448-0847刈谷市宝町3-5-1", "区分": "居宅介護支援", "緯度": 34.9954234, "経度": 136.991547, "サービス提供地域": "刈谷市　知立市　高浜市　大府市　東浦町" }, "geometry": { "type": "Point", "coordinates": [ 136.991547, 34.9954234 ] } },
{ "type": "Feature", "properties": { "URL": "https://www.kaigokensaku.mhlw.go.jp/23/index.php?action_kouhyou_detail_023_kani=true&JigyosyoCd=2372501300-00&ServiceCd=430&Type=search", "名称": "居宅介護支援センター・ラプロ", "内容2": null, "郵便番号": null, "所在地": "〒480-0305春日井市坂下町５丁目1215番地の508", "区分": "居宅介護支援", "緯度": 35.2917506, "経度": 137.0293986, "サービス提供地域": "春日井市、小牧市、、名古屋市守山区" }, "geometry": { "type": "Point", "coordinates": [ 137.0293986, 35.2917506 ] } },
{ "type": "Feature", "properties": { "URL": "https://www.kaigokensaku.mhlw.go.jp/23/index.php?action_kouhyou_detail_023_kani=true&JigyosyoCd=2374900773-00&ServiceCd=430&Type=search", "名称": "赤池ケアセンター", "内容2": null, "郵便番号": null, "所在地": "〒470-0127赤池南2丁目110番地", "区分": "居宅介護支援", "緯度": 35.1155917, "経度": 137.0196572, "サービス提供地域": "日進市、長久手市、みよし市、東郷町、名古屋市天白区、名古屋市名東区 ＊上記地域以外の方でもご希望の方はご相談ください" }, "geometry": { "type": "Point", "coordinates": [ 137.019657200000012, 35.1155917 ] } },
{ "type": "Feature", "properties": { "URL": "https://www.kaigokensaku.mhlw.go.jp/23/index.php?action_kouhyou_detail_023_kani=true&JigyosyoCd=2370102002-00&ServiceCd=430&Type=search", "名称": "茶や坂居宅介護支援事業所", "内容2": null, "郵便番号": null, "所在地": "〒464-0093名古屋市千種区茶屋坂通一丁目１３番地 ユーケービル２０２号", "区分": "居宅介護支援", "緯度": 35.1826341, "経度": 136.9545366, "サービス提供地域": "名古屋市全域(但し事情によっては例外あり)。" }, "geometry": { "type": "Point", "coordinates": [ 136.954536600000012, 35.1826341 ] } },
{ "type": "Feature", "properties": { "URL": "https://www.kaigokensaku.mhlw.go.jp/23/index.php?action_kouhyou_detail_023_kani=true&JigyosyoCd=2375702145-00&ServiceCd=430&Type=search", "名称": "ケアプランセンター　こまっち～な", "内容2": null, "郵便番号": null, "所在地": "〒470-2211愛知県知多郡阿久比町大字草木字寺前５番地４", "区分": "居宅介護支援", "緯度": 34.9471617, "経度": 136.8940461, "サービス提供地域": "知多郡阿久比町、東浦町、半田市、知多市" }, "geometry": { "type": "Point", "coordinates": [ 136.8940461, 34.9471617 ] } },
{ "type": "Feature", "properties": { "URL": "https://www.kaigokensaku.mhlw.go.jp/23/index.php?action_kouhyou_detail_023_kani=true&JigyosyoCd=2372202867-00&ServiceCd=430&Type=search", "名称": "アルメゾンみづほ居宅介護支援事業所", "内容2": null, "郵便番号": null, "所在地": "〒494-0003愛知県一宮市三条字野間26番地1", "区分": "居宅介護支援", "緯度": 35.3137329, "経度": 136.7544098, "サービス提供地域": "一宮市、江南市、各務原市川島、稲沢市、羽島市" }, "geometry": { "type": "Point", "coordinates": [ 136.7544098, 35.3137329 ] } },
{ "type": "Feature", "properties": { "URL": "https://www.kaigokensaku.mhlw.go.jp/23/index.php?action_kouhyou_detail_023_kani=true&JigyosyoCd=2372201794-00&ServiceCd=430&Type=search", "名称": "まつまえ居宅介護支援ステーション", "内容2": null, "郵便番号": null, "所在地": "〒491-0851愛知県一宮市大江２丁目９番地１１", "区分": "居宅介護支援", "緯度": 35.3030259, "経度": 136.803862, "サービス提供地域": "一宮市全域、岩倉市、犬山市、丹羽郡扶桑町、江南市、稲沢市" }, "geometry": { "type": "Point", "coordinates": [ 136.803862, 35.3030259 ] } },
{ "type": "Feature", "properties": { "URL": "https://www.kaigokensaku.mhlw.go.jp/23/index.php?action_kouhyou_detail_023_kani=true&JigyosyoCd=2374200695-00&ServiceCd=430&Type=search", "名称": "ケアプランセンターさくらぎ", "内容2": null, "郵便番号": null, "所在地": "〒474-0044桜木町4-1-1", "区分": "居宅介護支援", "緯度": 34.9873113, "経度": 136.9181073, "サービス提供地域": "大府市　東海市　知多市　東浦町" }, "geometry": { "type": "Point", "coordinates": [ 136.9181073, 34.9873113 ] } },
{ "type": "Feature", "properties": { "URL": "https://www.kaigokensaku.mhlw.go.jp/23/index.php?action_kouhyou_detail_023_kani=true&JigyosyoCd=2375400013-00&ServiceCd=430&Type=search", "名称": "コムネックスみづほ居宅介護支援事業所", "内容2": null, "郵便番号": null, "所在地": "〒493-0001愛知県一宮市木曽川町黒田字西沼５２番地", "区分": "居宅介護支援", "緯度": 35.3507714, "経度": 136.7722102, "サービス提供地域": "一宮市、江南市、稲沢市" }, "geometry": { "type": "Point", "coordinates": [ 136.772210199999989, 35.3507714 ] } },
{ "type": "Feature", "properties": { "URL": "https://www.kaigokensaku.mhlw.go.jp/23/index.php?action_kouhyou_detail_023_kani=true&JigyosyoCd=2372900072-00&ServiceCd=430&Type=search", "名称": "CPU KARIYA", "内容2": null, "郵便番号": null, "所在地": "〒448-0003刈谷市一ツ木町一丁目１０番地７", "区分": "居宅介護支援", "緯度": 35.0121382, "経度": 137.0215008, "サービス提供地域": "刈谷市" }, "geometry": { "type": "Point", "coordinates": [ 137.021500800000013, 35.0121382 ] } },
{ "type": "Feature", "properties": { "URL": "https://www.kaigokensaku.mhlw.go.jp/23/index.php?action_kouhyou_detail_023_kani=true&JigyosyoCd=2370400737-00&ServiceCd=430&Type=search", "名称": "介護支援ノッポの会押切", "内容2": null, "郵便番号": null, "所在地": "〒451-0063愛知県名古屋市西区押切一丁目13番17号", "区分": "居宅介護支援", "緯度": 35.1871923, "経度": 136.8832136, "サービス提供地域": "名古屋市" }, "geometry": { "type": "Point", "coordinates": [ 136.8832136, 35.1871923 ] } },
{ "type": "Feature", "properties": { "URL": "https://www.kaigokensaku.mhlw.go.jp/23/index.php?action_kouhyou_detail_023_kani=true&JigyosyoCd=2372300174-00&ServiceCd=430&Type=search", "名称": "「せと中央」居宅介護支援事業所", "内容2": null, "郵便番号": null, "所在地": "〒489-0805愛知県瀬戸市陶原町3丁目12番地", "区分": "居宅介護支援", "緯度": 35.2236226, "経度": 137.0896986, "サービス提供地域": "瀬戸市、尾張旭市" }, "geometry": { "type": "Point", "coordinates": [ 137.0896986, 35.2236226 ] } },
{ "type": "Feature", "properties": { "URL": "https://www.kaigokensaku.mhlw.go.jp/23/index.php?action_kouhyou_detail_023_kani=true&JigyosyoCd=2370400166-00&ServiceCd=430&Type=search", "名称": "介護支援　ノッポの会", "内容2": null, "郵便番号": null, "所在地": "〒452-0832愛知県名古屋市西区平出町28番地", "区分": "居宅介護支援", "緯度": 35.2286798, "経度": 136.8694991, "サービス提供地域": "名古屋市西区" }, "geometry": { "type": "Point", "coordinates": [ 136.869499100000013, 35.2286798 ] } },
{ "type": "Feature", "properties": { "URL": "https://www.kaigokensaku.mhlw.go.jp/23/index.php?action_kouhyou_detail_023_kani=true&JigyosyoCd=2374200687-00&ServiceCd=430&Type=search", "名称": "さわやかの丘居宅介護支援事業所", "内容2": null, "郵便番号": null, "所在地": "〒474-0037愛知県大府市半月町四丁目188番地", "区分": "居宅介護支援", "緯度": 34.9971128, "経度": 136.9417604, "サービス提供地域": "知多北部広域連合の区域内（大府市、東海市、知多市、東浦町）、刈谷市" }, "geometry": { "type": "Point", "coordinates": [ 136.9417604, 34.9971128 ] } },
{ "type": "Feature", "properties": { "URL": "https://www.kaigokensaku.mhlw.go.jp/23/index.php?action_kouhyou_detail_023_kani=true&JigyosyoCd=2372205878-00&ServiceCd=430&Type=search", "名称": "ケアプランセンター　おむすび", "内容2": null, "郵便番号": null, "所在地": "〒493-8001愛知県一宮市北方町北方字泉屋郷190", "区分": "居宅介護支援", "緯度": 35.3616835, "経度": 136.7761465, "サービス提供地域": "一宮市と隣接する市" }, "geometry": { "type": "Point", "coordinates": [ 136.77614650000001, 35.3616835 ] } },
{ "type": "Feature", "properties": { "URL": "https://www.kaigokensaku.mhlw.go.jp/23/index.php?action_kouhyou_detail_023_kani=true&JigyosyoCd=2374300552-00&ServiceCd=430&Type=search", "名称": "ほのぼの園介護相談所", "内容2": null, "郵便番号": null, "所在地": "〒478-0036愛知県知多市新舞子字明知山101-6", "区分": "居宅介護支援", "緯度": 34.9505866, "経度": 136.8300139, "サービス提供地域": "知多市・常滑市（大野町１～１０丁目、小倉町（１～８丁目、晩台町、大塚町、西之口１～１０丁目、金山、久米、矢田、住吉町１～５丁目、小林町１～４丁目、青海町１～８丁目、西之口、若松町１～３丁目、蒲池、蒲池町１～６丁目、新田町１～５丁目、新明町１～６丁目、本郷町１～６丁目、榎戸、港町１～６丁目、榎戸町１～５丁目）" }, "geometry": { "type": "Point", "coordinates": [ 136.830013900000012, 34.9505866 ] } },
{ "type": "Feature", "properties": { "URL": "https://www.kaigokensaku.mhlw.go.jp/23/index.php?action_kouhyou_detail_023_kani=true&JigyosyoCd=2372301925-00&ServiceCd=430&Type=search", "名称": "居宅介護支援事業所　一房", "内容2": null, "郵便番号": null, "所在地": "〒489-0805瀬戸市陶原町六丁目１3番地１３ 1階　店舗", "区分": "居宅介護支援", "緯度": 35.2224383, "経度": 137.0854458, "サービス提供地域": "瀬戸市、尾張旭市、名古屋市名東区藤里町、守山区四軒家、" }, "geometry": { "type": "Point", "coordinates": [ 137.0854458, 35.2224383 ] } },
{ "type": "Feature", "properties": { "URL": "https://www.kaigokensaku.mhlw.go.jp/23/index.php?action_kouhyou_detail_023_kani=true&JigyosyoCd=2375601123-00&ServiceCd=430&Type=search", "名称": "海部東部介護支援センター", "内容2": null, "郵便番号": null, "所在地": "〒490-1105愛知県あま市新居屋鶴田14番地", "区分": "居宅介護支援", "緯度": 35.199194, "経度": 136.8107122, "サービス提供地域": "名古屋市（西区・中村区・中川区）、あま市、大治町、清州市、稲沢市、津島市、愛西市" }, "geometry": { "type": "Point", "coordinates": [ 136.810712200000012, 35.199194 ] } },
{ "type": "Feature", "properties": { "URL": "https://www.kaigokensaku.mhlw.go.jp/23/index.php?action_kouhyou_detail_023_kani=true&JigyosyoCd=2374201156-00&ServiceCd=430&Type=search", "名称": "介護支援Halelea", "内容2": null, "郵便番号": null, "所在地": "〒474-0072愛知県大府市北山町一丁目263番地", "区分": "居宅介護支援", "緯度": 35.0328667, "経度": 136.9662411, "サービス提供地域": "大府市、東海市" }, "geometry": { "type": "Point", "coordinates": [ 136.9662411, 35.0328667 ] } },
{ "type": "Feature", "properties": { "URL": "https://www.kaigokensaku.mhlw.go.jp/23/index.php?action_kouhyou_detail_023_kani=true&JigyosyoCd=2374700306-00&ServiceCd=430&Type=search", "名称": "ケアマネハウス　ライフケア岩倉", "内容2": null, "郵便番号": null, "所在地": "〒482-0031愛知県岩倉市八剱町大塚2番１", "区分": "居宅介護支援", "緯度": 35.2917858, "経度": 136.8749206, "サービス提供地域": "岩倉市、小牧市、江南市、北名古屋市" }, "geometry": { "type": "Point", "coordinates": [ 136.8749206, 35.2917858 ] } },
{ "type": "Feature", "properties": { "URL": "https://www.kaigokensaku.mhlw.go.jp/23/index.php?action_kouhyou_detail_023_kani=true&JigyosyoCd=2374201172-00&ServiceCd=430&Type=search", "名称": "トーカイ居宅介護支援事業所大府　アンシア", "内容2": null, "郵便番号": null, "所在地": "〒474-0074愛知県大府市共栄町９丁目９番地の１８", "区分": "居宅介護支援", "緯度": 35.0375155, "経度": 136.956641, "サービス提供地域": "大府市・東海市・東浦町・名古屋市緑区" }, "geometry": { "type": "Point", "coordinates": [ 136.956641, 35.0375155 ] } },
{ "type": "Feature", "properties": { "URL": "https://www.kaigokensaku.mhlw.go.jp/23/index.php?action_kouhyou_detail_023_kani=true&JigyosyoCd=2372501946-00&ServiceCd=430&Type=search", "名称": "あった介護ステーション", "内容2": null, "郵便番号": null, "所在地": "〒486-0817愛知県春日井市東野町10丁目11番地11", "区分": "居宅介護支援", "緯度": 35.2625135, "経度": 136.9806716, "サービス提供地域": "春日井市、小牧市、岩倉市、江南市、犬山市、扶桑町、大口町" }, "geometry": { "type": "Point", "coordinates": [ 136.9806716, 35.2625135 ] } },
{ "type": "Feature", "properties": { "URL": "https://www.kaigokensaku.mhlw.go.jp/23/index.php?action_kouhyou_detail_023_kani=true&JigyosyoCd=2374200323-00&ServiceCd=430&Type=search", "名称": "ケアプラン　おおぶ", "内容2": null, "郵便番号": null, "所在地": "〒474-0056愛知県大府市明成町四丁目１１２番地", "区分": "居宅介護支援", "緯度": 35.0223727, "経度": 136.9505013, "サービス提供地域": "大府市" }, "geometry": { "type": "Point", "coordinates": [ 136.950501300000013, 35.0223727 ] } },
{ "type": "Feature", "properties": { "URL": "https://www.kaigokensaku.mhlw.go.jp/23/index.php?action_kouhyou_detail_023_kani=true&JigyosyoCd=2374200851-00&ServiceCd=430&Type=search", "名称": "ケアプラン　あい", "内容2": null, "郵便番号": null, "所在地": "〒474-0025愛知県大府市中央町四丁目７７番地", "区分": "居宅介護支援", "緯度": 35.0082858, "経度": 136.9640374, "サービス提供地域": "大府市、東浦町、高浜市、碧南市、名古屋市、刈谷市、豊明市" }, "geometry": { "type": "Point", "coordinates": [ 136.9640374, 35.0082858 ] } },
{ "type": "Feature", "properties": { "URL": "https://www.kaigokensaku.mhlw.go.jp/23/index.php?action_kouhyou_detail_023_kani=true&JigyosyoCd=2374300743-00&ServiceCd=430&Type=search", "名称": "ｵｰﾌﾟﾝｹﾞｰﾄ　知多", "内容2": null, "郵便番号": null, "所在地": "〒478-0011知多市原２丁目７番地の３ エクセル原２０４号", "区分": "居宅介護支援", "緯度": 34.9729088, "経度": 136.9094251, "サービス提供地域": "知多市・東海市・大府市・東浦町" }, "geometry": { "type": "Point", "coordinates": [ 136.9094251, 34.9729088 ] } },
{ "type": "Feature", "properties": { "URL": "https://www.kaigokensaku.mhlw.go.jp/23/index.php?action_kouhyou_detail_023_kani=true&JigyosyoCd=2372901914-00&ServiceCd=430&Type=search", "名称": "ケアプランセンター晴ればれ", "内容2": null, "郵便番号": null, "所在地": "〒448-0813愛知県刈谷市小垣江町上松13-1 ディアコート103", "区分": "居宅介護支援", "緯度": 34.9659113, "経度": 136.9996433, "サービス提供地域": "刈谷市 碧南市 高浜市 安城市 大府市 知立市 東浦町" }, "geometry": { "type": "Point", "coordinates": [ 136.9996433, 34.9659113 ] } },
{ "type": "Feature", "properties": { "URL": "https://www.kaigokensaku.mhlw.go.jp/23/index.php?action_kouhyou_detail_023_kani=true&JigyosyoCd=2377300674-00&ServiceCd=430&Type=search", "名称": "はなさきクリニック　ケアプランセンター", "内容2": null, "郵便番号": null, "所在地": "〒452-0001愛知県清須市西枇杷島町古城1-9-4", "区分": "居宅介護支援", "緯度": 35.2060023, "経度": 136.8659758, "サービス提供地域": "清須市・名古屋市・北名古屋市・あま市" }, "geometry": { "type": "Point", "coordinates": [ 136.8659758, 35.2060023 ] } },
{ "type": "Feature", "properties": { "URL": "https://www.kaigokensaku.mhlw.go.jp/23/index.php?action_kouhyou_detail_023_kani=true&JigyosyoCd=2373003595-00&ServiceCd=430&Type=search", "名称": "合同会社野うさぎケアプランセンター", "内容2": null, "郵便番号": null, "所在地": "〒470-0332愛知県豊田市越戸町尺口２０７ー８", "区分": "居宅介護支援", "緯度": 35.1098949, "経度": 137.1898215, "サービス提供地域": "豊田市全域" }, "geometry": { "type": "Point", "coordinates": [ 137.1898215, 35.1098949 ] } },
{ "type": "Feature", "properties": { "URL": "https://www.kaigokensaku.mhlw.go.jp/23/index.php?action_kouhyou_detail_023_kani=true&JigyosyoCd=2377200619-00&ServiceCd=430&Type=search", "名称": "居宅介護支援事業所悠縁", "内容2": null, "郵便番号": null, "所在地": "〒496-0908愛知県愛西市甘村井町勘十田割36番地", "区分": "居宅介護支援", "緯度": 35.1531381, "経度": 136.7363495, "サービス提供地域": "愛西市、津島市、弥富市、稲沢市（旧祖父江町）、蟹江町、あま市（旧七宝町、旧美和町）" }, "geometry": { "type": "Point", "coordinates": [ 136.736349499999989, 35.1531381 ] } },
{ "type": "Feature", "properties": { "URL": "https://www.kaigokensaku.mhlw.go.jp/23/index.php?action_kouhyou_detail_023_kani=true&JigyosyoCd=2372500054-00&ServiceCd=430&Type=search", "名称": "ケアプランセンターメディコ春日井", "内容2": null, "郵便番号": null, "所在地": "〒480-0305愛知県春日井市坂下町五丁目1221番1", "区分": "居宅介護支援", "緯度": 35.2871514, "経度": 137.0263032, "サービス提供地域": "春日井市・小牧市・守山区（一部）" }, "geometry": { "type": "Point", "coordinates": [ 137.0263032, 35.2871514 ] } },
{ "type": "Feature", "properties": { "URL": "https://www.kaigokensaku.mhlw.go.jp/23/index.php?action_kouhyou_detail_023_kani=true&JigyosyoCd=2374100598-00&ServiceCd=430&Type=search", "名称": "オープンゲート居宅介護支援事業所", "内容2": null, "郵便番号": null, "所在地": "〒477-0034東海市養父町浜脇３３番地", "区分": "居宅介護支援", "緯度": 35.0093666, "経度": 136.8807502, "サービス提供地域": "知多北部広域連合管内、その他の地域については要相談" }, "geometry": { "type": "Point", "coordinates": [ 136.8807502, 35.0093666 ] } },
{ "type": "Feature", "properties": { "URL": "https://www.kaigokensaku.mhlw.go.jp/23/index.php?action_kouhyou_detail_023_kani=true&JigyosyoCd=2372205076-00&ServiceCd=430&Type=search", "名称": "かんな介護支援センター", "内容2": null, "郵便番号": null, "所在地": "〒491-0801愛知県一宮市千秋町加茂上向５", "区分": "居宅介護支援", "緯度": 35.3164037, "経度": 136.8479923, "サービス提供地域": "一宮市、名古屋市、江南市、岩倉市" }, "geometry": { "type": "Point", "coordinates": [ 136.847992299999987, 35.3164037 ] } },
{ "type": "Feature", "properties": { "URL": "https://www.kaigokensaku.mhlw.go.jp/23/index.php?action_kouhyou_detail_023_kani=true&JigyosyoCd=2374101091-00&ServiceCd=430&Type=search", "名称": "居宅介護支援事業所元気", "内容2": null, "郵便番号": null, "所在地": "〒477-0032愛知県東海市加木屋町石塚１７７", "区分": "居宅介護支援", "緯度": 34.9781093, "経度": 136.9117321, "サービス提供地域": "東海市　知多市　大府市　東浦町" }, "geometry": { "type": "Point", "coordinates": [ 136.9117321, 34.9781093 ] } },
{ "type": "Feature", "properties": { "URL": "https://www.kaigokensaku.mhlw.go.jp/23/index.php?action_kouhyou_detail_023_kani=true&JigyosyoCd=2371602729-00&ServiceCd=430&Type=search", "名称": "ゴールドケアプラン", "内容2": null, "郵便番号": null, "所在地": "〒468-0002愛知県名古屋市天白区植田３丁目１２０５番地仁ビル２０１号 仁ビル２０１号", "区分": "居宅介護支援", "緯度": 35.128232, "経度": 136.9886903, "サービス提供地域": "天白区、名東区、千種区、緑区" }, "geometry": { "type": "Point", "coordinates": [ 136.9886903, 35.128232 ] } },
{ "type": "Feature", "properties": { "URL": "https://www.kaigokensaku.mhlw.go.jp/23/index.php?action_kouhyou_detail_023_kani=true&JigyosyoCd=2372700340-00&ServiceCd=430&Type=search", "名称": "居宅介護支援事業所　まごのて", "内容2": null, "郵便番号": null, "所在地": "〒496-0023津島市鹿伏兎町東清水１４６番地", "区分": "居宅介護支援", "緯度": 35.1380882, "経度": 136.7680161, "サービス提供地域": "津島市、愛西市、蟹江町、あま市（=旧七宝町）、弥富市" }, "geometry": { "type": "Point", "coordinates": [ 136.768016100000011, 35.1380882 ] } },
{ "type": "Feature", "properties": { "URL": "https://www.kaigokensaku.mhlw.go.jp/23/index.php?action_kouhyou_detail_023_kani=true&JigyosyoCd=2376000721-00&ServiceCd=430&Type=search", "名称": "ケアプランナーT", "内容2": null, "郵便番号": null, "所在地": "〒444-0104愛知県額田郡幸田町大字坂崎字上田17番地2", "区分": "居宅介護支援", "緯度": 34.9071339, "経度": 137.1712579, "サービス提供地域": "幸田町、岡崎市、西尾市、蒲郡市" }, "geometry": { "type": "Point", "coordinates": [ 137.1712579, 34.9071339 ] } },
{ "type": "Feature", "properties": { "URL": "https://www.kaigokensaku.mhlw.go.jp/23/index.php?action_kouhyou_detail_023_kani=true&JigyosyoCd=2372500765-00&ServiceCd=430&Type=search", "名称": "合資会社　介護相談の部屋", "内容2": null, "郵便番号": null, "所在地": "〒487-0024愛知県春日井市大留町9-13-3パルテール203号", "区分": "居宅介護支援", "緯度": 35.2619724, "経度": 137.0250323, "サービス提供地域": "春日井市・尾張旭市・名古屋市守山区・小牧市・瀬戸市" }, "geometry": { "type": "Point", "coordinates": [ 137.0250323, 35.2619724 ] } },
{ "type": "Feature", "properties": { "URL": "https://www.kaigokensaku.mhlw.go.jp/23/index.php?action_kouhyou_detail_023_kani=true&JigyosyoCd=2374900245-00&ServiceCd=430&Type=search", "名称": "ケアプラン　あんじゅの森", "内容2": null, "郵便番号": null, "所在地": "〒470-0136愛知県日進市竹の山一丁目2101番地", "区分": "居宅介護支援", "緯度": 35.1602502, "経度": 137.0360522, "サービス提供地域": "名古屋市名東区・天白区・千種区・守山区・昭和区・日進市・長久手市・東郷町" }, "geometry": { "type": "Point", "coordinates": [ 137.0360522, 35.1602502 ] } },
{ "type": "Feature", "properties": { "URL": "https://www.kaigokensaku.mhlw.go.jp/23/index.php?action_kouhyou_detail_023_kani=true&JigyosyoCd=2374000533-00&ServiceCd=430&Type=search", "名称": "星野病院居宅介護支援事業所", "内容2": null, "郵便番号": null, "所在地": "〒441-1615愛知県新城市大野字上野70-3", "区分": "居宅介護支援", "緯度": 34.9504625, "経度": 137.6045874, "サービス提供地域": "新城市の一部（旧鳳来町）、東栄町の一部" }, "geometry": { "type": "Point", "coordinates": [ 137.604587400000014, 34.9504625 ] } },
{ "type": "Feature", "properties": { "URL": "https://www.kaigokensaku.mhlw.go.jp/23/index.php?action_kouhyou_detail_023_kani=true&JigyosyoCd=2375700735-00&ServiceCd=430&Type=search", "名称": "ケアプランセンター榊原", "内容2": null, "郵便番号": null, "所在地": "〒470-2531愛知県知多郡武豊町冨貴字西側108-5", "区分": "居宅介護支援", "緯度": 34.8257879, "経度": 136.9068131, "サービス提供地域": "武豊町" }, "geometry": { "type": "Point", "coordinates": [ 136.9068131, 34.8257879 ] } },
{ "type": "Feature", "properties": { "URL": "https://www.kaigokensaku.mhlw.go.jp/23/index.php?action_kouhyou_detail_023_kani=true&JigyosyoCd=2374201099-00&ServiceCd=430&Type=search", "名称": "サポート北崎", "内容2": null, "郵便番号": null, "所在地": "〒474-0001愛知県大府市北崎町清水ケ根９２番地の３", "区分": "居宅介護支援", "緯度": 35.0358122, "経度": 136.9798914, "サービス提供地域": "大府市、東浦町、豊明市" }, "geometry": { "type": "Point", "coordinates": [ 136.979891400000014, 35.0358122 ] } },
{ "type": "Feature", "properties": { "URL": "https://www.kaigokensaku.mhlw.go.jp/23/index.php?action_kouhyou_detail_023_kani=true&JigyosyoCd=2374201115-00&ServiceCd=430&Type=search", "名称": "居宅介護支援事業所　アシスト北崎", "内容2": null, "郵便番号": null, "所在地": "〒474-0002愛知県大府市北崎町5-55", "区分": "居宅介護支援", "緯度": 35.0362971, "経度": 136.9850468, "サービス提供地域": "大府市・豊明市・刈谷市・名古屋市緑区" }, "geometry": { "type": "Point", "coordinates": [ 136.9850468, 35.0362971 ] } },
{ "type": "Feature", "properties": { "URL": "https://www.kaigokensaku.mhlw.go.jp/23/index.php?action_kouhyou_detail_023_kani=true&JigyosyoCd=2373801964-00&ServiceCd=430&Type=search", "名称": "あおぞらの里小牧ケアプランセンター", "内容2": null, "郵便番号": null, "所在地": "〒485-0009愛知県小牧市久保７７番地", "区分": "居宅介護支援", "緯度": 35.3108663, "経度": 136.942096, "サービス提供地域": "小牧市全域、大口町全域、犬山市一部、春日井市一部" }, "geometry": { "type": "Point", "coordinates": [ 136.942096, 35.3108663 ] } },
{ "type": "Feature", "properties": { "URL": "https://www.kaigokensaku.mhlw.go.jp/23/index.php?action_kouhyou_detail_023_kani=true&JigyosyoCd=2370801538-00&ServiceCd=430&Type=search", "名称": "ケアステーションきらら桜山", "内容2": null, "郵便番号": null, "所在地": "〒467-0803愛知県名古屋市瑞穂区中山町6-1-2", "区分": "居宅介護支援", "緯度": 35.1360009, "経度": 136.927812, "サービス提供地域": "瑞穂区、昭和区、熱田区" }, "geometry": { "type": "Point", "coordinates": [ 136.927812, 35.1360009 ] } },
{ "type": "Feature", "properties": { "URL": "https://www.kaigokensaku.mhlw.go.jp/23/index.php?action_kouhyou_detail_023_kani=true&JigyosyoCd=2373003124-00&ServiceCd=430&Type=search", "名称": "ケアステーションきらら豊田日之出", "内容2": null, "郵便番号": null, "所在地": "〒471-0075愛知県豊田市日之出町2-4-10 ジュネス１B", "区分": "居宅介護支援", "緯度": 35.0899379, "経度": 137.1642406, "サービス提供地域": "豊田市、みよし市" }, "geometry": { "type": "Point", "coordinates": [ 137.1642406, 35.0899379 ] } },
{ "type": "Feature", "properties": { "URL": "https://www.kaigokensaku.mhlw.go.jp/23/index.php?action_kouhyou_detail_023_kani=true&JigyosyoCd=2372700050-00&ServiceCd=430&Type=search", "名称": "アメニティつしま指定居宅介護支援事業所", "内容2": null, "郵便番号": null, "所在地": "〒496-0043愛知県津島市古川町2丁目56番地", "区分": "居宅介護支援", "緯度": 35.1796627, "経度": 136.7431677, "サービス提供地域": "津島市・愛西市・あま市（旧美和町・旧七宝町）" }, "geometry": { "type": "Point", "coordinates": [ 136.743167699999987, 35.1796627 ] } },
{ "type": "Feature", "properties": { "URL": "https://www.kaigokensaku.mhlw.go.jp/23/index.php?action_kouhyou_detail_023_kani=true&JigyosyoCd=2372505665-00&ServiceCd=430&Type=search", "名称": "シルバー居宅介護支援事業所", "内容2": null, "郵便番号": null, "所在地": "〒486-0819愛知県春日井市下原町２２６６ コーポ鈴木102", "区分": "居宅介護支援", "緯度": 35.27082, "経度": 136.9789694, "サービス提供地域": "春日井市、小牧市、名古屋市、尾張旭市、瀬戸市" }, "geometry": { "type": "Point", "coordinates": [ 136.978969400000011, 35.27082 ] } },
{ "type": "Feature", "properties": { "URL": "https://www.kaigokensaku.mhlw.go.jp/23/index.php?action_kouhyou_detail_023_kani=true&JigyosyoCd=2372503165-00&ServiceCd=430&Type=search", "名称": "ケアプラン　まなべ", "内容2": null, "郵便番号": null, "所在地": "〒486-0909愛知県春日井市四ツ家町字二ツ杁4-6", "区分": "居宅介護支援", "緯度": 35.2621313, "経度": 136.945492, "サービス提供地域": "春日井市・小牧市" }, "geometry": { "type": "Point", "coordinates": [ 136.945492, 35.2621313 ] } },
{ "type": "Feature", "properties": { "URL": "https://www.kaigokensaku.mhlw.go.jp/23/index.php?action_kouhyou_detail_023_kani=true&JigyosyoCd=2375001464-00&ServiceCd=430&Type=search", "名称": "ケアプラン野いちご", "内容2": null, "郵便番号": null, "所在地": "〒480-1124愛知県長久手市戸田谷511番地 ピアシティ林106号室", "区分": "居宅介護支援", "緯度": 35.1745604, "経度": 137.0380217, "サービス提供地域": "長久手市" }, "geometry": { "type": "Point", "coordinates": [ 137.0380217, 35.1745604 ] } },
{ "type": "Feature", "properties": { "URL": "https://www.kaigokensaku.mhlw.go.jp/23/index.php?action_kouhyou_detail_023_kani=true&JigyosyoCd=2375001407-00&ServiceCd=430&Type=search", "名称": "みつばちケアプラン", "内容2": null, "郵便番号": null, "所在地": "〒480-1124愛知県長久手市戸田谷５１１番地 ピアシティ林３０２号室", "区分": "居宅介護支援", "緯度": 35.1745604, "経度": 137.0380217, "サービス提供地域": "長久手市" }, "geometry": { "type": "Point", "coordinates": [ 137.0380217, 35.1745604 ] } },
{ "type": "Feature", "properties": { "URL": "https://www.kaigokensaku.mhlw.go.jp/23/index.php?action_kouhyou_detail_023_kani=true&JigyosyoCd=2372206371-00&ServiceCd=430&Type=search", "名称": "もみの木居宅介護支援事業所", "内容2": null, "郵便番号": null, "所在地": "〒493-0002愛知県一宮市木曽川町門間字北出６番地", "区分": "居宅介護支援", "緯度": 35.3352287, "経度": 136.795921, "サービス提供地域": "一宮市" }, "geometry": { "type": "Point", "coordinates": [ 136.795921, 35.3352287 ] } },
{ "type": "Feature", "properties": { "URL": "https://www.kaigokensaku.mhlw.go.jp/23/index.php?action_kouhyou_detail_023_kani=true&JigyosyoCd=2372203006-00&ServiceCd=430&Type=search", "名称": "居宅介護支援ステーションつくし", "内容2": null, "郵便番号": null, "所在地": "〒491-0062一宮市西島町4丁目23番地", "区分": "居宅介護支援", "緯度": 35.3242327, "経度": 136.806283, "サービス提供地域": "一宮市、稲沢市、江南市、岩倉市、名古屋市" }, "geometry": { "type": "Point", "coordinates": [ 136.806283, 35.3242327 ] } },
{ "type": "Feature", "properties": { "URL": "https://www.kaigokensaku.mhlw.go.jp/23/index.php?action_kouhyou_detail_023_kani=true&JigyosyoCd=2373004445-00&ServiceCd=430&Type=search", "名称": "ケアプランセンターふるさと梅坪", "内容2": null, "郵便番号": null, "所在地": "〒471-0064愛知県豊田市梅坪町2丁目1-5", "区分": "居宅介護支援", "緯度": 35.1044483, "経度": 137.1602696, "サービス提供地域": "猿投、猿投台、保見、井郷、崇化館、逢妻、高橋、美里、石野、益富、梅坪台（中学校区）" }, "geometry": { "type": "Point", "coordinates": [ 137.1602696, 35.1044483 ] } },
{ "type": "Feature", "properties": { "URL": "https://www.kaigokensaku.mhlw.go.jp/23/index.php?action_kouhyou_detail_023_kani=true&JigyosyoCd=2377601188-00&ServiceCd=430&Type=search", "名称": "あま居宅介護支援事業所", "内容2": null, "郵便番号": null, "所在地": "〒490-1105愛知県あま市新居屋榎坪29 グランドールパレス106号", "区分": "居宅介護支援", "緯度": 35.1916947, "経度": 136.8132704, "サービス提供地域": "あま市　清須市　津島市　　大治町　名古屋市＜中村区・中川区＞" }, "geometry": { "type": "Point", "coordinates": [ 136.8132704, 35.1916947 ] } },
{ "type": "Feature", "properties": { "URL": "https://www.kaigokensaku.mhlw.go.jp/23/index.php?action_kouhyou_detail_023_kani=true&JigyosyoCd=2370503779-00&ServiceCd=430&Type=search", "名称": "ゆたか居宅介護支援事業所合同会社", "内容2": null, "郵便番号": null, "所在地": "〒453-0036森田町１－４－７ ゆたか莊　B号室", "区分": "居宅介護支援", "緯度": 35.1787743, "経度": 136.8625311, "サービス提供地域": "中村区、西区" }, "geometry": { "type": "Point", "coordinates": [ 136.862531100000012, 35.1787743 ] } },
{ "type": "Feature", "properties": { "URL": "https://www.kaigokensaku.mhlw.go.jp/23/index.php?action_kouhyou_detail_023_kani=true&JigyosyoCd=2371002649-00&ServiceCd=430&Type=search", "名称": "はる介護サービス計画事業所", "内容2": null, "郵便番号": null, "所在地": "〒454-0846愛知県名古屋市中川区上流町2丁目6番地", "区分": "居宅介護支援", "緯度": 35.133061, "経度": 136.8646565, "サービス提供地域": "名古屋市内全域及び近郊" }, "geometry": { "type": "Point", "coordinates": [ 136.8646565, 35.133061 ] } },
{ "type": "Feature", "properties": { "URL": "https://www.kaigokensaku.mhlw.go.jp/23/index.php?action_kouhyou_detail_023_kani=true&JigyosyoCd=2371203205-00&ServiceCd=430&Type=search", "名称": "ケアセンターゆりのき", "内容2": null, "郵便番号": null, "所在地": "〒457-0004名古屋市南区中江２丁目5-15 グランピア鶴里201", "区分": "居宅介護支援", "緯度": 35.1063603, "経度": 136.9472919, "サービス提供地域": "名古屋市南区" }, "geometry": { "type": "Point", "coordinates": [ 136.94729190000001, 35.1063603 ] } },
{ "type": "Feature", "properties": { "URL": "https://www.kaigokensaku.mhlw.go.jp/23/index.php?action_kouhyou_detail_023_kani=true&JigyosyoCd=2371304284-00&ServiceCd=430&Type=search", "名称": "ケアプランセンター　エン", "内容2": null, "郵便番号": null, "所在地": "〒463-0079幸心一丁目203番地", "区分": "居宅介護支援", "緯度": 35.2069968, "経度": 136.9443132, "サービス提供地域": "名古屋市内、春日井市、尾張旭市" }, "geometry": { "type": "Point", "coordinates": [ 136.944313200000011, 35.2069968 ] } },
{ "type": "Feature", "properties": { "URL": "https://www.kaigokensaku.mhlw.go.jp/23/index.php?action_kouhyou_detail_023_kani=true&JigyosyoCd=2372100012-00&ServiceCd=430&Type=search", "名称": "竹本薬局指定居宅介護支援事業所", "内容2": null, "郵便番号": null, "所在地": "〒444-0061愛知県岡崎市能見町95番地1", "区分": "居宅介護支援", "緯度": 34.9666255, "経度": 137.1635319, "サービス提供地域": "岡崎市" }, "geometry": { "type": "Point", "coordinates": [ 137.16353190000001, 34.9666255 ] } },
{ "type": "Feature", "properties": { "URL": "https://www.kaigokensaku.mhlw.go.jp/23/index.php?action_kouhyou_detail_023_kani=true&JigyosyoCd=2370304400-00&ServiceCd=430&Type=search", "名称": "サザンカ介護支援事務所", "内容2": null, "郵便番号": null, "所在地": "〒462-0014愛知県名古屋市北区楠味鋺五丁目510番地 南山スカイハイツ1階F号室", "区分": "居宅介護支援", "緯度": 35.2178655, "経度": 136.9328266, "サービス提供地域": "名古屋市北区、東区、西区、千種区、守山区及び春日井市、一宮市、小牧市" }, "geometry": { "type": "Point", "coordinates": [ 136.9328266, 35.217865499999988 ] } },
{ "type": "Feature", "properties": { "URL": "https://www.kaigokensaku.mhlw.go.jp/23/index.php?action_kouhyou_detail_023_kani=true&JigyosyoCd=2372102513-00&ServiceCd=430&Type=search", "名称": "岡崎市北部地域福祉センター　居宅介護支援事業所", "内容2": null, "郵便番号": null, "所在地": "〒444-2144愛知県岡崎市岩津町字西坂５４番地１", "区分": "居宅介護支援", "緯度": 35.0067814, "経度": 137.1745419, "サービス提供地域": "岡崎市" }, "geometry": { "type": "Point", "coordinates": [ 137.1745419, 35.0067814 ] } },
{ "type": "Feature", "properties": { "URL": "https://www.kaigokensaku.mhlw.go.jp/23/index.php?action_kouhyou_detail_023_kani=true&JigyosyoCd=2372205977-00&ServiceCd=430&Type=search", "名称": "ケアプランえん", "内容2": null, "郵便番号": null, "所在地": "〒491-0842愛知県一宮市公園通4丁目40番地2 田中ビル201", "区分": "居宅介護支援", "緯度": 35.2952228, "経度": 136.8031718, "サービス提供地域": "一宮市、岩倉市、稲沢市、名古屋市、北名古屋市、小牧市" }, "geometry": { "type": "Point", "coordinates": [ 136.8031718, 35.2952228 ] } },
{ "type": "Feature", "properties": { "URL": "https://www.kaigokensaku.mhlw.go.jp/23/index.php?action_kouhyou_detail_023_kani=true&JigyosyoCd=2372200192-00&ServiceCd=430&Type=search", "名称": "モリ指定居宅介護支援事業所", "内容2": null, "郵便番号": null, "所在地": "〒491-0905一宮市平和3丁目4番地の8", "区分": "居宅介護支援", "緯度": 35.3020942, "経度": 136.7826596, "サービス提供地域": "一宮市.稲沢市" }, "geometry": { "type": "Point", "coordinates": [ 136.782659599999988, 35.3020942 ] } },
{ "type": "Feature", "properties": { "URL": "https://www.kaigokensaku.mhlw.go.jp/23/index.php?action_kouhyou_detail_023_kani=true&JigyosyoCd=2373200308-00&ServiceCd=430&Type=search", "名称": "せんねん村ケアプランセンター", "内容2": null, "郵便番号": null, "所在地": "〒445-0054愛知県西尾市平口町大溝77番地", "区分": "居宅介護支援", "緯度": 34.825646, "経度": 137.0515055, "サービス提供地域": "西尾市" }, "geometry": { "type": "Point", "coordinates": [ 137.0515055, 34.825646 ] } },
{ "type": "Feature", "properties": { "URL": "https://www.kaigokensaku.mhlw.go.jp/23/index.php?action_kouhyou_detail_023_kani=true&JigyosyoCd=2371503042-00&ServiceCd=430&Type=search", "名称": "愛知ペガサス藤が丘　ケアプラン相談所", "内容2": null, "郵便番号": null, "所在地": "〒465-0041愛知県名古屋市名東区朝日が丘９２番地の２", "区分": "居宅介護支援", "緯度": 35.1856936, "経度": 137.023331, "サービス提供地域": "名古屋市名東区、守山区、長久手市、尾張旭市" }, "geometry": { "type": "Point", "coordinates": [ 137.023331, 35.1856936 ] } },
{ "type": "Feature", "properties": { "URL": "https://www.kaigokensaku.mhlw.go.jp/23/index.php?action_kouhyou_detail_023_kani=true&JigyosyoCd=2373300553-00&ServiceCd=430&Type=search", "名称": "ひかりの森", "内容2": null, "郵便番号": null, "所在地": "〒443-0022蒲郡市三谷北通4丁目55番地", "区分": "居宅介護支援", "緯度": 34.8217216, "経度": 137.2425794, "サービス提供地域": "蒲郡市、豊川市" }, "geometry": { "type": "Point", "coordinates": [ 137.242579400000011, 34.8217216 ] } },
{ "type": "Feature", "properties": { "URL": "https://www.kaigokensaku.mhlw.go.jp/23/index.php?action_kouhyou_detail_023_kani=true&JigyosyoCd=2372503249-00&ServiceCd=430&Type=search", "名称": "アバンセ介護センターかちがわ居宅介護支援事業所", "内容2": null, "郵便番号": null, "所在地": "〒486-0945春日井市勝川町5丁目70", "区分": "居宅介護支援", "緯度": 35.2276696, "経度": 136.9486658, "サービス提供地域": "春日井市内" }, "geometry": { "type": "Point", "coordinates": [ 136.948665799999986, 35.2276696 ] } },
{ "type": "Feature", "properties": { "URL": "https://www.kaigokensaku.mhlw.go.jp/23/index.php?action_kouhyou_detail_023_kani=true&JigyosyoCd=2372400164-00&ServiceCd=430&Type=search", "名称": "特定非営利活動法人ベタニアホーム", "内容2": null, "郵便番号": null, "所在地": "〒475-0928愛知県半田市桐ケ丘四丁目208番地の14", "区分": "居宅介護支援", "緯度": 34.8915679, "経度": 136.9147762, "サービス提供地域": "通常の実施地域は、半田市・阿久比町・武豊町・常滑市となります。" }, "geometry": { "type": "Point", "coordinates": [ 136.9147762, 34.8915679 ] } },
{ "type": "Feature", "properties": { "URL": "https://www.kaigokensaku.mhlw.go.jp/23/index.php?action_kouhyou_detail_023_kani=true&JigyosyoCd=2370402402-00&ServiceCd=430&Type=search", "名称": "ケアプラン　花の木", "内容2": null, "郵便番号": null, "所在地": "〒451-0053愛知県名古屋市西区枇杷島4-13-20", "区分": "居宅介護支援", "緯度": 35.1930306, "経度": 136.8780514, "サービス提供地域": "名古屋市全域" }, "geometry": { "type": "Point", "coordinates": [ 136.8780514, 35.1930306 ] } },
{ "type": "Feature", "properties": { "URL": "https://www.kaigokensaku.mhlw.go.jp/23/index.php?action_kouhyou_detail_023_kani=true&JigyosyoCd=2373002563-00&ServiceCd=430&Type=search", "名称": "まほろばの郷　居宅介護支援事業所", "内容2": null, "郵便番号": null, "所在地": "〒471-0002矢並町大坪９０１番地１ まほろばの郷　デイサービスセンター", "区分": "居宅介護支援", "緯度": 35.0996977, "経度": 137.2306674, "サービス提供地域": "重要事項説明書記載エリア以外の方は相談に応じます。" }, "geometry": { "type": "Point", "coordinates": [ 137.230667399999987, 35.0996977 ] } },
{ "type": "Feature", "properties": { "URL": "https://www.kaigokensaku.mhlw.go.jp/23/index.php?action_kouhyou_detail_023_kani=true&JigyosyoCd=2370602605-00&ServiceCd=430&Type=search", "名称": "エンジェル居宅介護支援事業所", "内容2": null, "郵便番号": null, "所在地": "〒460-0016橘一丁目26番23号 橘屋ビルAMDE801号", "区分": "居宅介護支援", "緯度": 35.1533865, "経度": 136.9036388, "サービス提供地域": "名古屋市全域" }, "geometry": { "type": "Point", "coordinates": [ 136.90363880000001, 35.1533865 ] } },
{ "type": "Feature", "properties": { "URL": "https://www.kaigokensaku.mhlw.go.jp/23/index.php?action_kouhyou_detail_023_kani=true&JigyosyoCd=2370503548-00&ServiceCd=430&Type=search", "名称": "ケアプランあいわ", "内容2": null, "郵便番号": null, "所在地": "〒453-0044愛知県名古屋市中村区鳥居通2丁目41番地4 ウチフジビル3F", "区分": "居宅介護支援", "緯度": 35.1771701, "経度": 136.8660626, "サービス提供地域": "名古屋市全域" }, "geometry": { "type": "Point", "coordinates": [ 136.8660626, 35.1771701 ] } },
{ "type": "Feature", "properties": { "URL": "https://www.kaigokensaku.mhlw.go.jp/23/index.php?action_kouhyou_detail_023_kani=true&JigyosyoCd=2372000022-00&ServiceCd=430&Type=search", "名称": "介護スタッフ日の出", "内容2": null, "郵便番号": null, "所在地": "〒440-0806愛知県豊橋市八町通三丁目１０５番地", "区分": "居宅介護支援", "緯度": 34.7668762, "経度": 137.3932395, "サービス提供地域": "豊橋市内、豊川市（一部）" }, "geometry": { "type": "Point", "coordinates": [ 137.3932395, 34.7668762 ] } },
{ "type": "Feature", "properties": { "URL": "https://www.kaigokensaku.mhlw.go.jp/23/index.php?action_kouhyou_detail_023_kani=true&JigyosyoCd=2371302775-00&ServiceCd=430&Type=search", "名称": "そらケアプラン", "内容2": null, "郵便番号": null, "所在地": "〒463-0079愛知県名古屋市守山区幸心三丁目１２０７番地の1", "区分": "居宅介護支援", "緯度": 35.2135097, "経度": 136.9492212, "サービス提供地域": "名古屋市守山区、北区、東区、名東区、尾張旭市" }, "geometry": { "type": "Point", "coordinates": [ 136.949221200000011, 35.2135097 ] } },
{ "type": "Feature", "properties": { "URL": "https://www.kaigokensaku.mhlw.go.jp/23/index.php?action_kouhyou_detail_023_kani=true&JigyosyoCd=2371202942-00&ServiceCd=430&Type=search", "名称": "ケアプラン　和音", "内容2": null, "郵便番号": null, "所在地": "〒457-0816愛知県名古屋市南区元柴田東町１丁目２０番地の４ NS　Village　３A", "区分": "居宅介護支援", "緯度": 35.0734503, "経度": 136.9074333, "サービス提供地域": "名古屋市（南区、中川区、熱田区、港区）東海市、大府市" }, "geometry": { "type": "Point", "coordinates": [ 136.9074333, 35.0734503 ] } },
{ "type": "Feature", "properties": { "URL": "https://www.kaigokensaku.mhlw.go.jp/23/index.php?action_kouhyou_detail_023_kani=true&JigyosyoCd=2371301470-00&ServiceCd=430&Type=search", "名称": "居宅介護支援事業所　ピースラブ", "内容2": null, "郵便番号": null, "所在地": "〒463-0037名古屋市守山区天子田一丁目１８０９番地の２", "区分": "居宅介護支援", "緯度": 35.1978404, "経度": 137.0017507, "サービス提供地域": "名古屋市守山区・名東区・中村区・瀬戸市・尾張旭市・長久手町・春日井市・" }, "geometry": { "type": "Point", "coordinates": [ 137.0017507, 35.1978404 ] } },
{ "type": "Feature", "properties": { "URL": "https://www.kaigokensaku.mhlw.go.jp/23/index.php?action_kouhyou_detail_023_kani=true&JigyosyoCd=2371500956-00&ServiceCd=430&Type=search", "名称": "有限会社のどか居宅支援サービス", "内容2": null, "郵便番号": null, "所在地": "〒465-0058愛知県名古屋市名東区貴船１－２６２", "区分": "居宅介護支援", "緯度": 35.1651014, "経度": 137.0099531, "サービス提供地域": "名古屋市名東区・中区・千種区・昭和区・守山区・熱田区" }, "geometry": { "type": "Point", "coordinates": [ 137.0099531, 35.1651014 ] } },
{ "type": "Feature", "properties": { "URL": "https://www.kaigokensaku.mhlw.go.jp/23/index.php?action_kouhyou_detail_023_kani=true&JigyosyoCd=2371403417-00&ServiceCd=430&Type=search", "名称": "居宅介護支援事業所　フェリーチェ", "内容2": null, "郵便番号": null, "所在地": "〒458-0013愛知県名古屋市緑区ほら貝1丁目98番地 オリエンタルビル2階", "区分": "居宅介護支援", "緯度": 35.1024276, "経度": 136.9806008, "サービス提供地域": "名古屋市緑区" }, "geometry": { "type": "Point", "coordinates": [ 136.9806008, 35.102427600000013 ] } },
{ "type": "Feature", "properties": { "URL": "https://www.kaigokensaku.mhlw.go.jp/23/index.php?action_kouhyou_detail_023_kani=true&JigyosyoCd=2370304160-00&ServiceCd=430&Type=search", "名称": "居宅介護支援事業所ノア", "内容2": null, "郵便番号": null, "所在地": "〒462-0016愛知県名古屋市北区西味鋺二丁目８０６の２ ２０１", "区分": "居宅介護支援", "緯度": 35.222981, "経度": 136.913685, "サービス提供地域": "北区" }, "geometry": { "type": "Point", "coordinates": [ 136.913685, 35.222981 ] } },
{ "type": "Feature", "properties": { "URL": "https://www.kaigokensaku.mhlw.go.jp/23/index.php?action_kouhyou_detail_023_kani=true&JigyosyoCd=2370502664-00&ServiceCd=430&Type=search", "名称": "居宅介護支援事業所　　　ひろ丸", "内容2": null, "郵便番号": null, "所在地": "〒453-0053名古屋市中村区中村町１丁目38番地", "区分": "居宅介護支援", "緯度": 35.1750494, "経度": 136.8571721, "サービス提供地域": "名古屋市中村区、西区　ご相談に応じて対応致します。" }, "geometry": { "type": "Point", "coordinates": [ 136.857172100000014, 35.1750494 ] } },
{ "type": "Feature", "properties": { "URL": "https://www.kaigokensaku.mhlw.go.jp/23/index.php?action_kouhyou_detail_023_kani=true&JigyosyoCd=2372104980-00&ServiceCd=430&Type=search", "名称": "ケアプランオフィス・ミカ", "内容2": null, "郵便番号": null, "所在地": "〒444-0924愛知県岡崎市八帖北町２７番地２ 江山ビル１階", "区分": "居宅介護支援", "緯度": 34.9644438, "経度": 137.1523397, "サービス提供地域": "岡崎市" }, "geometry": { "type": "Point", "coordinates": [ 137.1523397, 34.9644438 ] } },
{ "type": "Feature", "properties": { "URL": "https://www.kaigokensaku.mhlw.go.jp/23/index.php?action_kouhyou_detail_023_kani=true&JigyosyoCd=2372004503-00&ServiceCd=430&Type=search", "名称": "居宅介護支援事業所　綺羅", "内容2": null, "郵便番号": null, "所在地": "〒440-0814愛知県豊橋市前田町二丁目10番地10", "区分": "居宅介護支援", "緯度": 34.761451, "経度": 137.3972031, "サービス提供地域": "豊橋市全域" }, "geometry": { "type": "Point", "coordinates": [ 137.397203100000013, 34.761451 ] } },
{ "type": "Feature", "properties": { "URL": "https://www.kaigokensaku.mhlw.go.jp/23/index.php?action_kouhyou_detail_023_kani=true&JigyosyoCd=2370304798-00&ServiceCd=430&Type=search", "名称": "カペラケアプランセンター", "内容2": null, "郵便番号": null, "所在地": "〒462-0011愛知県名古屋市北区五反田町２９４番地 寿マンション１０２号", "区分": "居宅介護支援", "緯度": 35.2283434, "経度": 136.9169873, "サービス提供地域": "名古屋市北区、西区、西春日井郡豊山町、その他の地域" }, "geometry": { "type": "Point", "coordinates": [ 136.916987299999988, 35.2283434 ] } },
{ "type": "Feature", "properties": { "URL": "https://www.kaigokensaku.mhlw.go.jp/23/index.php?action_kouhyou_detail_023_kani=true&JigyosyoCd=2371004330-00&ServiceCd=430&Type=search", "名称": "ぽかぽかケアサポート", "内容2": null, "郵便番号": null, "所在地": "〒454-0869愛知県名古屋市中川区荒子五丁目１６５番地", "区分": "居宅介護支援", "緯度": 35.132322, "経度": 136.8543335, "サービス提供地域": "名古屋市中川区、港区、南区、中村区、天白区、熱田区、愛知県愛西市" }, "geometry": { "type": "Point", "coordinates": [ 136.8543335, 35.132322 ] } },
{ "type": "Feature", "properties": { "URL": "https://www.kaigokensaku.mhlw.go.jp/23/index.php?action_kouhyou_detail_023_kani=true&JigyosyoCd=2370702876-00&ServiceCd=430&Type=search", "名称": "ケアプランセンタールドスィエ", "内容2": null, "郵便番号": null, "所在地": "〒466-0044愛知県名古屋市昭和区桜山町２丁目４８番地の１ ジュネコキアージュ桜山３０４", "区分": "居宅介護支援", "緯度": 35.1436868, "経度": 136.9336972, "サービス提供地域": "名古屋市内" }, "geometry": { "type": "Point", "coordinates": [ 136.933697200000012, 35.1436868 ] } },
{ "type": "Feature", "properties": { "URL": "https://www.kaigokensaku.mhlw.go.jp/23/index.php?action_kouhyou_detail_023_kani=true&JigyosyoCd=2370304657-00&ServiceCd=430&Type=search", "名称": "ケアプランセンター翡翠", "内容2": null, "郵便番号": null, "所在地": "〒462-0063愛知県名古屋市北区丸新町431番地", "区分": "居宅介護支援", "緯度": 35.2319421, "経度": 136.9132319, "サービス提供地域": "名古屋市　北区・東区・千種区・守山区・中区・西区・名東区" }, "geometry": { "type": "Point", "coordinates": [ 136.9132319, 35.2319421 ] } },
{ "type": "Feature", "properties": { "URL": "https://www.kaigokensaku.mhlw.go.jp/23/index.php?action_kouhyou_detail_023_kani=true&JigyosyoCd=2370303493-00&ServiceCd=430&Type=search", "名称": "おおぞね介護支援センター", "内容2": null, "郵便番号": null, "所在地": "〒462-0819愛知県名古屋市北区平安二丁目２-１４", "区分": "居宅介護支援", "緯度": 35.1975995, "経度": 136.9302635, "サービス提供地域": "名古屋市内" }, "geometry": { "type": "Point", "coordinates": [ 136.9302635, 35.1975995 ] } },
{ "type": "Feature", "properties": { "URL": "https://www.kaigokensaku.mhlw.go.jp/23/index.php?action_kouhyou_detail_023_kani=true&JigyosyoCd=2370304301-00&ServiceCd=430&Type=search", "名称": "やさしい手楠居宅介護支援事業所", "内容2": null, "郵便番号": null, "所在地": "〒462-0012愛知県名古屋市北区楠5-424", "区分": "居宅介護支援", "緯度": 35.2251039, "経度": 136.9271354, "サービス提供地域": "名古屋市北区・春日井市" }, "geometry": { "type": "Point", "coordinates": [ 136.9271354, 35.2251039 ] } },
{ "type": "Feature", "properties": { "URL": "https://www.kaigokensaku.mhlw.go.jp/23/index.php?action_kouhyou_detail_023_kani=true&JigyosyoCd=2370401768-00&ServiceCd=430&Type=search", "名称": "やさしい手庄内通居宅介護支援事業所", "内容2": null, "郵便番号": null, "所在地": "〒451-0016名古屋市西区庄内通３－３４ ウェストタウン福田２階Ｂ号室", "区分": "居宅介護支援", "緯度": 35.2043769, "経度": 136.8908066, "サービス提供地域": "名古屋市西区・北区・東区・中村区" }, "geometry": { "type": "Point", "coordinates": [ 136.8908066, 35.2043769 ] } },
{ "type": "Feature", "properties": { "URL": "https://www.kaigokensaku.mhlw.go.jp/23/index.php?action_kouhyou_detail_023_kani=true&JigyosyoCd=2370304715-00&ServiceCd=430&Type=search", "名称": "ケアプラン夢ライフイリコ", "内容2": null, "郵便番号": null, "所在地": "〒462-0814愛知県名古屋市北区山田西町3-156-4 プチサンフラワー1A", "区分": "居宅介護支援", "緯度": 35.1983902, "経度": 136.9363022, "サービス提供地域": "名古屋市北区、千種区、守山区" }, "geometry": { "type": "Point", "coordinates": [ 136.9363022, 35.198390200000013 ] } },
{ "type": "Feature", "properties": { "URL": "https://www.kaigokensaku.mhlw.go.jp/23/index.php?action_kouhyou_detail_023_kani=true&JigyosyoCd=2371503372-00&ServiceCd=430&Type=search", "名称": "居宅介護支援事業所まほろ", "内容2": null, "郵便番号": null, "所在地": "〒465-0025愛知県名古屋市名東区上社四丁目１３１番地", "区分": "居宅介護支援", "緯度": 35.1711285, "経度": 137.0062095, "サービス提供地域": "名古屋市名東区・千種区・昭和区・守山区・天白区・長久手市" }, "geometry": { "type": "Point", "coordinates": [ 137.006209500000011, 35.1711285 ] } },
{ "type": "Feature", "properties": { "URL": "https://www.kaigokensaku.mhlw.go.jp/23/index.php?action_kouhyou_detail_023_kani=true&JigyosyoCd=2372800033-00&ServiceCd=430&Type=search", "名称": "碧南市居宅介護支援事業所", "内容2": null, "郵便番号": null, "所在地": "〒447-8502愛知県碧南市平和町３丁目６番地", "区分": "居宅介護支援", "緯度": 34.9017921, "経度": 137.0129806, "サービス提供地域": "碧南市内" }, "geometry": { "type": "Point", "coordinates": [ 137.0129806, 34.9017921 ] } },
{ "type": "Feature", "properties": { "URL": "https://www.kaigokensaku.mhlw.go.jp/23/index.php?action_kouhyou_detail_023_kani=true&JigyosyoCd=2370201465-00&ServiceCd=430&Type=search", "名称": "エアープラン居宅介護支援事業所", "内容2": null, "郵便番号": null, "所在地": "〒461-0025愛知県名古屋市東区徳川二丁目11番3号", "区分": "居宅介護支援", "緯度": 35.1858717, "経度": 136.9274186, "サービス提供地域": "名古屋市　東区、守山区、中区、千種区、名東区、中村区、中川区、熱田区、北区、西区、昭和区" }, "geometry": { "type": "Point", "coordinates": [ 136.92741860000001, 35.1858717 ] } },
{ "type": "Feature", "properties": { "URL": "https://www.kaigokensaku.mhlw.go.jp/23/index.php?action_kouhyou_detail_023_kani=true&JigyosyoCd=2372001285-00&ServiceCd=430&Type=search", "名称": "ケアプランセンターけやき", "内容2": null, "郵便番号": null, "所在地": "〒440-0851豊橋市前田南町２－１３－８", "区分": "居宅介護支援", "緯度": 34.7526753, "経度": 137.3966041, "サービス提供地域": "豊橋市全域、豊川市、蒲郡市竹谷町" }, "geometry": { "type": "Point", "coordinates": [ 137.3966041, 34.7526753 ] } },
{ "type": "Feature", "properties": { "URL": "https://www.kaigokensaku.mhlw.go.jp/23/index.php?action_kouhyou_detail_023_kani=true&JigyosyoCd=2373500855-00&ServiceCd=430&Type=search", "名称": "ケアプランせんが常滑", "内容2": null, "郵便番号": null, "所在地": "〒479-0865愛知県常滑市小林町２丁目８４番地", "区分": "居宅介護支援", "緯度": 34.921509, "経度": 136.8285194, "サービス提供地域": "知多市、常滑市、東海市、半田市、大府市、知多郡武豊町、美浜町、南知多町、阿久比町、東浦町" }, "geometry": { "type": "Point", "coordinates": [ 136.8285194, 34.921509 ] } },
{ "type": "Feature", "properties": { "URL": "https://www.kaigokensaku.mhlw.go.jp/23/index.php?action_kouhyou_detail_023_kani=true&JigyosyoCd=2371501988-00&ServiceCd=430&Type=search", "名称": "愛・Ｉ居宅介護支援事業所", "内容2": null, "郵便番号": null, "所在地": "〒465-0023名古屋市名東区石が根町８５番地 高重ビル１０３号", "区分": "居宅介護支援", "緯度": 35.1818821, "経度": 137.0090226, "サービス提供地域": "名古屋市名東区・千種区" }, "geometry": { "type": "Point", "coordinates": [ 137.0090226, 35.1818821 ] } },
{ "type": "Feature", "properties": { "URL": "https://www.kaigokensaku.mhlw.go.jp/23/index.php?action_kouhyou_detail_023_kani=true&JigyosyoCd=2374900039-00&ServiceCd=430&Type=search", "名称": "日進市社会福祉協議会 ふれあい介護支援センター", "内容2": null, "郵便番号": null, "所在地": "〒470-0122愛知県日進市蟹甲町中島22番地 中央福祉センター", "区分": "居宅介護支援", "緯度": 35.1327696, "経度": 137.0420144, "サービス提供地域": "日進市全域" }, "geometry": { "type": "Point", "coordinates": [ 137.0420144, 35.1327696 ] } },
{ "type": "Feature", "properties": { "URL": "https://www.kaigokensaku.mhlw.go.jp/23/index.php?action_kouhyou_detail_023_kani=true&JigyosyoCd=2372205209-00&ServiceCd=430&Type=search", "名称": "居宅介護支援事業所　ちいきの介護相談室", "内容2": null, "郵便番号": null, "所在地": "〒493-0001愛知県一宮市木曽川町黒田字高田68", "区分": "居宅介護支援", "緯度": 35.3415415, "経度": 136.7782463, "サービス提供地域": "一宮市、稲沢市、江南市、丹羽郡" }, "geometry": { "type": "Point", "coordinates": [ 136.7782463, 35.3415415 ] } },
{ "type": "Feature", "properties": { "URL": "https://www.kaigokensaku.mhlw.go.jp/23/index.php?action_kouhyou_detail_023_kani=true&JigyosyoCd=2371504347-00&ServiceCd=430&Type=search", "名称": "ケアプランあいあい", "内容2": null, "郵便番号": null, "所在地": "〒465-0013社口二丁目７１４番地 カーサ一社103号室", "区分": "居宅介護支援", "緯度": 35.1776325, "経度": 136.9994554, "サービス提供地域": "名古屋市名東区、千種区、天白区、守山区、北区、東区、中区、昭和区、瑞穂区、南区、中川区、春日井市、長久手市、日進市" }, "geometry": { "type": "Point", "coordinates": [ 136.999455399999988, 35.1776325 ] } },
{ "type": "Feature", "properties": { "URL": "https://www.kaigokensaku.mhlw.go.jp/23/index.php?action_kouhyou_detail_023_kani=true&JigyosyoCd=2371301710-00&ServiceCd=430&Type=search", "名称": "ケアプラン町南", "内容2": null, "郵便番号": null, "所在地": "〒463-0066愛知県名古屋市守山区町南1-1 リアライズ矢田川101号室", "区分": "居宅介護支援", "緯度": 35.1950169, "経度": 136.950798, "サービス提供地域": "守山区・北区・東区・名東区・千種区" }, "geometry": { "type": "Point", "coordinates": [ 136.950798, 35.1950169 ] } },
{ "type": "Feature", "properties": { "URL": "https://www.kaigokensaku.mhlw.go.jp/23/index.php?action_kouhyou_detail_023_kani=true&JigyosyoCd=2372503025-00&ServiceCd=430&Type=search", "名称": "ケアポート春日井", "内容2": null, "郵便番号": null, "所在地": "〒487-0033春日井市岩成台１０丁目２－１０", "区分": "居宅介護支援", "緯度": 35.2785044, "経度": 137.0342323, "サービス提供地域": "春日井市、小牧市、瀬戸市、長久手市、名古屋市（北区、守山区、名東区、千種区、東区、西区）" }, "geometry": { "type": "Point", "coordinates": [ 137.034232300000014, 35.2785044 ] } },
{ "type": "Feature", "properties": { "URL": "https://www.kaigokensaku.mhlw.go.jp/23/index.php?action_kouhyou_detail_023_kani=true&JigyosyoCd=2373201660-00&ServiceCd=430&Type=search", "名称": "ケアマネジメント奏", "内容2": null, "郵便番号": null, "所在地": "〒444-0524吉良町荻原大道通44ｰ10", "区分": "居宅介護支援", "緯度": 34.8063837, "経度": 137.0637524, "サービス提供地域": "西尾市吉良町、名古屋市、清須市、あま市、津島市、稲沢市、愛西市、海部郡大治町" }, "geometry": { "type": "Point", "coordinates": [ 137.0637524, 34.8063837 ] } },
{ "type": "Feature", "properties": { "URL": "https://www.kaigokensaku.mhlw.go.jp/23/index.php?action_kouhyou_detail_023_kani=true&JigyosyoCd=2374000608-00&ServiceCd=430&Type=search", "名称": "寿楽荘居宅介護支援事業所", "内容2": null, "郵便番号": null, "所在地": "〒441-1338愛知県新城市一鍬田字清水野12-3", "区分": "居宅介護支援", "緯度": 34.8672812, "経度": 137.5004925, "サービス提供地域": "新城市内全域" }, "geometry": { "type": "Point", "coordinates": [ 137.5004925, 34.8672812 ] } },
{ "type": "Feature", "properties": { "URL": "https://www.kaigokensaku.mhlw.go.jp/23/index.php?action_kouhyou_detail_023_kani=true&JigyosyoCd=2374501522-00&ServiceCd=430&Type=search", "名称": "合同会社 ケアプランウィズ", "内容2": null, "郵便番号": null, "所在地": "〒488-0057愛知県尾張旭市北山町北新田７番地１５ ６棟１０１", "区分": "居宅介護支援", "緯度": 35.2132802, "経度": 137.0433534, "サービス提供地域": "尾張旭市、瀬戸市、名古屋市守山区、名古屋市名東区、春日井市、長久手市" }, "geometry": { "type": "Point", "coordinates": [ 137.0433534, 35.2132802 ] } },
{ "type": "Feature", "properties": { "URL": "https://www.kaigokensaku.mhlw.go.jp/23/index.php?action_kouhyou_detail_023_kani=true&JigyosyoCd=2372203378-00&ServiceCd=430&Type=search", "名称": "やわらぎ居宅介護相談センター", "内容2": null, "郵便番号": null, "所在地": "〒494-0007愛知県一宮市小信中島字西五反田３５番地２", "区分": "居宅介護支援", "緯度": 35.3145808, "経度": 136.7507585, "サービス提供地域": "一宮市、稲沢市、羽島市、岐阜県羽島郡" }, "geometry": { "type": "Point", "coordinates": [ 136.750758499999989, 35.3145808 ] } },
{ "type": "Feature", "properties": { "URL": "https://www.kaigokensaku.mhlw.go.jp/23/index.php?action_kouhyou_detail_023_kani=true&JigyosyoCd=2372400016-00&ServiceCd=430&Type=search", "名称": "ナチュラル居宅介護支援事業所", "内容2": null, "郵便番号": null, "所在地": "〒475-0031半田市阿原町12-6", "区分": "居宅介護支援", "緯度": 34.9139714, "経度": 136.9595079, "サービス提供地域": "半田市・阿久比・知多市・武豊町　ほか" }, "geometry": { "type": "Point", "coordinates": [ 136.9595079, 34.9139714 ] } },
{ "type": "Feature", "properties": { "URL": "https://www.kaigokensaku.mhlw.go.jp/23/index.php?action_kouhyou_detail_023_kani=true&JigyosyoCd=2374901425-00&ServiceCd=430&Type=search", "名称": "ケアマネジメントみのて", "内容2": null, "郵便番号": null, "所在地": "〒470-0126愛知県日進市赤池町箕ノ手２番地８８６", "区分": "居宅介護支援", "緯度": 35.1123927, "経度": 137.023476, "サービス提供地域": "日進市、東郷町、みよし市、名古屋市天白区、名東区、緑区、豊田市北西部" }, "geometry": { "type": "Point", "coordinates": [ 137.023476, 35.1123927 ] } },
{ "type": "Feature", "properties": { "URL": "https://www.kaigokensaku.mhlw.go.jp/23/index.php?action_kouhyou_detail_023_kani=true&JigyosyoCd=2371501475-00&ServiceCd=430&Type=search", "名称": "ケアプランまえだ", "内容2": null, "郵便番号": null, "所在地": "〒465-0065名古屋市名東区梅森坂三丁目5201番地", "区分": "居宅介護支援", "緯度": 35.142942, "経度": 137.019053, "サービス提供地域": "名古屋市内・日進市・愛知郡長久手町" }, "geometry": { "type": "Point", "coordinates": [ 137.019053, 35.142942 ] } },
{ "type": "Feature", "properties": { "URL": "https://www.kaigokensaku.mhlw.go.jp/23/index.php?action_kouhyou_detail_023_kani=true&JigyosyoCd=2375602261-00&ServiceCd=430&Type=search", "名称": "居宅介護支援事業所かにえ", "内容2": null, "郵便番号": null, "所在地": "〒497-0044愛知県蟹江町大字蟹江新田字佐屋川東48-1", "区分": "居宅介護支援", "緯度": 35.1360507, "経度": 136.7761049, "サービス提供地域": "蟹江町　弥富市　津島市　愛西市　あま市　　飛島村　　名古屋市中川区" }, "geometry": { "type": "Point", "coordinates": [ 136.7761049, 35.1360507 ] } },
{ "type": "Feature", "properties": { "URL": "https://www.kaigokensaku.mhlw.go.jp/23/index.php?action_kouhyou_detail_023_kani=true&JigyosyoCd=2374600027-00&ServiceCd=430&Type=search", "名称": "高浜安立荘居宅介護支援事業所", "内容2": null, "郵便番号": null, "所在地": "〒444-1335愛知県高浜市芳川町１丁目２番地７３", "区分": "居宅介護支援", "緯度": 34.9411011, "経度": 136.9817837, "サービス提供地域": "高浜市内" }, "geometry": { "type": "Point", "coordinates": [ 136.9817837, 34.9411011 ] } },
{ "type": "Feature", "properties": { "URL": "https://www.kaigokensaku.mhlw.go.jp/23/index.php?action_kouhyou_detail_023_kani=true&JigyosyoCd=2372602991-00&ServiceCd=430&Type=search", "名称": "ケアプランセンターかえで", "内容2": null, "郵便番号": null, "所在地": "〒441-0105愛知県豊川市伊奈町新町5-1 フレンズシビック202号室", "区分": "居宅介護支援", "緯度": 34.8097071, "経度": 137.3553404, "サービス提供地域": "豊川市全域、豊橋市(瓜郷町、下地町、大村町)、蒲郡市(大塚町)" }, "geometry": { "type": "Point", "coordinates": [ 137.355340399999989, 34.8097071 ] } },
{ "type": "Feature", "properties": { "URL": "https://www.kaigokensaku.mhlw.go.jp/23/index.php?action_kouhyou_detail_023_kani=true&JigyosyoCd=2373102512-00&ServiceCd=430&Type=search", "名称": "向日葵のひざしケアプラン", "内容2": null, "郵便番号": null, "所在地": "〒446-0037愛知県安城市相生町4番8号 FLAT　C　相生Ⅲ　2F", "区分": "居宅介護支援", "緯度": 34.955097, "経度": 137.0883731, "サービス提供地域": "安城市、刈谷市、知立市、高浜市、碧南市、西尾市、岡崎市、幸田町、豊田市、半田市" }, "geometry": { "type": "Point", "coordinates": [ 137.088373100000013, 34.955097 ] } },
{ "type": "Feature", "properties": { "URL": "https://www.kaigokensaku.mhlw.go.jp/23/index.php?action_kouhyou_detail_023_kani=true&JigyosyoCd=2373901558-00&ServiceCd=430&Type=search", "名称": "ケアプランセンター　長楽", "内容2": null, "郵便番号": null, "所在地": "〒482-8349愛知県稲沢市儀長五丁目129番地", "区分": "居宅介護支援", "緯度": 35.2377612, "経度": 136.7630677, "サービス提供地域": "稲沢市・一宮市・愛西市・あま市・津島市・清須市" }, "geometry": { "type": "Point", "coordinates": [ 136.7630677, 35.2377612 ] } },
{ "type": "Feature", "properties": { "URL": "https://www.kaigokensaku.mhlw.go.jp/23/index.php?action_kouhyou_detail_023_kani=true&JigyosyoCd=2373002332-00&ServiceCd=430&Type=search", "名称": "ケアプランセンターくらがいけ", "内容2": null, "郵便番号": null, "所在地": "〒471-0003愛知県豊田市岩滝町高入４０－１", "区分": "居宅介護支援", "緯度": 35.1004424, "経度": 137.2007695, "サービス提供地域": "豊田市の一部。" }, "geometry": { "type": "Point", "coordinates": [ 137.2007695, 35.1004424 ] } },
{ "type": "Feature", "properties": { "URL": "https://www.kaigokensaku.mhlw.go.jp/23/index.php?action_kouhyou_detail_023_kani=true&JigyosyoCd=2373600713-00&ServiceCd=430&Type=search", "名称": "ふぁみりい恕苑居宅介護支援事業所", "内容2": null, "郵便番号": null, "所在地": "〒483-8404愛知県江南市小杁町林125番地", "区分": "居宅介護支援", "緯度": 35.3678688, "経度": 136.8780825, "サービス提供地域": "江南市、扶桑町、大口町の全域 一宮市、犬山市、各務原市の一部地域" }, "geometry": { "type": "Point", "coordinates": [ 136.8780825, 35.3678688 ] } },
{ "type": "Feature", "properties": { "URL": "https://www.kaigokensaku.mhlw.go.jp/23/index.php?action_kouhyou_detail_023_kani=true&JigyosyoCd=2375601743-00&ServiceCd=430&Type=search", "名称": "さくら居宅介護支援事業所", "内容2": null, "郵便番号": null, "所在地": "〒497-0004愛知県あま市七宝町桂北海道43", "区分": "居宅介護支援", "緯度": 35.1731738, "経度": 136.7994915, "サービス提供地域": "名古屋市中川区、あま市" }, "geometry": { "type": "Point", "coordinates": [ 136.799491499999988, 35.1731738 ] } },
{ "type": "Feature", "properties": { "URL": "https://www.kaigokensaku.mhlw.go.jp/23/index.php?action_kouhyou_detail_023_kani=true&JigyosyoCd=2370701605-00&ServiceCd=430&Type=search", "名称": "いつき介護相談センター石川橋", "内容2": null, "郵便番号": null, "所在地": "〒466-0842檀渓通5丁目26番地", "区分": "居宅介護支援", "緯度": 35.1384044, "経度": 136.9451484, "サービス提供地域": "名古屋市内全域" }, "geometry": { "type": "Point", "coordinates": [ 136.9451484, 35.1384044 ] } },
{ "type": "Feature", "properties": { "URL": "https://www.kaigokensaku.mhlw.go.jp/23/index.php?action_kouhyou_detail_023_kani=true&JigyosyoCd=2373600812-00&ServiceCd=430&Type=search", "名称": "介護相談センター　よつ葉　江南", "内容2": null, "郵便番号": null, "所在地": "〒483-8334愛知県江南市前飛保町緑ヶ丘８３番地", "区分": "居宅介護支援", "緯度": 35.347347, "経度": 136.8617459, "サービス提供地域": "江南市、一宮市、犬山市、大口町、扶桑町" }, "geometry": { "type": "Point", "coordinates": [ 136.861745899999988, 35.347347 ] } },
{ "type": "Feature", "properties": { "URL": "https://www.kaigokensaku.mhlw.go.jp/23/index.php?action_kouhyou_detail_023_kani=true&JigyosyoCd=2373102355-00&ServiceCd=430&Type=search", "名称": "ケアプラン なないろ", "内容2": null, "郵便番号": null, "所在地": "〒446-0066愛知県安城市池浦町丸田71-11 タウニー丸田B101", "区分": "居宅介護支援", "緯度": 34.9752851, "経度": 137.0816836, "サービス提供地域": "安城市の一部 ・東山中学校区 ・安城北中学校区 ・安祥中学校区 ・篠目中学校区 ・安城南中学校区の一部（朝日町、日の出町、南町、相生町、御幸本町、桜町、花ノ木町、末広町、横山町）" }, "geometry": { "type": "Point", "coordinates": [ 137.0816836, 34.9752851 ] } },
{ "type": "Feature", "properties": { "URL": "https://www.kaigokensaku.mhlw.go.jp/23/index.php?action_kouhyou_detail_023_kani=true&JigyosyoCd=2372601753-00&ServiceCd=430&Type=search", "名称": "ケアプランセンター花の樹", "内容2": null, "郵便番号": null, "所在地": "〒442-0832寿通2丁目6番地1", "区分": "居宅介護支援", "緯度": 34.8097055, "経度": 137.3712518, "サービス提供地域": "豊川市" }, "geometry": { "type": "Point", "coordinates": [ 137.37125180000001, 34.8097055 ] } },
{ "type": "Feature", "properties": { "URL": "https://www.kaigokensaku.mhlw.go.jp/23/index.php?action_kouhyou_detail_023_kani=true&JigyosyoCd=2374400782-00&ServiceCd=430&Type=search", "名称": "知立ケアプランセンター", "内容2": null, "郵便番号": null, "所在地": "〒472-0044知立市広見３－５２ コーポ広見１０１", "区分": "居宅介護支援", "緯度": 35.000584, "経度": 137.0514244, "サービス提供地域": "知立市　刈谷市　安城市　豊田市" }, "geometry": { "type": "Point", "coordinates": [ 137.0514244, 35.000584 ] } },
{ "type": "Feature", "properties": { "URL": "https://www.kaigokensaku.mhlw.go.jp/23/index.php?action_kouhyou_detail_023_kani=true&JigyosyoCd=2371500014-00&ServiceCd=430&Type=search", "名称": "快適ライフセンター", "内容2": null, "郵便番号": null, "所在地": "〒465-0028名古屋市名東区引山１丁目６０８番地", "区分": "居宅介護支援", "緯度": 35.1914853, "経度": 136.9977739, "サービス提供地域": "名古屋市、日進市、尾張旭市、長久手市、春日井市" }, "geometry": { "type": "Point", "coordinates": [ 136.9977739, 35.1914853 ] } },
{ "type": "Feature", "properties": { "URL": "https://www.kaigokensaku.mhlw.go.jp/23/index.php?action_kouhyou_detail_023_kani=true&JigyosyoCd=2370102192-00&ServiceCd=430&Type=search", "名称": "アプリコケアセンター", "内容2": null, "郵便番号": null, "所在地": "〒464-0083愛知県名古屋市千種区北千種3丁目4番地12号 CASA　BENE10号", "区分": "居宅介護支援", "緯度": 35.1794118, "経度": 136.9496801, "サービス提供地域": "名古屋市、春日井市、豊明市、東海市、大府市、東郷町、みよし市" }, "geometry": { "type": "Point", "coordinates": [ 136.9496801, 35.1794118 ] } },
{ "type": "Feature", "properties": { "URL": "https://www.kaigokensaku.mhlw.go.jp/23/index.php?action_kouhyou_detail_023_kani=true&JigyosyoCd=2370700045-00&ServiceCd=430&Type=search", "名称": "アースサポート名古屋", "内容2": null, "郵便番号": null, "所在地": "〒466-0064愛知県名古屋市昭和区鶴舞四丁目10番13号", "区分": "居宅介護支援", "緯度": 35.1513616, "経度": 136.9243984, "サービス提供地域": "愛知県　名古屋市全域" }, "geometry": { "type": "Point", "coordinates": [ 136.9243984, 35.1513616 ] } },
{ "type": "Feature", "properties": { "URL": "https://www.kaigokensaku.mhlw.go.jp/23/index.php?action_kouhyou_detail_023_kani=true&JigyosyoCd=2377300526-00&ServiceCd=430&Type=search", "名称": "介護支援センター花咲", "内容2": null, "郵便番号": null, "所在地": "〒452-0014西枇杷島町押花４７番地　２階", "区分": "居宅介護支援", "緯度": 35.2002858, "経度": 136.8669392, "サービス提供地域": "通常の事業の実施地域は、清須市　名古屋市西区　となります。" }, "geometry": { "type": "Point", "coordinates": [ 136.8669392, 35.2002858 ] } },
{ "type": "Feature", "properties": { "URL": "https://www.kaigokensaku.mhlw.go.jp/23/index.php?action_kouhyou_detail_023_kani=true&JigyosyoCd=2372000212-00&ServiceCd=430&Type=search", "名称": "医療法人さわらび会　福祉村指定居宅介護支援事業所", "内容2": null, "郵便番号": null, "所在地": "〒441-8124愛知県豊橋市野依町字山中１９－１", "区分": "居宅介護支援", "緯度": 34.7012038, "経度": 137.3998629, "サービス提供地域": "豊橋市、豊川市、田原市" }, "geometry": { "type": "Point", "coordinates": [ 137.399862899999988, 34.7012038 ] } },
{ "type": "Feature", "properties": { "URL": "https://www.kaigokensaku.mhlw.go.jp/23/index.php?action_kouhyou_detail_023_kani=true&JigyosyoCd=2375602469-00&ServiceCd=430&Type=search", "名称": "きよくろケアプラン", "内容2": null, "郵便番号": null, "所在地": "〒490-1131愛知県海部郡大治町大字長牧字中道135番地の１", "区分": "居宅介護支援", "緯度": 35.180643, "経度": 136.834366, "サービス提供地域": "大治町・あま市・蟹江町・清須市・津島市・弥富市・飛島村・名古屋市中村区・名古屋市中川区・名古屋市西区" }, "geometry": { "type": "Point", "coordinates": [ 136.834366, 35.180643 ] } },
{ "type": "Feature", "properties": { "URL": "https://www.kaigokensaku.mhlw.go.jp/23/index.php?action_kouhyou_detail_023_kani=true&JigyosyoCd=2373200977-00&ServiceCd=430&Type=search", "名称": "株式会社　たなごころ", "内容2": null, "郵便番号": null, "所在地": "〒445-0063愛知県西尾市今川町西新田70番６", "区分": "居宅介護支援", "緯度": 34.8499675, "経度": 137.0542345, "サービス提供地域": "西尾市、碧南市(佐久島を除く）" }, "geometry": { "type": "Point", "coordinates": [ 137.0542345, 34.8499675 ] } },
{ "type": "Feature", "properties": { "URL": "https://www.kaigokensaku.mhlw.go.jp/23/index.php?action_kouhyou_detail_023_kani=true&JigyosyoCd=2375001290-00&ServiceCd=430&Type=search", "名称": "虹色居宅介護支援事業所", "内容2": null, "郵便番号": null, "所在地": "〒470-0162愛知県愛知郡東郷町大字春木字涼松185番地９", "区分": "居宅介護支援", "緯度": 35.1013789, "経度": 137.0233293, "サービス提供地域": "東郷町　日進市　長久手市　豊明市　みよし市　刈谷市(井ヶ谷町)　豊田市(千足町)　　名古屋市(天白区　名東区　緑区)" }, "geometry": { "type": "Point", "coordinates": [ 137.0233293, 35.1013789 ] } },
{ "type": "Feature", "properties": { "URL": "https://www.kaigokensaku.mhlw.go.jp/23/index.php?action_kouhyou_detail_023_kani=true&JigyosyoCd=2372000444-00&ServiceCd=430&Type=search", "名称": "宅老所たんぽぽ事業所", "内容2": null, "郵便番号": null, "所在地": "〒440-0012愛知県豊橋市東小鷹野四丁目１５番地の３", "区分": "居宅介護支援", "緯度": 34.7718624, "経度": 137.4306478, "サービス提供地域": "豊橋市内" }, "geometry": { "type": "Point", "coordinates": [ 137.4306478, 34.7718624 ] } },
{ "type": "Feature", "properties": { "URL": "https://www.kaigokensaku.mhlw.go.jp/23/index.php?action_kouhyou_detail_023_kani=true&JigyosyoCd=2373000351-00&ServiceCd=430&Type=search", "名称": "日本介護サービス株式会社", "内容2": null, "郵便番号": null, "所在地": "〒471-0851愛知県豊田市樹木町5丁目51番地", "区分": "居宅介護支援", "緯度": 35.0755697, "経度": 137.1500865, "サービス提供地域": "豊田市" }, "geometry": { "type": "Point", "coordinates": [ 137.150086499999986, 35.0755697 ] } },
{ "type": "Feature", "properties": { "URL": "https://www.kaigokensaku.mhlw.go.jp/23/index.php?action_kouhyou_detail_023_kani=true&JigyosyoCd=2373400551-00&ServiceCd=430&Type=search", "名称": "いつき介護相談センター　犬山", "内容2": null, "郵便番号": null, "所在地": "〒484-0059愛知県犬山市上坂町五丁目２３２番地", "区分": "居宅介護支援", "緯度": 35.372271, "経度": 136.9291693, "サービス提供地域": "犬山市・丹羽郡扶桑町" }, "geometry": { "type": "Point", "coordinates": [ 136.929169300000012, 35.372271 ] } },
{ "type": "Feature", "properties": { "URL": "https://www.kaigokensaku.mhlw.go.jp/23/index.php?action_kouhyou_detail_023_kani=true&JigyosyoCd=2376300048-00&ServiceCd=430&Type=search", "名称": "したら居宅介護支援事業所", "内容2": null, "郵便番号": null, "所在地": "〒441-2301愛知県北設楽郡設楽町田口字向木屋４番地 したら保健福祉センター", "区分": "居宅介護支援", "緯度": 35.096028, "経度": 137.5724811, "サービス提供地域": "設楽町全域" }, "geometry": { "type": "Point", "coordinates": [ 137.5724811, 35.096028 ] } },
{ "type": "Feature", "properties": { "URL": "https://www.kaigokensaku.mhlw.go.jp/23/index.php?action_kouhyou_detail_023_kani=true&JigyosyoCd=2372602405-00&ServiceCd=430&Type=search", "名称": "ケアプランセンター花れん", "内容2": null, "郵便番号": null, "所在地": "〒442-0833愛知県豊川市西口町２－１２", "区分": "居宅介護支援", "緯度": 34.8082645, "経度": 137.3714895, "サービス提供地域": "豊川市" }, "geometry": { "type": "Point", "coordinates": [ 137.3714895, 34.8082645 ] } },
{ "type": "Feature", "properties": { "URL": "https://www.kaigokensaku.mhlw.go.jp/23/index.php?action_kouhyou_detail_023_kani=true&JigyosyoCd=2373102397-00&ServiceCd=430&Type=search", "名称": "合同会社ＵＮＩＴＥ　ケアテラスあんじょう", "内容2": null, "郵便番号": null, "所在地": "〒444-1154愛知県安城市桜井町阿原28-1　1Ｆ-1号室", "区分": "居宅介護支援", "緯度": 34.9195515, "経度": 137.0921689, "サービス提供地域": "安城全域、刈谷市全域、知立市全域" }, "geometry": { "type": "Point", "coordinates": [ 137.0921689, 34.9195515 ] } },
{ "type": "Feature", "properties": { "URL": "https://www.kaigokensaku.mhlw.go.jp/23/index.php?action_kouhyou_detail_023_kani=true&JigyosyoCd=2370101616-00&ServiceCd=430&Type=search", "名称": "東明居宅介護支援事業所", "内容2": null, "郵便番号": null, "所在地": "〒464-0028愛知県名古屋市千種区東明町二丁目10番地 東明コーポラス206号", "区分": "居宅介護支援", "緯度": 35.1665619, "経度": 136.9728249, "サービス提供地域": "名古屋市千種区・東区・昭和区・守山区・名東区" }, "geometry": { "type": "Point", "coordinates": [ 136.9728249, 35.1665619 ] } },
{ "type": "Feature", "properties": { "URL": "https://www.kaigokensaku.mhlw.go.jp/23/index.php?action_kouhyou_detail_023_kani=true&JigyosyoCd=2372601530-00&ServiceCd=430&Type=search", "名称": "居宅介護支援事業所さかえの郷豊川", "内容2": null, "郵便番号": null, "所在地": "〒442-0068愛知県豊川市諏訪二丁目425番地 パークビル２A", "区分": "居宅介護支援", "緯度": 34.823289, "経度": 137.3756753, "サービス提供地域": "豊橋市、豊川市、新城市、田原市、蒲郡市" }, "geometry": { "type": "Point", "coordinates": [ 137.375675300000012, 34.823289 ] } },
{ "type": "Feature", "properties": { "URL": "https://www.kaigokensaku.mhlw.go.jp/23/index.php?action_kouhyou_detail_023_kani=true&JigyosyoCd=2372101077-00&ServiceCd=430&Type=search", "名称": "サン・ケアプランセンター", "内容2": null, "郵便番号": null, "所在地": "〒444-0038愛知県岡崎市伝馬通1丁目78番地", "区分": "居宅介護支援", "緯度": 34.9573247, "経度": 137.168013, "サービス提供地域": "岡崎市内 ※但し、事業所がサービス提供を可能と判断した場合その限りではない" }, "geometry": { "type": "Point", "coordinates": [ 137.168013, 34.9573247 ] } },
{ "type": "Feature", "properties": { "URL": "https://www.kaigokensaku.mhlw.go.jp/23/index.php?action_kouhyou_detail_023_kani=true&JigyosyoCd=2372701074-00&ServiceCd=430&Type=search", "名称": "ケアプラン真藤香", "内容2": null, "郵便番号": null, "所在地": "〒496-0038愛知県津島市橘町一丁目7番地３", "区分": "居宅介護支援", "緯度": 35.1753695, "経度": 136.731729, "サービス提供地域": "津島市、愛西市、弥富市、あま市、蟹江町、大治町、飛島村" }, "geometry": { "type": "Point", "coordinates": [ 136.731729, 35.1753695 ] } },
{ "type": "Feature", "properties": { "URL": "https://www.kaigokensaku.mhlw.go.jp/23/index.php?action_kouhyou_detail_023_kani=true&JigyosyoCd=2371502614-00&ServiceCd=430&Type=search", "名称": "サニーライフ名古屋名東　居宅介護支援事業所", "内容2": null, "郵便番号": null, "所在地": "〒465-0054愛知県名古屋市名東区高針台2丁目９０１番地", "区分": "居宅介護支援", "緯度": 35.1584191, "経度": 137.0170952, "サービス提供地域": "名古屋市名東区" }, "geometry": { "type": "Point", "coordinates": [ 137.0170952, 35.1584191 ] } },
{ "type": "Feature", "properties": { "URL": "https://www.kaigokensaku.mhlw.go.jp/23/index.php?action_kouhyou_detail_023_kani=true&JigyosyoCd=2373100342-00&ServiceCd=430&Type=search", "名称": "コープあいち福祉サービス安城", "内容2": null, "郵便番号": null, "所在地": "〒444-1154愛知県安城市桜井町大役田34-19", "区分": "居宅介護支援", "緯度": 34.9165918, "経度": 137.0901609, "サービス提供地域": "安城市、西尾市、碧南市、刈谷市、知立市" }, "geometry": { "type": "Point", "coordinates": [ 137.0901609, 34.9165918 ] } },
{ "type": "Feature", "properties": { "URL": "https://www.kaigokensaku.mhlw.go.jp/23/index.php?action_kouhyou_detail_023_kani=true&JigyosyoCd=2376100752-00&ServiceCd=430&Type=search", "名称": "ケアプラン理常", "内容2": null, "郵便番号": null, "所在地": "〒470-0232愛知県みよし市黒笹いずみ三丁目１０番地２", "区分": "居宅介護支援", "緯度": 35.129741, "経度": 137.0937357, "サービス提供地域": "名古屋市守山区・千種区・名東区・長久手市・尾張旭市・日進市・東郷町・みよし市・豊田市" }, "geometry": { "type": "Point", "coordinates": [ 137.0937357, 35.129741 ] } },
{ "type": "Feature", "properties": { "URL": "https://www.kaigokensaku.mhlw.go.jp/23/index.php?action_kouhyou_detail_023_kani=true&JigyosyoCd=2374800452-00&ServiceCd=430&Type=search", "名称": "藤田医科大学　居宅介護支援事業所", "内容2": null, "郵便番号": null, "所在地": "〒470-1192愛知県豊明市沓掛町田楽ヶ窪１番地９８ レストピアふじた　３階", "区分": "居宅介護支援", "緯度": 35.0703325, "経度": 137.0014439, "サービス提供地域": "全域が対象（豊明市、名古屋市緑区・天白区・南区、愛知郡東郷町、大府市） 一部が対象 みよし市 （打越町・園原・天王寺・西一色町・西陣取山・東陣取山・東蜂ヶ池・東山台・福田町・みなよし台・明知町） 日進市 （赤池・赤池町・赤池南・浅田町・浅田平子・梅森台・梅森町・折戸町・香久山・蟹甲町・栄・野方町・東山・藤枝町・藤塚・本郷町・南ヶ丘） 刈谷市 （相生町・逢妻町・青山町・朝日町・井ヶ谷町・池田町・一色町・泉田町・一番町・一里山町・稲場町・今岡町・今川町・大手町・小山町・恩田町・刈谷・神田町・銀座" }, "geometry": { "type": "Point", "coordinates": [ 137.0014439, 35.0703325 ] } },
{ "type": "Feature", "properties": { "URL": "https://www.kaigokensaku.mhlw.go.jp/23/index.php?action_kouhyou_detail_023_kani=true&JigyosyoCd=2373901905-00&ServiceCd=430&Type=search", "名称": "Ｋライン・ケアプランセンター稲沢", "内容2": null, "郵便番号": null, "所在地": "〒492-8448愛知県稲沢市北麻績町沼２５", "区分": "居宅介護支援", "緯度": 35.2139133, "経度": 136.775507, "サービス提供地域": "稲沢市、愛西市、津島市、あま市（美和町、甚目寺町、七宝町）海部郡（大治町）名古屋市（西区、北区、南区）一宮市、御嵩町、小牧市、清須市、北名古屋市" }, "geometry": { "type": "Point", "coordinates": [ 136.775507, 35.2139133 ] } },
{ "type": "Feature", "properties": { "URL": "https://www.kaigokensaku.mhlw.go.jp/23/index.php?action_kouhyou_detail_023_kani=true&JigyosyoCd=2372202610-00&ServiceCd=430&Type=search", "名称": "ＮＰＯ法人　まごころ介護相談所", "内容2": null, "郵便番号": null, "所在地": "〒491-0041愛知県一宮市文京１丁目４番６号", "区分": "居宅介護支援", "緯度": 35.3111754, "経度": 136.8048675, "サービス提供地域": "一宮市" }, "geometry": { "type": "Point", "coordinates": [ 136.8048675, 35.3111754 ] } },
{ "type": "Feature", "properties": { "URL": "https://www.kaigokensaku.mhlw.go.jp/23/index.php?action_kouhyou_detail_023_kani=true&JigyosyoCd=2372206405-00&ServiceCd=430&Type=search", "名称": "けあぷらん　ふく", "内容2": null, "郵便番号": null, "所在地": "〒491-0912愛知県一宮市新生3丁目13番17号 サンパーク明宝107号室", "区分": "居宅介護支援", "緯度": 35.2968167, "経度": 136.7979727, "サービス提供地域": "一宮市" }, "geometry": { "type": "Point", "coordinates": [ 136.7979727, 35.2968167 ] } },
{ "type": "Feature", "properties": { "URL": "https://www.kaigokensaku.mhlw.go.jp/23/index.php?action_kouhyou_detail_023_kani=true&JigyosyoCd=2372505970-00&ServiceCd=430&Type=search", "名称": "アスカケアプランセンター", "内容2": null, "郵便番号": null, "所在地": "〒487-0034白山町二丁目4番地13", "区分": "居宅介護支援", "緯度": 35.2706745, "経度": 137.0359295, "サービス提供地域": "春日井市、名古屋市守山区、小牧市、多治見市、瀬戸市、清須市、稲沢市" }, "geometry": { "type": "Point", "coordinates": [ 137.0359295, 35.2706745 ] } },
{ "type": "Feature", "properties": { "URL": "https://www.kaigokensaku.mhlw.go.jp/23/index.php?action_kouhyou_detail_023_kani=true&JigyosyoCd=2373800180-00&ServiceCd=430&Type=search", "名称": "居宅介護支援事業所 こまきの森", "内容2": null, "郵便番号": null, "所在地": "〒485-0075愛知県小牧市大字三ツ渕１９４５番地１", "区分": "居宅介護支援", "緯度": 35.3032455, "経度": 136.8925049, "サービス提供地域": "小牧市、春日井市、江南市、岩倉市、西春日井郡豊山町、大口町、扶桑町、北名古屋市、名古屋市全域、犬山市" }, "geometry": { "type": "Point", "coordinates": [ 136.8925049, 35.3032455 ] } },
{ "type": "Feature", "properties": { "URL": "https://www.kaigokensaku.mhlw.go.jp/23/index.php?action_kouhyou_detail_023_kani=true&JigyosyoCd=2377100066-00&ServiceCd=430&Type=search", "名称": "田原市社協あかばねケアプランセンター", "内容2": null, "郵便番号": null, "所在地": "〒441-3502愛知県田原市赤羽根町赤土１番地 赤羽根福祉センター", "区分": "居宅介護支援", "緯度": 34.6190241, "経度": 137.2112109, "サービス提供地域": "田原市" }, "geometry": { "type": "Point", "coordinates": [ 137.2112109, 34.6190241 ] } },
{ "type": "Feature", "properties": { "URL": "https://www.kaigokensaku.mhlw.go.jp/23/index.php?action_kouhyou_detail_023_kani=true&JigyosyoCd=2372400511-00&ServiceCd=430&Type=search", "名称": "ケアプランセンターにじいろ", "内容2": null, "郵便番号": null, "所在地": "〒475-0837愛知県半田市有楽町2丁目221番地の2 ふらっとスペース・ならわ　2206号", "区分": "居宅介護支援", "緯度": 34.880083, "経度": 136.9224585, "サービス提供地域": "半田市" }, "geometry": { "type": "Point", "coordinates": [ 136.9224585, 34.880083 ] } },
{ "type": "Feature", "properties": { "URL": "https://www.kaigokensaku.mhlw.go.jp/23/index.php?action_kouhyou_detail_023_kani=true&JigyosyoCd=2375500069-00&ServiceCd=430&Type=search", "名称": "ケア・デザイン", "内容2": null, "郵便番号": null, "所在地": "〒490-1313愛知県稲沢市平和町横池三番割１９番地 平和らくらくプラザ内", "区分": "居宅介護支援", "緯度": 35.2128393, "経度": 136.7414292, "サービス提供地域": "稲沢市" }, "geometry": { "type": "Point", "coordinates": [ 136.7414292, 35.212839300000013 ] } },
{ "type": "Feature", "properties": { "URL": "https://www.kaigokensaku.mhlw.go.jp/23/index.php?action_kouhyou_detail_023_kani=true&JigyosyoCd=2372600656-00&ServiceCd=430&Type=search", "名称": "ケアサポートセンター　ウェルネス", "内容2": null, "郵便番号": null, "所在地": "〒442-0854豊川市国府町流霞１１６", "区分": "居宅介護支援", "緯度": 34.8334663, "経度": 137.3261523, "サービス提供地域": "豊川市内" }, "geometry": { "type": "Point", "coordinates": [ 137.3261523, 34.8334663 ] } },
{ "type": "Feature", "properties": { "URL": "https://www.kaigokensaku.mhlw.go.jp/23/index.php?action_kouhyou_detail_023_kani=true&JigyosyoCd=2372201083-00&ServiceCd=430&Type=search", "名称": "医療法人来光会　エブリデイ在宅介護相談センター", "内容2": null, "郵便番号": null, "所在地": "〒491-0927愛知県一宮市大和町戸塚字宮崎西17-1", "区分": "居宅介護支援", "緯度": 35.2780895, "経度": 136.7893052, "サービス提供地域": "一宮市、稲沢市、岩倉市、北名古屋市" }, "geometry": { "type": "Point", "coordinates": [ 136.7893052, 35.2780895 ] } },
{ "type": "Feature", "properties": { "URL": "https://www.kaigokensaku.mhlw.go.jp/23/index.php?action_kouhyou_detail_023_kani=true&JigyosyoCd=2372700266-00&ServiceCd=430&Type=search", "名称": "居宅介護支援事業所 長寿の里・津島", "内容2": null, "郵便番号": null, "所在地": "〒496-0874愛知県津島市江西町1丁目３番２", "区分": "居宅介護支援", "緯度": 35.1786406, "経度": 136.7135935, "サービス提供地域": "津島市　愛西市" }, "geometry": { "type": "Point", "coordinates": [ 136.7135935, 35.1786406 ] } },
{ "type": "Feature", "properties": { "URL": "https://www.kaigokensaku.mhlw.go.jp/23/index.php?action_kouhyou_detail_023_kani=true&JigyosyoCd=2375700834-00&ServiceCd=430&Type=search", "名称": "特定非営利活動法人　ゆめじろう", "内容2": null, "郵便番号": null, "所在地": "〒470-2531愛知県知多郡武豊町大字冨貴字外面８５番地２", "区分": "居宅介護支援", "緯度": 34.8291676, "経度": 136.9152839, "サービス提供地域": "基本的に武豊町内" }, "geometry": { "type": "Point", "coordinates": [ 136.9152839, 34.8291676 ] } },
{ "type": "Feature", "properties": { "URL": "https://www.kaigokensaku.mhlw.go.jp/23/index.php?action_kouhyou_detail_023_kani=true&JigyosyoCd=2372202941-00&ServiceCd=430&Type=search", "名称": "ケアプラン　くれいん", "内容2": null, "郵便番号": null, "所在地": "〒491-0828愛知県一宮市伝法寺11丁目5番地２７", "区分": "居宅介護支援", "緯度": 35.2640511, "経度": 136.8466467, "サービス提供地域": "一宮市（丹陽町、千秋町、多加木、平島、浅野、赤見）・岩倉市・小牧市（桃花台、大山、光が丘、高根を除く）・北名古屋市・春日町・稲沢市（下津、井之口）" }, "geometry": { "type": "Point", "coordinates": [ 136.8466467, 35.2640511 ] } },
{ "type": "Feature", "properties": { "URL": "https://www.kaigokensaku.mhlw.go.jp/23/index.php?action_kouhyou_detail_023_kani=true&JigyosyoCd=2375300866-00&ServiceCd=430&Type=search", "名称": "ケアプランセンターみかづき", "内容2": null, "郵便番号": null, "所在地": "〒480-0103愛知県丹羽郡扶桑町大字柏森字長畑665 シルクワームズ２Ｄ", "区分": "居宅介護支援", "緯度": 35.3538226, "経度": 136.9033823, "サービス提供地域": "扶桑町　　大口町　　犬山市　　江南市" }, "geometry": { "type": "Point", "coordinates": [ 136.9033823, 35.3538226 ] } },
{ "type": "Feature", "properties": { "URL": "https://www.kaigokensaku.mhlw.go.jp/23/index.php?action_kouhyou_detail_023_kani=true&JigyosyoCd=2377500075-00&ServiceCd=430&Type=search", "名称": "居宅介護支援センター　さくら", "内容2": null, "郵便番号": null, "所在地": "〒498-0017愛知県弥富市前ヶ須町午新田669-3", "区分": "居宅介護支援", "緯度": 35.1088795, "経度": 136.7187873, "サービス提供地域": "弥富市・蟹江町・愛西市・飛島村・桑名市木曽岬町・桑名市長島町（その他地域は要相談）" }, "geometry": { "type": "Point", "coordinates": [ 136.7187873, 35.1088795 ] } },
{ "type": "Feature", "properties": { "URL": "https://www.kaigokensaku.mhlw.go.jp/23/index.php?action_kouhyou_detail_023_kani=true&JigyosyoCd=2373601455-00&ServiceCd=430&Type=search", "名称": "ケアプランいっぽ", "内容2": null, "郵便番号": null, "所在地": "〒483-8339愛知県江南市飛高町栄２２番地", "区分": "居宅介護支援", "緯度": 35.3487642, "経度": 136.8665318, "サービス提供地域": "江南市、一宮市、岩倉市、稲沢市、小牧市" }, "geometry": { "type": "Point", "coordinates": [ 136.8665318, 35.3487642 ] } },
{ "type": "Feature", "properties": { "URL": "https://www.kaigokensaku.mhlw.go.jp/23/index.php?action_kouhyou_detail_023_kani=true&JigyosyoCd=2372600995-00&ServiceCd=430&Type=search", "名称": "えがお　ケアプランセンター", "内容2": null, "郵便番号": null, "所在地": "〒441-0211豊川市御油町一ノ坪64番地", "区分": "居宅介護支援", "緯度": 34.8414399, "経度": 137.3153066, "サービス提供地域": "豊川市" }, "geometry": { "type": "Point", "coordinates": [ 137.315306600000014, 34.8414399 ] } },
{ "type": "Feature", "properties": { "URL": "https://www.kaigokensaku.mhlw.go.jp/23/index.php?action_kouhyou_detail_023_kani=true&JigyosyoCd=2373500251-00&ServiceCd=430&Type=search", "名称": "しろやま居宅介護支援事業所", "内容2": null, "郵便番号": null, "所在地": "〒479-0003愛知県常滑市金山字屋敷30番地の1", "区分": "居宅介護支援", "緯度": 34.9306787, "経度": 136.838244, "サービス提供地域": "常滑市" }, "geometry": { "type": "Point", "coordinates": [ 136.838244, 34.9306787 ] } },
{ "type": "Feature", "properties": { "URL": "https://www.kaigokensaku.mhlw.go.jp/23/index.php?action_kouhyou_detail_023_kani=true&JigyosyoCd=2376000077-00&ServiceCd=430&Type=search", "名称": "まどかの郷　居宅介護支援事業所", "内容2": null, "郵便番号": null, "所在地": "〒444-0128愛知県額田郡幸田町大字野場字石荒２３番地", "区分": "居宅介護支援", "緯度": 34.8637349, "経度": 137.1521307, "サービス提供地域": "額田郡幸田町" }, "geometry": { "type": "Point", "coordinates": [ 137.152130699999987, 34.8637349 ] } },
{ "type": "Feature", "properties": { "URL": "https://www.kaigokensaku.mhlw.go.jp/23/index.php?action_kouhyou_detail_023_kani=true&JigyosyoCd=2372505715-00&ServiceCd=430&Type=search", "名称": "ゆうゆう居宅介護支援事業所", "内容2": null, "郵便番号": null, "所在地": "〒486-0844愛知県春日井市鳥居松町６丁目５－１ 丸十ビル2Ｆ", "区分": "居宅介護支援", "緯度": 35.2468161, "経度": 136.9762642, "サービス提供地域": "春日井市・小牧市" }, "geometry": { "type": "Point", "coordinates": [ 136.9762642, 35.2468161 ] } },
{ "type": "Feature", "properties": { "URL": "https://www.kaigokensaku.mhlw.go.jp/23/index.php?action_kouhyou_detail_023_kani=true&JigyosyoCd=2375900087-00&ServiceCd=430&Type=search", "名称": "一色ケアステーション", "内容2": null, "郵便番号": null, "所在地": "〒444-0403愛知県西尾市一色町松木島中切223番地5", "区分": "居宅介護支援", "緯度": 34.7943789, "経度": 137.0417249, "サービス提供地域": "西尾市（一色町・吉良町・鳥羽町・寺部町・西幡豆町・東幡豆町）※一色町佐久島を除く" }, "geometry": { "type": "Point", "coordinates": [ 137.0417249, 34.7943789 ] } },